~Version Information

 VERS.                2.00:   CWLS log ASCII Standard -VERSION 2.00

 WRAP.                  NO:   One line per frame      

~Well Information Block

#MNEM.UNIT                     Data                     Description

#----.----   ----------------------------------------   -------------------------------

 STRT.M                                     5560.9236 : Starting Depth

 STOP.M                                     6796.2018 : Ending Depth

 STEP.M                                        0.0762 : Level Spacing

 NULL.                                      -999.2500 : Absent Value

 COMP.       TOTAL                                    : Company

 WELL.       ABD001                                   : Well

 FLD .       ABSHERON                                 : Field

 LOC .       HEYDAR ALIYEV                            : Location

 PROV.                                                : Province

 CTRY.       AZERBAIJAN                               : Country

 SRVC.       Baker Hughes                             : Service Company

 DATE.       22-APR-2019                              : Log Date

 UWI .                                                : Unique Well ID

 LIC .                                                : License Number

~Curve Information Block

#MNEM    .UNIT        API Codes     Curve Description

#--------.--------   LG--CV-CL--M   ---------------------------------------------------

 DEPT    .M          99 995 99  1 : Depth

 ATAV    .DB/F       81 995 99  1 : Average attenuation

 ATC1    .DB/F       81 995 99  1 : Attenuation pad 1

 ATC2    .DB/F       81 995 99  1 : Attenuation pad 2

 ATC3    .DB/F       81 995 99  1 : Attenuation pad 3

 ATC4    .DB/F       81 995 99  1 : Attenuation pad 4

 ATC5    .DB/F       81 995 99  1 : Attenuation pad 5

 ATC6    .DB/F       81 995 99  1 : Attenuation pad 6

 ATMN    .DB/F       81 995 99  1 : Attenuation minimum

 ATMX    .DB/F       81 995 99  1 : Attenuation maximum

 CCL     .MV         86 150  1  1 : Casing collar locator

 DEVOD   .DEG        75 995 99  1 : Deviation

 DTMN    .US/F       99 995 99  1 : Minimal slowness

 DTMX    .US/F       99 995 99  1 : Maximal slowness

 GR      .GAPI       30 310  1  1 : Gamma ray

 RBSB    .DEG        75 631  1  1 : Relative bearing (relative to borehole low side) for SBT

 SPD     .M/MN       99 636 99  1 : Speed

 TTEN    .LBF        99 635 99  1 : Total tension

~Parameter Information Block

#MNEM.UNIT                     Value                    Description

#----.----   ----------------------------------------   -------------------------------

 HIDE.       SEGMENTED BOND TOOL^S                    : Header Identifier

 HID1.       GAMMA RAY LOG                            : Header Identifier

 HID2.       CASING COLLAR LOCATOR                    : Header Identifier

 HID3.       VARIABLE DENSITY LOG                     : Header Identifier

 HID4.       COMPENSATED Z-DENSILOG^S                 : Header Identifier

 HID5.       COMPENSATED NEUTRON LOG                  : Header Identifier

 HID6.       TTRM SUB^S                               : N/A

 HID7.       *** 7" LINER ***                         : N/A

 CMT1.       FINAL PRINT                              : Comment 1  

 CMT2.       1:200                                    : Comment 2  

 CMT3.       1:500                                    : Comment 3  

 LATI.       39DEG56'09.3"N                           : Latitude

 LONG.       50DEG52'53.8"E                           : Longitude

 OS2 .       SBT/GR/CCL/VDL                           : Other Services Line 2

 OS3 .       ZDL/CN/GR/TTRM                           : Other Services Line 3

 PDAT.       MSL                                      : Permanent Datum

 EPD .M      0                                        : Elevation Of Perm. Datum

 LMF .       DF                                       : Log Measured From

 APD .M      25.7                                     : Above Permanent Datum

 DMF .       DF                                       : Drilling Measured From

 EKB .M      25.7                                     : Elevation Of Kelly Bushing

 EDF .M      25.7                                     : Elevation Of Derrick Floor

 EGL .M      468.3                                    : Elevation Of Ground Level

 RUN .       3.1.1                                    : Run Number

 TRIP.       1                                        : Trip Number

 SON .       AZ19007                                  : Service Order Number

 TDD .M      7411                                     : Total Depth - Driller

 TLAB.       15:15 22-APR-2019                        : Time Logger At Bottom

 TLAS.       XX:XX 23-JAN-2019                        : N/A

 OPRT.       XX HOURS                                 : N/A

 DFT .       OBM                                      : Drilling Fluid Type

 DFD .LB/G   1.6                                      : Drilling Fluid Density

 BSAL.PPM    42500                                    : Borehole Salinity

 WHP .PSI    0                                        : N/A

 MHD .DEG    31.62                                    : Maximum Hole Deviation

 NLS .M/MN   9                                        : Nominal Logging Speed

 REFL.       NA                                       : N/A

 REFD.       NA                                       : N/A

 LUN .       9037                                     : Logging Unit Number

 LUL .       AZERBAIJAN                               : Logging Unit Location

 ENGI.       M.SERROUR/M.GULMAMMADOV                  : Engineer's Name

 WITN.       ADRIEN P. / KAMAL K.                     : Witness' Name

 TSTR.       SBT/GR/CCL//ZDL/CN/TTRM/                 : Title Service Mnemonic

 TSTG.       NA                                       : Title Service Mnemonic

 STUS.       FINAL                                    : Status

 LCNM.       Baker Hughes                             : Logging Company Name

 LCC .       150                                      : Logging Company Code

 OPMD.       CH.WIRE                                  : Operation Mode

 PANA.       M.SERROUR/M.GULMAMMADOV                  : Processing Analyst

 PCON.       Baker Hughes                             : Processing Contractor

 APIN.                                                : API Serial Number

~Other information

1.  LOG OBJECTIVE IS TO EVALUATE CEMENT INTEGRITY BEHIND 10" & 13.375" CASING   

2.   LOG WAS NOT CORRELATED AS PER CUSTOMER REQUEST                             

3.  TOOLSTRING RUN AS PER TOOLSKETCH:                                           

     CH/SWVL/CCL/GR/EL/KNCK/CENT/SBT/CENT/VDL/CENT                              

     WITH TWO GEMOCO CENTRALIZERS ON SBT MANDREL AS INDICATED.                  

4.  MAX CABLEHEAD THERMOMETERS READINGS ARE: 89 DEG C, 89 DEG C, 90 DEG C       

5. NORMALIZATION FACTORS FOR 10 IN LINER WERE TAKEN FROM MAIN LOG OVER          

    4900 - 4750 M INTERVAL                                                      

   NORMALIZATION FACTORS FOR 13.375 IN CASING WERE TAKEN FROM MAIN LOG OVER     

   3770 - 3635 M INTERVAL                                                       

6. MUD REPORT                                                                   

     MUD DETAILS:                                                               

     MUD TYPE: OBM                                                              

     MUD WEIGHT : 1.83 SG                                                       

7.  SBT CEMENT MAP PROCESSED USING THE FOLLOWING PARAMETERS;                    

    FOR 10" LINER:                                                              

    CASING ID:              8.624 IN                                            

    COMPR STR:           1148 PSI (AS PER CUSTOMER REQUEST)                     

    CSG WEIGHT:           68.7  LB/FT                                           

    CSG THICKNESS:     0.688 IN                                                 

    FREE PIPE ATTN:     6.480 DB/F                                              

    FOR 13.375" CASING:                                                         

    CASING ID:               12.347 IN                                          

    COMPR STR:            615 PSI (AS PER CUSTOMER REQUEST)                     

    CSG WEIGHT:           72  LB/FT                                             

    CSG THICKNESS:     0.514 IN                                                 

    FREE PIPE ATTN:     3.285 DB/F                                              

 8. ATTENUATION PARAMETERS OF CEMENT MAP:                                       

   FOR 10" LINER                                                                

    0%   -  6.480 DB/FT                                                         

    20%  - 7.389 DB/F                                                           

    80%  - 10.117 DB/FT                                                         

    100% - 10.980 DB/FT                                                         

   FOR 13.375" CASING                                                           

    0%   -  3.285 DB/FT                                                         

    20%  - 4.181 DB/F                                                           

    80%  - 6.869 DB/FT                                                          

    100% - 7.785 DB/FT                                                          

9.  MAXIMUM DEVIATION OVER THE LOGGED INTERVAL IS 30.8 DEG AT 5040.0 M          

     ACCORDING TO DRILLERS SURVEY                                               

10. GR PEAK ON 10 IN LINER MAIN LOG AT 4619 M WAS DUE TO LOG STOP AND CONTINUE  

#  Curve Data

~A DEPT      ATAV      ATC1      ATC2      ATC3      ATC4      ATC5      ATC6      ATMN      ATMX      CCL       DEVOD     DTMN      DTMX      GR        RBSB      SPD       TTEN     
# ...
 6785.0766    9.7643    9.0211    9.7502   10.5873   10.5996    8.9179    9.7095    8.9179   10.5996 -999.2500   29.7974   55.3411   60.9136 -999.2500  194.5415    8.2143 8519.4688
 6785.1528    9.7658    9.0182    9.7539   10.5950   10.5996    8.9179    9.7101    8.9179   10.5996 -999.2500   29.8077   55.1489   61.1058 -999.2500  194.5230    8.2120 8519.6357
 6785.2290    9.7672    9.0182    9.7569   10.6020   10.5996    8.9179    9.7086    8.9179   10.6020 -999.2500   29.8045   55.3411   60.7215 -999.2500  194.5000    8.2180 8519.6328
 6785.3052    9.7673    9.0171    9.7586   10.6049   10.5996    8.9179    9.7055    8.9179   10.6049 -999.2500   29.8011   55.3411   60.9136 -999.2500  194.4756    8.2292 8519.6328
 6785.3814    9.7659    9.0143    9.7602   10.6018   10.5996    8.9179    9.7018    8.9179   10.6018 -999.2500   29.7980   55.5332   61.1058 -999.2500  194.4540    8.2410 8519.6357
 6785.4576    9.7641    9.0113    9.7643   10.5935   10.5996    8.9172    9.6984    8.9172   10.5996 -999.2500   29.7958   55.1489   61.1058 -999.2500  194.4379    8.2486 8519.4688
 6785.5338    9.7626    9.0100    9.7733   10.5826   10.5996    8.9144    9.6956    8.9144   10.5996 -999.2500   29.7946   55.3411   61.1058 -999.2500  194.4294    8.2500 8518.8955
 6785.6100    9.7619    9.0113    9.7866   10.5706   10.5996    8.9092    9.6941    8.9092   10.5996 -999.2500   29.7946   55.3411   60.9136 -999.2500  194.4294    8.2472 8517.8086
 6785.6862    9.7621    9.0143    9.8012   10.5586   10.5993    8.9030    9.6963    8.9030   10.5993 -999.2500   29.7958   55.5332   61.1058 -999.2500  194.4379    8.2435 8516.6367
 6785.7624    9.7628    9.0171    9.8130   10.5485   10.5978    8.8978    9.7026    8.8978   10.5978 -999.2500   29.7980   55.1489   60.9136 -999.2500  194.4540    8.2439 8516.2910
 6785.8386    9.7634    9.0182    9.8186   10.5416   10.5951    8.8958    9.7114    8.8958   10.5951 -999.2500   29.8011   55.3411   60.7215 -999.2500  194.4756    8.2505 8517.5225
 6785.9148    9.7633    9.0171    9.8154   10.5386   10.5918    8.8978    9.7193    8.8978   10.5918 -999.2500   29.8043   55.5332   60.9136 -999.2500  194.4986    8.2593 8520.6660
 6785.9910    9.7620    9.0137    9.8046   10.5386   10.5891    8.9030    9.7231    8.9030   10.5891 -999.2500   29.8065   55.5332   60.9136 -999.2500  194.5145    8.2643 8525.4893
 6786.0672    9.7593    9.0080    9.7894   10.5397   10.5881    8.9092    9.7213    8.9092   10.5881 -999.2500   29.8065   55.3411   61.1058 -999.2500  194.5145    8.2617 8531.2314
 6786.1434    9.7558    9.0019    9.7756   10.5380   10.5891    8.9144    9.7156    8.9144   10.5891 -999.2500   29.8043   55.3411   60.9136 -999.2500  194.4986    8.2524 8536.7793
 6786.2196    9.7525    8.9973    9.7682   10.5317   10.5918    8.9172    9.7087    8.9172   10.5918 -999.2500   29.8013   55.1489   60.9136 -999.2500  194.4770    8.2402 8541.0098
 6786.2958    9.7505    8.9955    9.7692   10.5224   10.5951    8.9179    9.7031    8.9179   10.5951 -999.2500   29.7992   55.5332   61.1058 -999.2500  194.4625    8.2321 8543.2607
 6786.3720    9.7504    8.9964    9.7769   10.5136   10.5978    8.9179    9.7000    8.9179   10.5978 -999.2500   29.7992   55.3411   61.1058 -999.2500  194.4625    8.2312 8543.7207
 6786.4482    9.7519    8.9994    9.7865   10.5093   10.5993    8.9179    9.6992    8.9179   10.5993 -999.2500   29.8013   55.3411   60.5293 -999.2500  194.4770    8.2382 8543.5186
 6786.5244    9.7538    9.0031    9.7917   10.5115   10.5996    8.9179    9.6992    8.9179   10.5996 -999.2500   29.8045   55.1489   61.1058 -999.2500  194.5000    8.2473 8544.0254
 6786.6006    9.7552    9.0066    9.7891   10.5188   10.5996    8.9179    9.6992    8.9179   10.5996 -999.2500   29.8077   55.1489   61.1058 -999.2500  194.5230    8.2521 8546.0830
 6786.6768    9.7558    9.0095    9.7805   10.5283   10.5996    8.9179    9.6992    8.9179   10.5996 -999.2500   29.8098   55.3411   60.9136 -999.2500  194.5377    8.2466 8549.7207
 6786.7530    9.7560    9.0122    9.7709   10.5370   10.5988    8.9179    9.6992    8.9179   10.5988 -999.2500   29.8098   55.3411   60.9136 -999.2500  194.5377    8.2322 8554.2305
 6786.8292    9.7559    9.0147    9.7649   10.5429   10.5956    8.9179    9.6992    8.9179   10.5956 -999.2500   29.8077   55.3411   61.1058 -999.2500  194.5230    8.2121 8558.4609
 6786.9054    9.7557    9.0171    9.7642   10.5462   10.5897    8.9179    9.6992    8.9179   10.5897 -999.2500   29.8045   55.3411   61.1058 -999.2500  194.5000    8.1944 8561.4570
 6786.9816    9.7555    9.0182    9.7668   10.5483   10.5826    8.9179    9.6992    8.9179   10.5826 -999.2500   29.8013   55.1489   60.7215 -999.2500  194.4770    8.1863 8562.5420
 6787.0578    9.7552    9.0175    9.7693   10.5508   10.5766    8.9179    9.6992    8.9179   10.5766 -999.2500   29.7992   55.1489   61.1058 -999.2500  194.4625    8.1917 8561.4570
 6787.1340    9.7554    9.0162    9.7704   10.5546   10.5743    8.9179    9.6992    8.9179   10.5743 -999.2500   29.7992   55.3411   61.1058 -999.2500  194.4625    8.2042 8558.6074
 6787.2102    9.7565    9.0156    9.7703   10.5596   10.5766    8.9179    9.6992    8.9179   10.5766 -999.2500   29.8013   55.3411   60.9136 -999.2500  194.4770    8.2161 8554.9707
 6787.2864    9.7582    9.0162    9.7702   10.5641   10.5826    8.9179    9.6984    8.9179   10.5826 -999.2500   29.8029   55.3411   61.1058 -999.2500  194.5007    8.2199 8551.3984
 6787.3626    9.7595    9.0175    9.7712   10.5658   10.5897    8.9179    9.6950    8.9179   10.5897 -999.2500   29.7979   55.1489   60.9136 -999.2500  194.5272    8.2163 8548.4863
 6787.4388    9.7595    9.0182    9.7719   10.5647   10.5956    8.9179    9.6889    8.9179   10.5956 -999.2500   29.7815   55.1489   60.7215 -999.2500  194.5513    8.2103 8546.2852
 6787.5150    9.7580    9.0171    9.7708   10.5619   10.5988    8.9179    9.6814    8.9179   10.5988 -999.2500   29.7557   55.1489   60.9136 -999.2500  194.5699    8.2088 8544.2930
 6787.5912    9.7555    9.0143    9.7677   10.5588   10.5993    8.9179    9.6752    8.9179   10.5993 -999.2500   29.7290   55.3411   60.9136 -999.2500  194.5815    8.2151 8542.0420
 6787.6674    9.7533    9.0109    9.7638   10.5565   10.5978    8.9179    9.6728    8.9179   10.5978 -999.2500   29.7111   55.3411   60.9136 -999.2500  194.5817    8.2285 8539.6367
 6787.7436    9.7520    9.0085    9.7602   10.5554   10.5951    8.9179    9.6752    8.9179   10.5951 -999.2500   29.7086   55.3411   61.1058 -999.2500  194.5642    8.2425 8537.8242
 6787.8198    9.7524    9.0085    9.7587   10.5559   10.5918    8.9179    9.6814    8.9179   10.5918 -999.2500   29.7213   55.3411   61.1058 -999.2500  194.5267    8.2486 8537.5439
 6787.8960    9.7543    9.0109    9.7607   10.5588   10.5891    8.9179    9.6884    8.9179   10.5891 -999.2500   29.7425   55.3411   60.9136 -999.2500  194.4761    8.2426 8539.2891
 6787.9722    9.7568    9.0143    9.7654   10.5624   10.5881    8.9179    9.6927    8.9179   10.5881 -999.2500   29.7640   55.5332   61.1058 -999.2500  194.4270    8.2270 8542.5488
 6788.0484    9.7586    9.0175    9.7705   10.5641   10.5891    8.9179    9.6926    8.9179   10.5891 -999.2500   29.7768   55.3411   60.9136 -999.2500  194.3957    8.2089 8546.2051
 6788.1246    9.7588    9.0201    9.7716   10.5618   10.5918    8.9179    9.6893    8.9179   10.5918 -999.2500   29.7717   55.3411   60.7215 -999.2500  194.3903    8.1965 8549.0352
 6788.2008    9.7571    9.0218    9.7665   10.5553   10.5951    8.9179    9.6859    8.9179   10.5951 -999.2500   29.7445   55.1489   61.1058 -999.2500  194.4078    8.1946 8550.1396
 6788.2770    9.7543    9.0228    9.7560   10.5466   10.5978    8.9179    9.6845    8.9179   10.5978 -999.2500   29.6972   55.1489   61.1058 -999.2500  194.4359    8.2020 8549.0352
 6788.3532    9.7520    9.0241    9.7446   10.5396   10.5993    8.9184    9.6859    8.9184   10.5993 -999.2500   29.6368   55.1489   60.7215 -999.2500  194.4619    8.2128 8546.0586
 6788.4294    9.7520    9.0267    9.7388   10.5373   10.5996    8.9202    9.6893    8.9202   10.5996 -999.2500   29.5756   55.5332   60.5293 -999.2500  194.4803    8.2178 8541.6621
