~Version Information

 VERS.                2.00:   CWLS log ASCII Standard -VERSION 2.00

 WRAP.                  NO:   One line per frame      

~Well Information Block

#MNEM.UNIT                     Data                     Description

#----.----   ----------------------------------------   -------------------------------

 STRT.M                                     5560.9236 : Starting Depth

 STOP.M                                     6796.2018 : Ending Depth

 STEP.M                                        0.0762 : Level Spacing

 NULL.                                      -999.2500 : Absent Value

 COMP.       TOTAL                                    : Company

 WELL.       ABD001                                   : Well

 FLD .       ABSHERON                                 : Field

 LOC .       HEYDAR ALIYEV                            : Location

 PROV.                                                : Province

 CTRY.       AZERBAIJAN                               : Country

 SRVC.       Baker Hughes                             : Service Company

 DATE.       22-APR-2019                              : Log Date

 UWI .                                                : Unique Well ID

 LIC .                                                : License Number

~Curve Information Block

#MNEM    .UNIT        API Codes     Curve Description

#--------.--------   LG--CV-CL--M   ---------------------------------------------------

 DEPT    .M          99 995 99  1 : Depth

 ATAV    .DB/F       81 995 99  1 : Average attenuation

 ATC1    .DB/F       81 995 99  1 : Attenuation pad 1

 ATC2    .DB/F       81 995 99  1 : Attenuation pad 2

 ATC3    .DB/F       81 995 99  1 : Attenuation pad 3

 ATC4    .DB/F       81 995 99  1 : Attenuation pad 4

 ATC5    .DB/F       81 995 99  1 : Attenuation pad 5

 ATC6    .DB/F       81 995 99  1 : Attenuation pad 6

 ATMN    .DB/F       81 995 99  1 : Attenuation minimum

 ATMX    .DB/F       81 995 99  1 : Attenuation maximum

 CCL     .MV         86 150  1  1 : Casing collar locator

 DEVOD   .DEG        75 995 99  1 : Deviation

 DTMN    .US/F       99 995 99  1 : Minimal slowness

 DTMX    .US/F       99 995 99  1 : Maximal slowness

 GR      .GAPI       30 310  1  1 : Gamma ray

 RBSB    .DEG        75 631  1  1 : Relative bearing (relative to borehole low side) for SBT

 SPD     .M/MN       99 636 99  1 : Speed

 TTEN    .LBF        99 635 99  1 : Total tension

~Parameter Information Block

#MNEM.UNIT                     Value                    Description

#----.----   ----------------------------------------   -------------------------------

 HIDE.       SEGMENTED BOND TOOL^S                    : Header Identifier

 HID1.       GAMMA RAY LOG                            : Header Identifier

 HID2.       CASING COLLAR LOCATOR                    : Header Identifier

 HID3.       VARIABLE DENSITY LOG                     : Header Identifier

 HID4.       COMPENSATED Z-DENSILOG^S                 : Header Identifier

 HID5.       COMPENSATED NEUTRON LOG                  : Header Identifier

 HID6.       TTRM SUB^S                               : N/A

 HID7.       *** 7" LINER ***                         : N/A

 CMT1.       FINAL PRINT                              : Comment 1  

 CMT2.       1:200                                    : Comment 2  

 CMT3.       1:500                                    : Comment 3  

 LATI.       39DEG56'09.3"N                           : Latitude

 LONG.       50DEG52'53.8"E                           : Longitude

 OS2 .       SBT/GR/CCL/VDL                           : Other Services Line 2

 OS3 .       ZDL/CN/GR/TTRM                           : Other Services Line 3

 PDAT.       MSL                                      : Permanent Datum

 EPD .M      0                                        : Elevation Of Perm. Datum

 LMF .       DF                                       : Log Measured From

 APD .M      25.7                                     : Above Permanent Datum

 DMF .       DF                                       : Drilling Measured From

 EKB .M      25.7                                     : Elevation Of Kelly Bushing

 EDF .M      25.7                                     : Elevation Of Derrick Floor

 EGL .M      468.3                                    : Elevation Of Ground Level

 RUN .       3.1.1                                    : Run Number

 TRIP.       1                                        : Trip Number

 SON .       AZ19007                                  : Service Order Number

 TDD .M      7411                                     : Total Depth - Driller

 TLAB.       15:15 22-APR-2019                        : Time Logger At Bottom

 TLAS.       XX:XX 23-JAN-2019                        : N/A

 OPRT.       XX HOURS                                 : N/A

 DFT .       OBM                                      : Drilling Fluid Type

 DFD .LB/G   1.6                                      : Drilling Fluid Density

 BSAL.PPM    42500                                    : Borehole Salinity

 WHP .PSI    0                                        : N/A

 MHD .DEG    31.62                                    : Maximum Hole Deviation

 NLS .M/MN   9                                        : Nominal Logging Speed

 REFL.       NA                                       : N/A

 REFD.       NA                                       : N/A

 LUN .       9037                                     : Logging Unit Number

 LUL .       AZERBAIJAN                               : Logging Unit Location

 ENGI.       M.SERROUR/M.GULMAMMADOV                  : Engineer's Name

 WITN.       ADRIEN P. / KAMAL K.                     : Witness' Name

 TSTR.       SBT/GR/CCL//ZDL/CN/TTRM/                 : Title Service Mnemonic

 TSTG.       NA                                       : Title Service Mnemonic

 STUS.       FINAL                                    : Status

 LCNM.       Baker Hughes                             : Logging Company Name

 LCC .       150                                      : Logging Company Code

 OPMD.       CH.WIRE                                  : Operation Mode

 PANA.       M.SERROUR/M.GULMAMMADOV                  : Processing Analyst

 PCON.       Baker Hughes                             : Processing Contractor

 APIN.                                                : API Serial Number

~Other information

1.  LOG OBJECTIVE IS TO EVALUATE CEMENT INTEGRITY BEHIND 10" & 13.375" CASING   

2.   LOG WAS NOT CORRELATED AS PER CUSTOMER REQUEST                             

3.  TOOLSTRING RUN AS PER TOOLSKETCH:                                           

     CH/SWVL/CCL/GR/EL/KNCK/CENT/SBT/CENT/VDL/CENT                              

     WITH TWO GEMOCO CENTRALIZERS ON SBT MANDREL AS INDICATED.                  

4.  MAX CABLEHEAD THERMOMETERS READINGS ARE: 89 DEG C, 89 DEG C, 90 DEG C       

5. NORMALIZATION FACTORS FOR 10 IN LINER WERE TAKEN FROM MAIN LOG OVER          

    4900 - 4750 M INTERVAL                                                      

   NORMALIZATION FACTORS FOR 13.375 IN CASING WERE TAKEN FROM MAIN LOG OVER     

   3770 - 3635 M INTERVAL                                                       

6. MUD REPORT                                                                   

     MUD DETAILS:                                                               

     MUD TYPE: OBM                                                              

     MUD WEIGHT : 1.83 SG                                                       

7.  SBT CEMENT MAP PROCESSED USING THE FOLLOWING PARAMETERS;                    

    FOR 10" LINER:                                                              

    CASING ID:              8.624 IN                                            

    COMPR STR:           1148 PSI (AS PER CUSTOMER REQUEST)                     

    CSG WEIGHT:           68.7  LB/FT                                           

    CSG THICKNESS:     0.688 IN                                                 

    FREE PIPE ATTN:     6.480 DB/F                                              

    FOR 13.375" CASING:                                                         

    CASING ID:               12.347 IN                                          

    COMPR STR:            615 PSI (AS PER CUSTOMER REQUEST)                     

    CSG WEIGHT:           72  LB/FT                                             

    CSG THICKNESS:     0.514 IN                                                 

    FREE PIPE ATTN:     3.285 DB/F                                              

 8. ATTENUATION PARAMETERS OF CEMENT MAP:                                       

   FOR 10" LINER                                                                

    0%   -  6.480 DB/FT                                                         

    20%  - 7.389 DB/F                                                           

    80%  - 10.117 DB/FT                                                         

    100% - 10.980 DB/FT                                                         

   FOR 13.375" CASING                                                           

    0%   -  3.285 DB/FT                                                         

    20%  - 4.181 DB/F                                                           

    80%  - 6.869 DB/FT                                                          

    100% - 7.785 DB/FT                                                          

9.  MAXIMUM DEVIATION OVER THE LOGGED INTERVAL IS 30.8 DEG AT 5040.0 M          

     ACCORDING TO DRILLERS SURVEY                                               

10. GR PEAK ON 10 IN LINER MAIN LOG AT 4619 M WAS DUE TO LOG STOP AND CONTINUE  

#  Curve Data

~A DEPT      ATAV      ATC1      ATC2      ATC3      ATC4      ATC5      ATC6      ATMN      ATMX      CCL       DEVOD     DTMN      DTMX      GR        RBSB      SPD       TTEN     
# ...
 6219.2916    4.0626    3.9713    3.5922    4.1760    3.7201    4.4936    4.4226    3.5922    4.4936    0.0000   25.8494   55.3411   59.7607   27.6481    3.3818    8.3397 7782.2607
 6219.3678    4.0726    4.0305    3.6288    4.0895    3.7294    4.5378    4.4198    3.6288    4.5378    0.0000   25.8641   55.3411   60.5293   29.2954    3.4428    8.3285 7783.0947
 6219.4440    4.0978    4.0965    3.6981    4.0263    3.7540    4.5795    4.4323    3.6981    4.5795    8.0000   25.8774   55.3411   60.9136   30.8630    3.4808    8.3142 7780.1479
 6219.5202    4.1361    4.1678    3.7889    4.0205    3.7799    4.6037    4.4559    3.7799    4.6037    0.0000   25.8821   56.1097   61.1058   32.1753    3.4970    8.3038 7775.3696
 6219.5964    4.1693    4.2355    3.8519    4.0311    3.7852    4.6196    4.4925    3.7852    4.6196    0.0000   25.8730   55.5332   60.1450   32.9994    3.5045    8.3027 7771.5786
 6219.6726    4.1794    4.2753    3.8540    4.0129    3.7670    4.6332    4.5338    3.7670    4.6332    0.0000   25.8518   55.1489   60.5293   33.1446    3.5233    8.3122 7770.5605
 6219.7488    4.1606    4.2573    3.7879    3.9606    3.7601    4.6379    4.5600    3.7601    4.6379    0.0000   25.8254   55.3411   61.1058   32.4478    3.5687    8.3273 7772.4399
 6219.8250    4.1264    4.1749    3.6924    3.9149    3.8041    4.6187    4.5533    3.6924    4.6187    0.0000   25.8017   55.7254   60.1450   30.8913    3.6503    8.3438 7775.9805
 6219.9012    4.0977    4.0531    3.6330    3.9366    3.9049    4.5556    4.5029    3.6330    4.5556    4.0000   25.7861   55.9176   60.9136   28.6314    3.7680    8.3559 7779.4233
 6219.9774    4.0908    3.9200    3.6544    4.0518    4.0361    4.4650    4.4176    3.6544    4.4650    0.0000   25.7808   56.1097   61.4901   26.1027    3.9091    8.3606 7781.5430
 6220.0536    4.1066    3.7991    3.7353    4.2208    4.1546    4.3895    4.3405    3.7353    4.3895    0.0000   25.7831   55.9176   61.1058   23.7361    4.0504    8.3576 7782.1367
 6220.1298    4.1352    3.6967    3.8203    4.3869    4.2285    4.3603    4.3187    3.6967    4.3869    0.0000   25.7872   55.3411   60.1450   21.8283    4.1650    8.3501 7781.3945
 6220.2060    4.1619    3.6071    3.8500    4.5048    4.2627    4.3844    4.3622    3.6071    4.5048    0.0000   25.7900   55.1489   60.9136   20.4748    4.2346    8.3402 7779.8628
 6220.2822    4.1765    3.5284    3.8155    4.5591    4.2781    4.4359    4.4417    3.5284    4.5591    0.0000   25.7940   55.3411   60.1450   19.5961    4.2591    8.3312 7778.2017
 6220.3584    4.1774    3.4796    3.7627    4.5657    4.2923    4.4552    4.5090    3.4796    4.5657    1.0000   25.8048   54.7646   60.7215   19.0282    4.2561    8.3245 7776.7344
 6220.4346    4.1680    3.4767    3.7389    4.5373    4.3012    4.4102    4.5435    3.4767    4.5435    1.0000   25.8271   55.5332   61.4901   18.6859    4.2529    8.3215 7775.7959
 6220.5108    4.1527    3.5261    3.7485    4.4634    4.2812    4.3246    4.5723    3.5261    4.5723    0.0000   25.8603   55.1489   60.3372   18.5149    4.2708    8.3212 7775.6523
 6220.5870    4.1435    3.6095    3.7808    4.3684    4.2202    4.2472    4.6352    3.6095    4.6352    0.0000   25.9000   54.9568   60.9136   18.4717    4.3181    8.3222 7775.8311
 6220.6632    4.1489    3.6938    3.7992    4.2987    4.1464    4.2178    4.7376    3.6938    4.7376    0.0000   25.9381   54.9568   60.3372   18.4622    4.3876    8.3225 7775.4912
 6220.7394    4.1739    3.7591    3.7845    4.2974    4.0967    4.2517    4.8539    3.7591    4.8539    0.0000   25.9631   55.1489   60.5293   18.4224    4.4635    8.3225 7774.1729
 6220.8156    4.2123    3.8055    3.7521    4.3788    4.0798    4.3180    4.9398    3.7521    4.9398    0.0000   25.9660   54.9568   61.2979   18.3453    4.5294    8.3228 7772.3413
 6220.8918    4.2500    3.8337    3.7253    4.5064    4.0880    4.3893    4.9570    3.7253    4.9570    1.0000   25.9491   56.1097   61.2979   18.2904    4.5753    8.3255 7771.1421
 6220.9680    4.2643    3.8493    3.7029    4.5822    4.0862    4.4597    4.9055    3.7029    4.9055    0.0000   25.9249   56.3019   60.7215   18.3190    4.6008    8.3310 7771.7129
 6221.0442    4.2484    3.8578    3.6919    4.5436    4.0423    4.5320    4.8229    3.6919    4.8229    0.0000   25.9084   54.9568   59.3764   18.3833    4.6114    8.3391 7774.3320
 6221.1204    4.2168    3.8552    3.6943    4.4130    3.9769    4.6122    4.7494    3.6943    4.7494    3.0000   25.9086   54.9568   60.3372   18.3239    4.6163    8.3450 7778.0552
 6221.1966    4.1899    3.8389    3.7086    4.2628    3.9230    4.6976    4.7084    3.7086    4.7084    0.0000   25.9259   54.9568   60.1450   18.0018    4.6305    8.3440 7781.3794
 6221.2728    4.1704    3.8112    3.7325    4.1562    3.8927    4.7407    4.6892    3.7325    4.7407    0.0000   25.9530   55.1489   60.7215   17.4524    4.6676    8.3334 7782.9136
 6221.3490    4.1424    3.7706    3.7445    4.0968    3.8873    4.6916    4.6636    3.7445    4.6916    0.0000   25.9778   55.1489   61.6823   16.9575    4.7346    8.3180 7781.8262
 6221.4252    4.0792    3.7124    3.6874    4.0299    3.8930    4.5346    4.6181    3.6874    4.6181    0.0000   25.9903   54.9568   60.1450   16.9080    4.8276    8.3057 7778.4004
 6221.5014    3.9749    3.6436    3.5302    3.9346    3.8955    4.2917    4.5540    3.5302    4.5540    0.0000   25.9889   54.7646   59.5685   17.5951    4.9322    8.3031 7773.9717
 6221.5776    3.8507    3.5714    3.2850    3.8477    3.9075    4.0136    4.4791    3.2850    4.4791    0.0000   25.9807   54.9568   61.1058   19.0174    5.0284    8.3088 7770.3975
 6221.6538    3.7501    3.5246    3.0317    3.8366    3.9461    3.7592    4.4025    3.0317    4.4025    4.0000   25.9749   54.9568   60.3372   20.8888    5.0998    8.3188 7769.3101
 6221.7300    3.7149    3.5412    2.8913    3.9521    4.0049    3.5660    4.3341    2.8913    4.3341    0.0000   25.9765   55.7254   60.3372   22.8856    5.1405    8.3270 7771.2861
 6221.8062    3.7621    3.6292    2.9428    4.1830    4.0682    3.4622    4.2873    2.9428    4.2873    8.0000   25.9854   56.1097   62.0666   24.7669    5.1556    8.3302 7775.7964
 6221.8824    3.8713    3.7594    3.1568    4.4396    4.1179    3.4667    4.2872    3.1568    4.4396    2.0000   25.9980   55.5332   60.9136   26.3887    5.1569    8.3294 7781.5410
 6221.9586    4.0000    3.8811    3.4246    4.6250    4.1421    3.5784    4.3490    3.4246    4.6250    0.0000   26.0072   55.1489   59.7607   27.7446    5.1555    8.3299 7787.0889
 6222.0348    4.1107    3.9449    3.6230    4.7037    4.1576    3.7775    4.4576    3.6230    4.7037    0.0000   26.0072   55.1489   60.3372   28.8980    5.1555    8.3354 7791.3169
 6222.1110    4.1893    3.9429    3.6892    4.7140    4.1863    4.0223    4.5809    3.6892    4.7140    2.0000   25.9980   55.1489   61.1058   29.8291    5.1569    8.3457 7793.5879
 6222.1872    4.2406    3.9109    3.6475    4.7199    4.2284    4.2509    4.6862    3.6475    4.7199    0.0000   25.9856   55.1489   61.1058   30.3998    5.1589    8.3569 7793.7344
 6222.2634    4.2744    3.8968    3.5725    4.7411    4.2569    4.4187    4.7605    3.5725    4.7605    1.0000   25.9772   55.5332   61.4901   30.4489    5.1602    8.3643 7792.0562
 6222.3396    4.2913    3.9275    3.5174    4.7355    4.2378    4.5106    4.8188    3.5174    4.8188    0.0000   25.9763   55.3411   59.7607   29.9324    5.1571    8.3644 7788.9136
 6222.4158    4.2920    3.9987    3.4985    4.6731    4.1619    4.5454    4.8743    3.4985    4.8743    0.0000   25.9799   55.3411   60.5293   28.9863    5.1399    8.3586 7784.6836
 6222.4920    4.2833    4.0880    3.4897    4.5689    4.0631    4.5637    4.9263    3.4897    4.9263    6.0000   25.9816   55.5332   61.1058   27.8700    5.0987    8.3500 7780.0264
 6222.5682    4.2774    4.1661    3.4763    4.4706    3.9809    4.5964    4.9740    3.4763    4.9740   25.0000   25.9749   55.5332   60.3372   26.7963    5.0293    8.3398 7775.7959
 6222.6444    4.2862    4.2218    3.4802    4.4282    3.9406    4.6375    5.0087    3.4802    5.0087   22.0000   25.9582   55.5332   60.9136   25.8924    4.9369    8.3296 7772.7998
