~Version Information

 VERS.                2.00:   CWLS log ASCII Standard -VERSION 2.00

 WRAP.                  NO:   One line per frame      

~Well Information Block

#MNEM.UNIT                     Data                     Description

#----.----   ----------------------------------------   -------------------------------

 STRT.M                                     5560.9236 : Starting Depth

 STOP.M                                     6796.2018 : Ending Depth

 STEP.M                                        0.0762 : Level Spacing

 NULL.                                      -999.2500 : Absent Value

 COMP.       TOTAL                                    : Company

 WELL.       ABD001                                   : Well

 FLD .       ABSHERON                                 : Field

 LOC .       HEYDAR ALIYEV                            : Location

 PROV.                                                : Province

 CTRY.       AZERBAIJAN                               : Country

 SRVC.       Baker Hughes                             : Service Company

 DATE.       22-APR-2019                              : Log Date

 UWI .                                                : Unique Well ID

 LIC .                                                : License Number

~Curve Information Block

#MNEM    .UNIT        API Codes     Curve Description

#--------.--------   LG--CV-CL--M   ---------------------------------------------------

 DEPT    .M          99 995 99  1 : Depth

 ATAV    .DB/F       81 995 99  1 : Average attenuation

 ATC1    .DB/F       81 995 99  1 : Attenuation pad 1

 ATC2    .DB/F       81 995 99  1 : Attenuation pad 2

 ATC3    .DB/F       81 995 99  1 : Attenuation pad 3

 ATC4    .DB/F       81 995 99  1 : Attenuation pad 4

 ATC5    .DB/F       81 995 99  1 : Attenuation pad 5

 ATC6    .DB/F       81 995 99  1 : Attenuation pad 6

 ATMN    .DB/F       81 995 99  1 : Attenuation minimum

 ATMX    .DB/F       81 995 99  1 : Attenuation maximum

 CCL     .MV         86 150  1  1 : Casing collar locator

 DEVOD   .DEG        75 995 99  1 : Deviation

 DTMN    .US/F       99 995 99  1 : Minimal slowness

 DTMX    .US/F       99 995 99  1 : Maximal slowness

 GR      .GAPI       30 310  1  1 : Gamma ray

 RBSB    .DEG        75 631  1  1 : Relative bearing (relative to borehole low side) for SBT

 SPD     .M/MN       99 636 99  1 : Speed

 TTEN    .LBF        99 635 99  1 : Total tension

~Parameter Information Block

#MNEM.UNIT                     Value                    Description

#----.----   ----------------------------------------   -------------------------------

 HIDE.       SEGMENTED BOND TOOL^S                    : Header Identifier

 HID1.       GAMMA RAY LOG                            : Header Identifier

 HID2.       CASING COLLAR LOCATOR                    : Header Identifier

 HID3.       VARIABLE DENSITY LOG                     : Header Identifier

 HID4.       COMPENSATED Z-DENSILOG^S                 : Header Identifier

 HID5.       COMPENSATED NEUTRON LOG                  : Header Identifier

 HID6.       TTRM SUB^S                               : N/A

 HID7.       *** 7" LINER ***                         : N/A

 CMT1.       FINAL PRINT                              : Comment 1  

 CMT2.       1:200                                    : Comment 2  

 CMT3.       1:500                                    : Comment 3  

 LATI.       39DEG56'09.3"N                           : Latitude

 LONG.       50DEG52'53.8"E                           : Longitude

 OS2 .       SBT/GR/CCL/VDL                           : Other Services Line 2

 OS3 .       ZDL/CN/GR/TTRM                           : Other Services Line 3

 PDAT.       MSL                                      : Permanent Datum

 EPD .M      0                                        : Elevation Of Perm. Datum

 LMF .       DF                                       : Log Measured From

 APD .M      25.7                                     : Above Permanent Datum

 DMF .       DF                                       : Drilling Measured From

 EKB .M      25.7                                     : Elevation Of Kelly Bushing

 EDF .M      25.7                                     : Elevation Of Derrick Floor

 EGL .M      468.3                                    : Elevation Of Ground Level

 RUN .       3.1.1                                    : Run Number

 TRIP.       1                                        : Trip Number

 SON .       AZ19007                                  : Service Order Number

 TDD .M      7411                                     : Total Depth - Driller

 TLAB.       15:15 22-APR-2019                        : Time Logger At Bottom

 TLAS.       XX:XX 23-JAN-2019                        : N/A

 OPRT.       XX HOURS                                 : N/A

 DFT .       OBM                                      : Drilling Fluid Type

 DFD .LB/G   1.6                                      : Drilling Fluid Density

 BSAL.PPM    42500                                    : Borehole Salinity

 WHP .PSI    0                                        : N/A

 MHD .DEG    31.62                                    : Maximum Hole Deviation

 NLS .M/MN   9                                        : Nominal Logging Speed

 REFL.       NA                                       : N/A

 REFD.       NA                                       : N/A

 LUN .       9037                                     : Logging Unit Number

 LUL .       AZERBAIJAN                               : Logging Unit Location

 ENGI.       M.SERROUR/M.GULMAMMADOV                  : Engineer's Name

 WITN.       ADRIEN P. / KAMAL K.                     : Witness' Name

 TSTR.       SBT/GR/CCL//ZDL/CN/TTRM/                 : Title Service Mnemonic

 TSTG.       NA                                       : Title Service Mnemonic

 STUS.       FINAL                                    : Status

 LCNM.       Baker Hughes                             : Logging Company Name

 LCC .       150                                      : Logging Company Code

 OPMD.       CH.WIRE                                  : Operation Mode

 PANA.       M.SERROUR/M.GULMAMMADOV                  : Processing Analyst

 PCON.       Baker Hughes                             : Processing Contractor

 APIN.                                                : API Serial Number

~Other information

1.  LOG OBJECTIVE IS TO EVALUATE CEMENT INTEGRITY BEHIND 10" & 13.375" CASING   

2.   LOG WAS NOT CORRELATED AS PER CUSTOMER REQUEST                             

3.  TOOLSTRING RUN AS PER TOOLSKETCH:                                           

     CH/SWVL/CCL/GR/EL/KNCK/CENT/SBT/CENT/VDL/CENT                              

     WITH TWO GEMOCO CENTRALIZERS ON SBT MANDREL AS INDICATED.                  

4.  MAX CABLEHEAD THERMOMETERS READINGS ARE: 89 DEG C, 89 DEG C, 90 DEG C       

5. NORMALIZATION FACTORS FOR 10 IN LINER WERE TAKEN FROM MAIN LOG OVER          

    4900 - 4750 M INTERVAL                                                      

   NORMALIZATION FACTORS FOR 13.375 IN CASING WERE TAKEN FROM MAIN LOG OVER     

   3770 - 3635 M INTERVAL                                                       

6. MUD REPORT                                                                   

     MUD DETAILS:                                                               

     MUD TYPE: OBM                                                              

     MUD WEIGHT : 1.83 SG                                                       

7.  SBT CEMENT MAP PROCESSED USING THE FOLLOWING PARAMETERS;                    

    FOR 10" LINER:                                                              

    CASING ID:              8.624 IN                                            

    COMPR STR:           1148 PSI (AS PER CUSTOMER REQUEST)                     

    CSG WEIGHT:           68.7  LB/FT                                           

    CSG THICKNESS:     0.688 IN                                                 

    FREE PIPE ATTN:     6.480 DB/F                                              

    FOR 13.375" CASING:                                                         

    CASING ID:               12.347 IN                                          

    COMPR STR:            615 PSI (AS PER CUSTOMER REQUEST)                     

    CSG WEIGHT:           72  LB/FT                                             

    CSG THICKNESS:     0.514 IN                                                 

    FREE PIPE ATTN:     3.285 DB/F                                              

 8. ATTENUATION PARAMETERS OF CEMENT MAP:                                       

   FOR 10" LINER                                                                

    0%   -  6.480 DB/FT                                                         

    20%  - 7.389 DB/F                                                           

    80%  - 10.117 DB/FT                                                         

    100% - 10.980 DB/FT                                                         

   FOR 13.375" CASING                                                           

    0%   -  3.285 DB/FT                                                         

    20%  - 4.181 DB/F                                                           

    80%  - 6.869 DB/FT                                                          

    100% - 7.785 DB/FT                                                          

9.  MAXIMUM DEVIATION OVER THE LOGGED INTERVAL IS 30.8 DEG AT 5040.0 M          

     ACCORDING TO DRILLERS SURVEY                                               

10. GR PEAK ON 10 IN LINER MAIN LOG AT 4619 M WAS DUE TO LOG STOP AND CONTINUE  

#  Curve Data

~A DEPT      ATAV      ATC1      ATC2      ATC3      ATC4      ATC5      ATC6      ATMN      ATMX      CCL       DEVOD     DTMN      DTMX      GR        RBSB      SPD       TTEN     
# ...
 5814.6696    3.4800    2.9360    3.8935    4.0254    3.1165    3.3697    3.5391    2.9360    4.0254   17.0000   28.4374   53.2274   60.7215   17.4816  356.9754    7.7375 7199.8721
 5814.7458    3.4708    3.0288    3.8678    3.9770    3.1393    3.3565    3.4553    3.0288    3.9770    2.0000   28.4313   54.9568   61.2979   17.1071  357.3040    7.7394 7203.9580
 5814.8220    3.4735    3.0944    3.8623    3.9720    3.1565    3.3609    3.3952    3.0944    3.9720    0.0000   28.4310   54.3803   61.4901   16.8785  357.6235    7.7370 7207.8760
 5814.8982    3.4836    3.1103    3.8671    4.0023    3.1551    3.4094    3.3575    3.1103    4.0023    0.0000   28.4359   53.6117   60.3372   16.7858  357.9048    7.7342 7210.2783
 5814.9744    3.4923    3.0734    3.8594    4.0535    3.1357    3.4996    3.3323    3.0734    4.0535    0.0000   28.4445   54.3803   61.4901   16.7597  358.1362    7.7364 7210.4443
 5815.0506    3.4962    3.0180    3.8329    4.1197    3.1140    3.5971    3.2958    3.0180    4.1197    3.0000   28.4536   54.1882   60.5293   16.7143  358.3276    7.7470 7208.7588
 5815.1268    3.4967    3.0011    3.8112    4.1899    3.0894    3.6483    3.2404    3.0011    4.1899    0.0000   28.4594   54.1882   60.5293   16.6013  358.4962    7.7642 7206.6689
 5815.2030    3.5005    3.0431    3.8285    4.2472    3.0629    3.6371    3.1840    3.0431    4.2472    4.0000   28.4603   54.7646   61.4901   16.4048  358.6565    7.7817 7205.7275
 5815.2792    3.5078    3.1196    3.8729    4.2522    3.0325    3.6014    3.1679    3.0325    4.2522    0.0000   28.4583   54.3803   60.9136   16.1612  358.8087    7.7895 7206.8125
 5815.3554    3.5142    3.1821    3.9013    4.1811    2.9947    3.6038    3.2220    2.9947    4.1811    3.0000   28.4560   54.3803   60.5293   15.9249  358.9443    7.7818 7209.6650
 5815.4316    3.5148    3.1927    3.8682    4.0610    2.9629    3.6703    3.3338    2.9629    4.0610    2.0000   28.4542   54.1882   61.2979   15.7247  359.0515    7.7602 7212.9893
 5815.5078    3.5135    3.1525    3.7606    3.9514    2.9591    3.7907    3.4668    2.9591    3.9514    6.0000   28.4531   54.1882   61.2979   15.5654  359.1237    7.7338 7215.3945
 5815.5840    3.5202    3.1012    3.6175    3.9025    2.9813    3.9336    3.5852    2.9813    3.9336    1.0000   28.4526   54.1882   60.3372   15.4088  359.1597    7.7159 7216.1338
 5815.6602    3.5420    3.0743    3.5051    3.9269    3.0244    4.0625    3.6587    3.0244    4.0625    0.0000   28.4526   53.6117   61.1058   15.2293  359.1597    7.7136 7215.5537
 5815.7364    3.5682    3.0709    3.4489    3.9782    3.0694    4.1620    3.6798    3.0694    4.1620    0.0000   28.4530   54.5725   61.2979   15.0987  359.1282    7.7250 7214.9258
 5815.8126    3.5837    3.0633    3.4359    4.0133    3.0975    4.2260    3.6666    3.0633    4.2260    0.0000   28.4538   54.1882   60.5293   15.1305  359.0788    7.7414 7215.6650
 5815.8888    3.5798    3.0224    3.4323    4.0280    3.1174    4.2366    3.6421    3.0224    4.2366    0.0000   28.4538   54.3803   60.1450   15.3861  359.0263    7.7527 7218.2646
 5815.9650    3.5628    2.9552    3.4173    4.0479    3.1498    4.1888    3.6179    2.9552    4.1888    0.0000   28.4504   53.9960   61.1058   15.7975  358.9797    7.7528 7221.9873
 5816.0412    3.5465    2.9102    3.4075    4.0909    3.1854    4.0889    3.5962    2.9102    4.0909    2.0000   28.4414   54.3803   60.7215   16.1742  358.9447    7.7438 7225.3320
 5816.1174    3.5468    2.9313    3.4362    4.1607    3.2122    3.9569    3.5835    2.9313    4.1607    4.0000   28.4282   54.5725   61.2979   16.3387  358.9257    7.7341 7226.6973
 5816.1936    3.5655    3.0104    3.5080    4.2319    3.2179    3.8410    3.5837    3.0104    4.2319    4.0000   28.4146   54.5725   60.9136   16.2008  358.9249    7.7320 7225.3320
 5816.2698    3.5915    3.1081    3.5909    4.2654    3.1934    3.7916    3.5994    3.1081    4.2654    0.0000   28.4057   54.3803   60.5293   15.8148  358.9427    7.7403 7222.1338
 5816.3460    3.6055    3.1795    3.6346    4.2491    3.1445    3.8116    3.6137    3.1445    4.2491    0.0000   28.4051   53.9960   60.7215   15.3591  358.9772    7.7561 7219.1504
 5816.4222    3.6025    3.2066    3.6218    4.2229    3.1025    3.8644    3.5966    3.1025    4.2229    0.0000   28.4129   53.9960   60.5293   15.0568  359.0241    7.7708 7218.3760
 5816.4984    3.5896    3.2047    3.5849    4.2295    3.0797    3.9083    3.5303    3.0797    4.2295    0.0000   28.4258   53.9960   60.7215   14.9953  359.0743    7.7754 7221.0723
 5816.5746    3.5795    3.2020    3.5826    4.2853    3.0744    3.9174    3.4156    3.0744    4.2853    0.0000   28.4388   54.5725   61.2979   15.0883  359.1093    7.7663 7227.2627
 5816.6508    3.5697    3.1945    3.6258    4.3516    3.0738    3.8969    3.2753    3.0738    4.3516    2.0000   28.4476   54.5725   61.2979   15.2418  359.1052    7.7463 7235.4102
 5816.7270    3.5485    3.1547    3.6719    4.3776    3.0630    3.8672    3.1562    3.0630    4.3776    0.0000   28.4484   54.1882   60.3372   15.4282  359.0482    7.7243 7243.2148
 5816.8032    3.5053    3.0603    3.6621    4.3396    3.0372    3.8356    3.0972    3.0372    4.3396    0.0000   28.4414   54.3803   60.3372   15.6334  358.9449    7.7100 7248.3833
 5816.8794    3.4493    2.9287    3.5816    4.2648    3.0112    3.7977    3.1118    2.9287    4.2648    0.0000   28.4301   53.9960   61.1058   15.8823  358.8160    7.7089 7249.5498
 5816.9556    3.3998    2.8101    3.4700    4.1952    2.9790    3.7606    3.1838    2.8101    4.1952    0.0000   28.4189   53.6117   60.3372   16.1851  358.6831    7.7193 7246.7202
 5817.0318    3.3760    2.7555    3.3938    4.1521    2.9360    3.7352    3.2835    2.7555    4.1521   11.0000   28.4127   54.1882   61.6823   16.5065  358.5623    7.7343 7240.8096
 5817.1080    3.3791    2.7705    3.3835    4.1171    2.8835    3.7377    3.3822    2.7705    4.1171    0.0000   28.4149   54.7646   61.4901   16.8133  358.4595    7.7463 7233.3027
 5817.1842    3.3974    2.8209    3.4197    4.0616    2.8383    3.7722    3.4716    2.8209    4.0616    0.0000   28.4255   54.5725   60.5293   17.0360  358.3651    7.7522 7226.3242
 5817.2604    3.4154    2.8663    3.4494    3.9768    2.8298    3.8128    3.5572    2.8298    3.9768    0.0000   28.4414   54.1882   60.7215   17.1318  358.2633    7.7528 7222.0078
 5817.3366    3.4337    2.8900    3.4379    3.8928    2.8908    3.8366    3.6539    2.8900    3.8928    3.0000   28.4579   53.9960   60.7215   17.1459  358.1444    7.7521 7221.6650
 5817.4128    3.4595    2.9007    3.3994    3.8441    3.0084    3.8432    3.7614    2.9007    3.8441    3.0000   28.4706   53.9960   60.7215   17.2132  358.0134    7.7525 7225.0088
 5817.4890    3.4972    2.9228    3.3898    3.8454    3.1285    3.8337    3.8627    2.9228    3.8627    9.0000   28.4782   54.5725   61.4901   17.3489  357.8859    7.7542 7230.2939
 5817.5652    3.5363    2.9644    3.4423    3.8700    3.1866    3.8275    3.9269    2.9644    3.9269    0.0000   28.4819   54.5725   61.6823   17.4817  357.7804    7.7551 7235.1045
 5817.6414    3.5591    3.0109    3.5399    3.8823    3.1532    3.8324    3.9356    3.0109    3.9356    6.0000   28.4839   54.1882   60.5293   17.5632  357.7083    7.7534 7237.3613
 5817.7176    3.5542    3.0427    3.6317    3.8810    3.0596    3.8215    3.8889    3.0427    3.8889    0.0000   28.4842   54.7646   60.3372   17.5483  357.6693    7.7490 7236.1875
 5817.7938    3.5372    3.0706    3.6818    3.8977    2.9848    3.7742    3.8143    2.9848    3.8977    0.0000   28.4804   54.3803   61.4901   17.3954  357.6537    7.7433 7232.3721
 5817.8700    3.5311    3.1201    3.6960    3.9583    2.9766    3.6995    3.7362    2.9766    3.9583    0.0000   28.4711   54.1882   60.7215   17.1525  357.6483    7.7392 7227.6084
 5817.9462    3.5492    3.1971    3.7137    4.0550    3.0302    3.6299    3.6693    3.0302    4.0550   12.0000   28.4577   54.1882   61.4901   16.9117  357.6393    7.7380 7223.7578
 5818.0224    3.5839    3.2734    3.7587    4.1346    3.1004    3.6170    3.6190    3.1004    4.1346    1.0000   28.4447   54.7646   61.4901   16.7846  357.6208    7.7391 7222.0156
