~Version Information

 VERS.                2.00:   CWLS log ASCII Standard -VERSION 2.00

 WRAP.                  NO:   One line per frame      

~Well Information Block

#MNEM.UNIT                     Data                     Description

#----.----   ----------------------------------------   -------------------------------

 STRT.M                                     5560.9236 : Starting Depth

 STOP.M                                     6796.2018 : Ending Depth

 STEP.M                                        0.0762 : Level Spacing

 NULL.                                      -999.2500 : Absent Value

 COMP.       TOTAL                                    : Company

 WELL.       ABD001                                   : Well

 FLD .       ABSHERON                                 : Field

 LOC .       HEYDAR ALIYEV                            : Location

 PROV.                                                : Province

 CTRY.       AZERBAIJAN                               : Country

 SRVC.       Baker Hughes                             : Service Company

 DATE.       22-APR-2019                              : Log Date

 UWI .                                                : Unique Well ID

 LIC .                                                : License Number

~Curve Information Block

#MNEM    .UNIT        API Codes     Curve Description

#--------.--------   LG--CV-CL--M   ---------------------------------------------------

 DEPT    .M          99 995 99  1 : Depth

 ATAV    .DB/F       81 995 99  1 : Average attenuation

 ATC1    .DB/F       81 995 99  1 : Attenuation pad 1

 ATC2    .DB/F       81 995 99  1 : Attenuation pad 2

 ATC3    .DB/F       81 995 99  1 : Attenuation pad 3

 ATC4    .DB/F       81 995 99  1 : Attenuation pad 4

 ATC5    .DB/F       81 995 99  1 : Attenuation pad 5

 ATC6    .DB/F       81 995 99  1 : Attenuation pad 6

 ATMN    .DB/F       81 995 99  1 : Attenuation minimum

 ATMX    .DB/F       81 995 99  1 : Attenuation maximum

 CCL     .MV         86 150  1  1 : Casing collar locator

 DEVOD   .DEG        75 995 99  1 : Deviation

 DTMN    .US/F       99 995 99  1 : Minimal slowness

 DTMX    .US/F       99 995 99  1 : Maximal slowness

 GR      .GAPI       30 310  1  1 : Gamma ray

 RBSB    .DEG        75 631  1  1 : Relative bearing (relative to borehole low side) for SBT

 SPD     .M/MN       99 636 99  1 : Speed

 TTEN    .LBF        99 635 99  1 : Total tension

~Parameter Information Block

#MNEM.UNIT                     Value                    Description

#----.----   ----------------------------------------   -------------------------------

 HIDE.       SEGMENTED BOND TOOL^S                    : Header Identifier

 HID1.       GAMMA RAY LOG                            : Header Identifier

 HID2.       CASING COLLAR LOCATOR                    : Header Identifier

 HID3.       VARIABLE DENSITY LOG                     : Header Identifier

 HID4.       COMPENSATED Z-DENSILOG^S                 : Header Identifier

 HID5.       COMPENSATED NEUTRON LOG                  : Header Identifier

 HID6.       TTRM SUB^S                               : N/A

 HID7.       *** 7" LINER ***                         : N/A

 CMT1.       FINAL PRINT                              : Comment 1  

 CMT2.       1:200                                    : Comment 2  

 CMT3.       1:500                                    : Comment 3  

 LATI.       39DEG56'09.3"N                           : Latitude

 LONG.       50DEG52'53.8"E                           : Longitude

 OS2 .       SBT/GR/CCL/VDL                           : Other Services Line 2

 OS3 .       ZDL/CN/GR/TTRM                           : Other Services Line 3

 PDAT.       MSL                                      : Permanent Datum

 EPD .M      0                                        : Elevation Of Perm. Datum

 LMF .       DF                                       : Log Measured From

 APD .M      25.7                                     : Above Permanent Datum

 DMF .       DF                                       : Drilling Measured From

 EKB .M      25.7                                     : Elevation Of Kelly Bushing

 EDF .M      25.7                                     : Elevation Of Derrick Floor

 EGL .M      468.3                                    : Elevation Of Ground Level

 RUN .       3.1.1                                    : Run Number

 TRIP.       1                                        : Trip Number

 SON .       AZ19007                                  : Service Order Number

 TDD .M      7411                                     : Total Depth - Driller

 TLAB.       15:15 22-APR-2019                        : Time Logger At Bottom

 TLAS.       XX:XX 23-JAN-2019                        : N/A

 OPRT.       XX HOURS                                 : N/A

 DFT .       OBM                                      : Drilling Fluid Type

 DFD .LB/G   1.6                                      : Drilling Fluid Density

 BSAL.PPM    42500                                    : Borehole Salinity

 WHP .PSI    0                                        : N/A

 MHD .DEG    31.62                                    : Maximum Hole Deviation

 NLS .M/MN   9                                        : Nominal Logging Speed

 REFL.       NA                                       : N/A

 REFD.       NA                                       : N/A

 LUN .       9037                                     : Logging Unit Number

 LUL .       AZERBAIJAN                               : Logging Unit Location

 ENGI.       M.SERROUR/M.GULMAMMADOV                  : Engineer's Name

 WITN.       ADRIEN P. / KAMAL K.                     : Witness' Name

 TSTR.       SBT/GR/CCL//ZDL/CN/TTRM/                 : Title Service Mnemonic

 TSTG.       NA                                       : Title Service Mnemonic

 STUS.       FINAL                                    : Status

 LCNM.       Baker Hughes                             : Logging Company Name

 LCC .       150                                      : Logging Company Code

 OPMD.       CH.WIRE                                  : Operation Mode

 PANA.       M.SERROUR/M.GULMAMMADOV                  : Processing Analyst

 PCON.       Baker Hughes                             : Processing Contractor

 APIN.                                                : API Serial Number

~Other information

1.  LOG OBJECTIVE IS TO EVALUATE CEMENT INTEGRITY BEHIND 10" & 13.375" CASING   

2.   LOG WAS NOT CORRELATED AS PER CUSTOMER REQUEST                             

3.  TOOLSTRING RUN AS PER TOOLSKETCH:                                           

     CH/SWVL/CCL/GR/EL/KNCK/CENT/SBT/CENT/VDL/CENT                              

     WITH TWO GEMOCO CENTRALIZERS ON SBT MANDREL AS INDICATED.                  

4.  MAX CABLEHEAD THERMOMETERS READINGS ARE: 89 DEG C, 89 DEG C, 90 DEG C       

5. NORMALIZATION FACTORS FOR 10 IN LINER WERE TAKEN FROM MAIN LOG OVER          

    4900 - 4750 M INTERVAL                                                      

   NORMALIZATION FACTORS FOR 13.375 IN CASING WERE TAKEN FROM MAIN LOG OVER     

   3770 - 3635 M INTERVAL                                                       

6. MUD REPORT                                                                   

     MUD DETAILS:                                                               

     MUD TYPE: OBM                                                              

     MUD WEIGHT : 1.83 SG                                                       

7.  SBT CEMENT MAP PROCESSED USING THE FOLLOWING PARAMETERS;                    

    FOR 10" LINER:                                                              

    CASING ID:              8.624 IN                                            

    COMPR STR:           1148 PSI (AS PER CUSTOMER REQUEST)                     

    CSG WEIGHT:           68.7  LB/FT                                           

    CSG THICKNESS:     0.688 IN                                                 

    FREE PIPE ATTN:     6.480 DB/F                                              

    FOR 13.375" CASING:                                                         

    CASING ID:               12.347 IN                                          

    COMPR STR:            615 PSI (AS PER CUSTOMER REQUEST)                     

    CSG WEIGHT:           72  LB/FT                                             

    CSG THICKNESS:     0.514 IN                                                 

    FREE PIPE ATTN:     3.285 DB/F                                              

 8. ATTENUATION PARAMETERS OF CEMENT MAP:                                       

   FOR 10" LINER                                                                

    0%   -  6.480 DB/FT                                                         

    20%  - 7.389 DB/F                                                           

    80%  - 10.117 DB/FT                                                         

    100% - 10.980 DB/FT                                                         

   FOR 13.375" CASING                                                           

    0%   -  3.285 DB/FT                                                         

    20%  - 4.181 DB/F                                                           

    80%  - 6.869 DB/FT                                                          

    100% - 7.785 DB/FT                                                          

9.  MAXIMUM DEVIATION OVER THE LOGGED INTERVAL IS 30.8 DEG AT 5040.0 M          

     ACCORDING TO DRILLERS SURVEY                                               

10. GR PEAK ON 10 IN LINER MAIN LOG AT 4619 M WAS DUE TO LOG STOP AND CONTINUE  

#  Curve Data

~A DEPT      ATAV      ATC1      ATC2      ATC3      ATC4      ATC5      ATC6      ATMN      ATMX      CCL       DEVOD     DTMN      DTMX      GR        RBSB      SPD       TTEN     
# ...
 6380.4546    8.6570   11.2458    7.8573   10.1484    4.3541    8.9748    9.3618    4.3541   11.2458   86.0000   26.2173   48.0391   67.2548   24.5550    0.8115    8.0943 8021.5273
 6380.5308    8.6546   11.4129    7.7663    9.8431    4.9947    9.1216    8.7892    4.9947   11.4129    8.0000   26.2173   50.9215   64.3725   24.9048    0.8131    8.0934 8018.7617
 6380.6070    8.2689   10.6763    7.4471    9.1727    5.4108    8.9611    7.9454    5.4108   10.6763   44.0000   26.2173   50.3450   69.9450   25.7948    0.8045    8.1027 8015.0410
 6380.6832    7.5783    9.3007    6.9455    8.2777    5.3661    8.4915    7.0883    5.3661    9.3007   12.0000   26.2173   50.3450   61.2979   26.9406    0.7980    8.1135 8011.6968
 6380.7594    6.7420    7.7150    6.3208    7.3397    4.8486    7.7542    6.4734    4.8486    7.7542    0.0000   26.2173   55.1489   61.1058   27.9703    0.8062    8.1176 8010.3291
 6380.8356    5.9337    6.2971    5.6452    6.5037    4.0838    6.8618    6.2105    4.0838    6.8618    0.0000   26.2173   54.3803   62.0666   28.5598    0.8346    8.1101 8012.0073
 6380.9118    5.2945    5.2989    5.0199    5.8619    3.3780    5.9756    6.2327    3.3780    6.2327    0.0000   26.2174   55.7254   61.6823   28.5881    0.8780    8.0951 8016.5181
 6380.9880    4.9236    4.8041    4.5863    5.4576    2.9537    5.3032    6.4364    2.9537    6.4364   21.0000   26.2175   55.9176   60.3372   28.1520    0.9233    8.0813 8022.4141
 6381.0642    4.7860    4.6223    4.3650    5.2520    2.8504    4.9394    6.6867    2.8504    6.6867    0.0000   26.2175   56.1097   61.1058   27.4388    0.9581    8.0757 8027.6494
 6381.1404    4.7481    4.5217    4.2756    5.1348    2.9207    4.8005    6.8354    2.9207    6.8354    0.0000   26.2176   55.5332   61.2979   26.6124    0.9784    8.0811 8030.4141
 6381.2166    4.7382    4.4641    4.2532    5.0734    2.9979    4.7693    6.8715    2.9979    6.8715    4.0000   26.2176   55.1489   60.9136   25.8393    0.9866    8.0968 8029.9199
 6381.2928    4.7620    4.4915    4.2892    5.0778    3.0444    4.8108    6.8587    3.0444    6.8587    0.0000   26.2176   54.9568   61.4901   25.2474    0.9882    8.1198 8026.4951
 6381.3690    4.8254    4.6223    4.3904    5.1120    3.0748    4.9229    6.8300    3.0748    6.8300    0.0000   26.2176   55.5332   61.2979   24.9126    0.9882    8.1420 8021.3262
 6381.4452    4.9212    4.8389    4.5449    5.1375    3.0908    5.1007    6.8146    3.0908    6.8146    0.0000   26.2176   55.7254   60.3372   24.8546    0.9882    8.1568 8016.0732
 6381.5214    5.0214    5.0798    4.7014    5.1267    3.0926    5.3078    6.8201    3.0926    6.8201    0.0000   26.2176   55.7254   60.5293   24.9955    0.9882    8.1592 8012.4360
 6381.5976    5.1022    5.2787    4.8265    5.0856    3.0964    5.5004    6.8253    3.0964    6.8253    0.0000   26.2160   55.7254   60.7215   25.2109    0.9882    8.1510 8011.2671
 6381.6738    5.1586    5.3957    4.9316    5.0510    3.1225    5.6428    6.8080    3.1225    6.8080    1.0000   26.2078   55.1489   59.9529   25.4146    0.9883    8.1367 8011.8530
 6381.7500    5.1993    5.4175    5.0394    5.0679    3.1927    5.7236    6.7547    3.1927    6.7547    0.0000   26.1892   55.9176   60.9136   25.5575    0.9885    8.1247 8012.0820
 6381.8262    5.2278    5.3659    5.1399    5.1256    3.3037    5.7671    6.6646    3.3037    6.6646    0.0000   26.1625   55.7254   61.1058   25.6040    0.9887    8.1203 8010.4287
 6381.9024    5.2381    5.2821    5.1980    5.1675    3.4186    5.8053    6.5570    3.4186    6.5570    0.0000   26.1359   56.1097   60.1450   25.5881    0.9890    8.1247 8006.3926
 6381.9786    5.2223    5.2051    5.1866    5.1469    3.5056    5.8420    6.4474    3.5056    6.4474    0.0000   26.1191   56.3019   60.3372   25.5840    0.9892    8.1312 8000.8091
 6382.0548    5.1882    5.1675    5.0999    5.0706    3.5629    5.8758    6.3523    3.5629    6.3523    0.0000   26.1175   55.5332   60.3372   25.6191    0.9892    8.1323 7994.9404
 6382.1310    5.1586    5.1893    4.9673    4.9789    3.5978    5.9168    6.3015    3.5978    6.3015    2.0000   26.1260   55.9176   60.1450   25.6705    0.9891    8.1231 7989.8477
 6382.2072    5.1581    5.2624    4.8318    4.9254    3.6375    5.9709    6.3205    3.6375    6.3205    0.0000   26.1341   55.7254   61.4901   25.7386    0.9890    8.1077 7986.4312
 6382.2834    5.1904    5.3524    4.7161    4.9313    3.6986    6.0369    6.4074    3.6986    6.4074    0.0000   26.1341   55.3411   60.9136   25.8459    0.9890    8.0952 7985.1973
 6382.3596    5.2382    5.4213    4.6312    4.9729    3.7641    6.1028    6.5366    3.7641    6.5366    0.0000   26.1260   55.7254   59.5685   26.0544    0.9891    8.0943 7986.2754
 6382.4358    5.2759    5.4504    4.5709    5.0099    3.8063    6.1395    6.6783    3.8063    6.6783    0.0000   26.1175   56.1097   60.7215   26.4111    0.9892    8.1068 7989.6255
 6382.5120    5.2928    5.4421    4.5242    5.0281    3.8263    6.1210    6.8149    3.8263    6.8149    0.0000   26.1191   55.5332   60.3372   26.9242    0.9892    8.1256 7994.8164
 6382.5882    5.2967    5.4164    4.5049    5.0382    3.8342    6.0464    6.9402    3.8342    6.9402    1.0000   26.1359   55.9176   60.7215   27.5781    0.9890    8.1399 8001.2236
 6382.6644    5.3040    5.3941    4.5334    5.0684    3.8439    5.9393    7.0449    3.8439    7.0449    0.0000   26.1625   55.1489   61.6823   28.3599    0.9887    8.1409 8007.7422
 6382.7406    5.3258    5.3762    4.6010    5.1386    3.8590    5.8522    7.1278    3.8590    7.1278    0.0000   26.1892   54.9568   61.2979   29.1507    0.9885    8.1261 8013.4126
 6382.8168    5.3553    5.3468    4.6701    5.2363    3.8619    5.8195    7.1973    3.8619    7.1973    0.0000   26.2078   55.3411   60.9136   29.7876    0.9883    8.1006 8017.9082
 6382.8930    5.3696    5.2924    4.7069    5.3268    3.8363    5.8157    7.2395    3.8363    7.2395    0.0000   26.2160   55.9176   60.3372   30.1665    0.9882    8.0733 8021.3262
 6382.9692    5.3496    5.2195    4.7049    5.3859    3.7976    5.7787    7.2106    3.7976    7.2106   39.0000   26.2176   56.1097   60.9136   30.2335    0.9882    8.0514 8023.9277
 6383.0454    5.2871    5.1508    4.6966    5.3980    3.7704    5.6458    7.0608    3.7704    7.0608   37.0000   26.2176   55.9176   59.9529   29.9517    0.9882    8.0388 8025.2461
 6383.1216    5.1862    5.1024    4.7185    5.3568    3.7718    5.3955    6.7724    3.7718    6.7724   64.0000   26.2176   55.9176   60.5293   29.3540    0.9882    8.0358 8024.8164
 6383.1978    5.0582    5.0763    4.7631    5.2520    3.7899    5.0774    6.3907    3.7899    6.3907   40.0000   26.2176   55.5332   61.2979   28.5762    0.9882    8.0406 8023.1514
 6383.2740    4.9181    5.0630    4.7911    5.0749    3.7898    4.7773    6.0121    3.7898    6.0121   33.0000   26.2176   55.9176   60.7215   27.8631    0.9882    8.0495 8021.4873
 6383.3502    4.7819    5.0509    4.7641    4.8419    3.7487    4.5581    5.7280    3.7487    5.7280   29.0000   26.2176   56.1097   60.5293   27.4872    0.9882    8.0601 8020.8945
 6383.4264    4.6728    5.0385    4.6643    4.6028    3.6849    4.4512    5.5953    3.6849    5.5953   37.0000   26.2176   55.9176   60.3372   27.6140    0.9898    8.0707 8021.6191
 6383.5026    4.6114    5.0342    4.5243    4.4097    3.6309    4.4445    5.6247    3.6309    5.6247    6.0000   26.2176   55.5332   59.9529   28.1933    0.9980    8.0798 8023.1533
 6383.5788    4.6006    5.0450    4.4077    4.2910    3.6037    4.4891    5.7673    3.6037    5.7673    1.0000   26.2177   55.9176   61.1058   29.0097    1.0183    8.0871 8024.5186
 6383.6550    4.6284    5.0685    4.3736    4.2443    3.6003    4.5468    5.9372    3.6003    5.9372    0.0000   26.2178   55.1489   60.7215   29.7591    1.0531    8.0937 8024.9629
 6383.7312    4.6771    5.0957    4.4416    4.2405    3.6057    4.6044    6.0746    3.6057    6.0746    0.0000   26.2195   56.1097   60.7215   30.2244    1.1000    8.1000 8024.4717
 6383.8074    4.7280    5.1152    4.5836    4.2483    3.6143    4.6519    6.1546    3.6143    6.1546    0.0000   26.2279   56.3019   60.3372   30.3770    1.1515    8.1045 8023.4932
