~Version Information

 VERS.                2.00:   CWLS log ASCII Standard -VERSION 2.00

 WRAP.                  NO:   One line per frame      

~Well Information Block

#MNEM.UNIT                     Data                     Description

#----.----   ----------------------------------------   -------------------------------

 STRT.M                                     5560.9236 : Starting Depth

 STOP.M                                     6796.2018 : Ending Depth

 STEP.M                                        0.0762 : Level Spacing

 NULL.                                      -999.2500 : Absent Value

 COMP.       TOTAL                                    : Company

 WELL.       ABD001                                   : Well

 FLD .       ABSHERON                                 : Field

 LOC .       HEYDAR ALIYEV                            : Location

 PROV.                                                : Province

 CTRY.       AZERBAIJAN                               : Country

 SRVC.       Baker Hughes                             : Service Company

 DATE.       22-APR-2019                              : Log Date

 UWI .                                                : Unique Well ID

 LIC .                                                : License Number

~Curve Information Block

#MNEM    .UNIT        API Codes     Curve Description

#--------.--------   LG--CV-CL--M   ---------------------------------------------------

 DEPT    .M          99 995 99  1 : Depth

 ATAV    .DB/F       81 995 99  1 : Average attenuation

 ATC1    .DB/F       81 995 99  1 : Attenuation pad 1

 ATC2    .DB/F       81 995 99  1 : Attenuation pad 2

 ATC3    .DB/F       81 995 99  1 : Attenuation pad 3

 ATC4    .DB/F       81 995 99  1 : Attenuation pad 4

 ATC5    .DB/F       81 995 99  1 : Attenuation pad 5

 ATC6    .DB/F       81 995 99  1 : Attenuation pad 6

 ATMN    .DB/F       81 995 99  1 : Attenuation minimum

 ATMX    .DB/F       81 995 99  1 : Attenuation maximum

 CCL     .MV         86 150  1  1 : Casing collar locator

 DEVOD   .DEG        75 995 99  1 : Deviation

 DTMN    .US/F       99 995 99  1 : Minimal slowness

 DTMX    .US/F       99 995 99  1 : Maximal slowness

 GR      .GAPI       30 310  1  1 : Gamma ray

 RBSB    .DEG        75 631  1  1 : Relative bearing (relative to borehole low side) for SBT

 SPD     .M/MN       99 636 99  1 : Speed

 TTEN    .LBF        99 635 99  1 : Total tension

~Parameter Information Block

#MNEM.UNIT                     Value                    Description

#----.----   ----------------------------------------   -------------------------------

 HIDE.       SEGMENTED BOND TOOL^S                    : Header Identifier

 HID1.       GAMMA RAY LOG                            : Header Identifier

 HID2.       CASING COLLAR LOCATOR                    : Header Identifier

 HID3.       VARIABLE DENSITY LOG                     : Header Identifier

 HID4.       COMPENSATED Z-DENSILOG^S                 : Header Identifier

 HID5.       COMPENSATED NEUTRON LOG                  : Header Identifier

 HID6.       TTRM SUB^S                               : N/A

 HID7.       *** 7" LINER ***                         : N/A

 CMT1.       FINAL PRINT                              : Comment 1  

 CMT2.       1:200                                    : Comment 2  

 CMT3.       1:500                                    : Comment 3  

 LATI.       39DEG56'09.3"N                           : Latitude

 LONG.       50DEG52'53.8"E                           : Longitude

 OS2 .       SBT/GR/CCL/VDL                           : Other Services Line 2

 OS3 .       ZDL/CN/GR/TTRM                           : Other Services Line 3

 PDAT.       MSL                                      : Permanent Datum

 EPD .M      0                                        : Elevation Of Perm. Datum

 LMF .       DF                                       : Log Measured From

 APD .M      25.7                                     : Above Permanent Datum

 DMF .       DF                                       : Drilling Measured From

 EKB .M      25.7                                     : Elevation Of Kelly Bushing

 EDF .M      25.7                                     : Elevation Of Derrick Floor

 EGL .M      468.3                                    : Elevation Of Ground Level

 RUN .       3.1.1                                    : Run Number

 TRIP.       1                                        : Trip Number

 SON .       AZ19007                                  : Service Order Number

 TDD .M      7411                                     : Total Depth - Driller

 TLAB.       15:15 22-APR-2019                        : Time Logger At Bottom

 TLAS.       XX:XX 23-JAN-2019                        : N/A

 OPRT.       XX HOURS                                 : N/A

 DFT .       OBM                                      : Drilling Fluid Type

 DFD .LB/G   1.6                                      : Drilling Fluid Density

 BSAL.PPM    42500                                    : Borehole Salinity

 WHP .PSI    0                                        : N/A

 MHD .DEG    31.62                                    : Maximum Hole Deviation

 NLS .M/MN   9                                        : Nominal Logging Speed

 REFL.       NA                                       : N/A

 REFD.       NA                                       : N/A

 LUN .       9037                                     : Logging Unit Number

 LUL .       AZERBAIJAN                               : Logging Unit Location

 ENGI.       M.SERROUR/M.GULMAMMADOV                  : Engineer's Name

 WITN.       ADRIEN P. / KAMAL K.                     : Witness' Name

 TSTR.       SBT/GR/CCL//ZDL/CN/TTRM/                 : Title Service Mnemonic

 TSTG.       NA                                       : Title Service Mnemonic

 STUS.       FINAL                                    : Status

 LCNM.       Baker Hughes                             : Logging Company Name

 LCC .       150                                      : Logging Company Code

 OPMD.       CH.WIRE                                  : Operation Mode

 PANA.       M.SERROUR/M.GULMAMMADOV                  : Processing Analyst

 PCON.       Baker Hughes                             : Processing Contractor

 APIN.                                                : API Serial Number

~Other information

1.  LOG OBJECTIVE IS TO EVALUATE CEMENT INTEGRITY BEHIND 10" & 13.375" CASING   

2.   LOG WAS NOT CORRELATED AS PER CUSTOMER REQUEST                             

3.  TOOLSTRING RUN AS PER TOOLSKETCH:                                           

     CH/SWVL/CCL/GR/EL/KNCK/CENT/SBT/CENT/VDL/CENT                              

     WITH TWO GEMOCO CENTRALIZERS ON SBT MANDREL AS INDICATED.                  

4.  MAX CABLEHEAD THERMOMETERS READINGS ARE: 89 DEG C, 89 DEG C, 90 DEG C       

5. NORMALIZATION FACTORS FOR 10 IN LINER WERE TAKEN FROM MAIN LOG OVER          

    4900 - 4750 M INTERVAL                                                      

   NORMALIZATION FACTORS FOR 13.375 IN CASING WERE TAKEN FROM MAIN LOG OVER     

   3770 - 3635 M INTERVAL                                                       

6. MUD REPORT                                                                   

     MUD DETAILS:                                                               

     MUD TYPE: OBM                                                              

     MUD WEIGHT : 1.83 SG                                                       

7.  SBT CEMENT MAP PROCESSED USING THE FOLLOWING PARAMETERS;                    

    FOR 10" LINER:                                                              

    CASING ID:              8.624 IN                                            

    COMPR STR:           1148 PSI (AS PER CUSTOMER REQUEST)                     

    CSG WEIGHT:           68.7  LB/FT                                           

    CSG THICKNESS:     0.688 IN                                                 

    FREE PIPE ATTN:     6.480 DB/F                                              

    FOR 13.375" CASING:                                                         

    CASING ID:               12.347 IN                                          

    COMPR STR:            615 PSI (AS PER CUSTOMER REQUEST)                     

    CSG WEIGHT:           72  LB/FT                                             

    CSG THICKNESS:     0.514 IN                                                 

    FREE PIPE ATTN:     3.285 DB/F                                              

 8. ATTENUATION PARAMETERS OF CEMENT MAP:                                       

   FOR 10" LINER                                                                

    0%   -  6.480 DB/FT                                                         

    20%  - 7.389 DB/F                                                           

    80%  - 10.117 DB/FT                                                         

    100% - 10.980 DB/FT                                                         

   FOR 13.375" CASING                                                           

    0%   -  3.285 DB/FT                                                         

    20%  - 4.181 DB/F                                                           

    80%  - 6.869 DB/FT                                                          

    100% - 7.785 DB/FT                                                          

9.  MAXIMUM DEVIATION OVER THE LOGGED INTERVAL IS 30.8 DEG AT 5040.0 M          

     ACCORDING TO DRILLERS SURVEY                                               

10. GR PEAK ON 10 IN LINER MAIN LOG AT 4619 M WAS DUE TO LOG STOP AND CONTINUE  

#  Curve Data

~A DEPT      ATAV      ATC1      ATC2      ATC3      ATC4      ATC5      ATC6      ATMN      ATMX      CCL       DEVOD     DTMN      DTMX      GR        RBSB      SPD       TTEN     
# ...
 5653.5066    4.1574    3.8758    3.5489    4.6076    3.3888    4.2764    5.2469    3.3888    5.2469    0.0000   28.7756   53.0352   60.7215    9.0133  351.6107    7.9522 6933.2969
 5653.5828    4.2004    3.8967    3.7689    4.8614    2.9481    4.3685    5.3588    2.9481    5.3588    0.0000   28.7725   52.4587   62.0666    9.1201  351.6752    7.9494 6931.0371
 5653.6590    4.1560    3.9047    3.9955    5.0656    2.2132    4.4416    5.3153    2.2132    5.3153    2.0000   28.7385   53.0352   59.9529    9.7239  351.7363    7.9477 6929.5205
 5653.7352    3.9668    3.8868    4.1335    5.1400    1.1541    4.4219    5.0643    1.1541    5.1400    0.0000   28.6903   54.3803   61.6823   10.9213  351.8053    7.9447 6930.4072
 5653.8114    3.6350    3.8359    4.1146    5.0482   -0.1122    4.2824    4.6413   -0.1122    5.0482    3.0000   28.6402   53.8038   62.2587   12.6600  351.8885    7.9376 6934.6348
 5653.8876    3.2298    3.7380    3.9383    4.8505   -1.3614    4.0665    4.1468   -1.3614    4.8505    5.0000   28.5906   51.8823   64.3725   14.7176  351.9809    7.9256 6941.7139
 5653.9638    2.8488    3.5652    3.6625    4.6905   -2.3688    3.8523    3.6912   -2.3688    4.6905    1.0000   28.5371   52.6509   65.5254   16.7721  352.0701    7.9101 6949.7153
 5654.0400    2.5685    3.2936    3.3751    4.7150   -2.9798    3.6877    3.3192   -2.9798    4.7150    0.0000   28.4755   48.2313   59.9529   18.5109  352.1439    7.8952 6956.1841
 5654.1162    2.4279    2.9405    3.1791    4.9697   -3.1115    3.5680    3.0215   -3.1115    4.9697    0.0000   28.4058   48.4235   59.9529   19.7418  352.1976    7.8864 6959.1826
 5654.1924    2.4347    2.5746    3.1522    5.3853   -2.7647    3.4882    2.7728   -2.7647    5.3853    0.0000   28.3362   48.6156   59.3764   20.4287  352.2293    7.8888 6957.7158
 5654.2686    2.6381    2.4003    3.3887    5.8519   -1.9213    3.5197    2.5893   -1.9213    5.8519    0.0000   28.2811   47.6548   59.3764   20.6713  352.2314    7.9012 6951.9717
 5654.3448    3.1898    2.7631    4.0862    6.3575   -0.4940    3.8323    2.5939   -0.4940    6.3575    0.0000   28.2569   53.9960   61.8744   20.6466  352.1956    7.9160 6943.5264
 5654.4210    4.1873    3.8771    5.3442    6.9421    1.4885    4.5509    2.9210    1.4885    6.9421    0.0000   28.2727   45.5411   74.7489   20.4988  352.1173    7.9237 6935.0635
 5654.4972    5.5519    5.6529    7.0171    7.6754    3.7512    5.5927    3.6223    3.6223    7.6754    0.0000   28.3223   50.7293   59.7607   20.2538  352.0002    7.9170 6929.0889
 5654.5734    7.0677    7.7989    8.7928    8.5824    5.8911    6.7107    4.6305    4.6305    8.7928    0.0000   28.3877   53.8038   60.5293   19.8914  351.8650    7.8957 6927.0654
 5654.6496    8.4621    9.8553   10.2859    9.5301    7.6210    7.6612    5.8189    5.8189   10.2859    7.0000   28.4498   53.2274   60.5293   19.4863  351.7431    7.8661 6929.0908
 5654.7258    9.4582   11.3547   11.1511   10.1561    8.8171    8.2723    6.9980    6.9980   11.3547   15.0000   28.4925   56.8783   64.1803   19.1620  351.6575    7.8389 6934.1777
 5654.8020    9.8320   11.9322   11.1721   10.0944    9.4272    8.4407    7.9251    7.9251   11.9322   20.0000   28.5070   55.1489   66.1019   18.9806  351.6109    7.8232 6940.9600
 5654.8782    9.5153   11.4745   10.3791    9.2139    9.4736    8.1772    8.3737    8.1772   11.4745   22.0000   28.4962   53.6117   62.8352   18.9142  351.5850    7.8233 6948.1836
 5654.9544    8.6175   10.1379    9.0072    7.7281    9.0114    7.5782    8.2420    7.5782   10.1379    0.0000   28.4720   53.6117   64.7568   18.8984  351.5558    7.8365 6954.6826
 5655.0306    7.3806    8.3274    7.4115    6.0851    8.1502    6.7689    7.5403    6.0851    8.3274    7.0000   28.4480   53.9960   65.5254   18.8864  351.5155    7.8546 6959.6523
 5655.1068    6.0815    6.4705    5.9114    4.7531    7.0506    5.8751    6.4286    4.7531    7.0506    1.0000   28.4319   54.1882   61.1058   18.8808  351.4796    7.8707 6963.0708
 5655.1830    4.9284    4.8904    4.6853    3.9508    5.8771    5.0102    5.1568    3.9508    5.8771    0.0000   28.4243   54.1882   60.9136   18.8788  351.4692    7.8839 6965.6367
 5655.2592    4.0700    3.8058    3.8207    3.6583    4.8304    4.2944    4.0105    3.6583    4.8304    0.0000   28.4202   54.3803   60.7215   18.8629  351.4976    7.8981 6968.1997
 5655.3354    3.6001    3.3164    3.3664    3.7022    4.1233    3.8586    3.2335    3.2335    4.1233    4.0000   28.4140   54.1882   60.5293   18.8156  351.5679    7.9185 6971.5059
 5655.4116    3.4531    3.2412    3.2135    3.8483    3.8093    3.7068    2.8996    2.8996    3.8483    4.0000   28.4051   54.3803   60.3372   18.6907  351.6710    7.9461 6975.8823
 5655.4878    3.4615    3.3064    3.1971    3.9409    3.7515    3.7027    2.8705    2.8705    3.9409    6.0000   28.3948   54.1882   60.9136   18.4062  351.7914    7.9770 6980.9688
 5655.5640    3.4869    3.3215    3.2000    3.9811    3.7664    3.7073    2.9454    2.9454    3.9811    2.0000   28.3837   54.1882   61.4901   17.9454  351.9129    8.0006 6985.8394
 5655.6402    3.4951    3.2436    3.2069    4.0156    3.8019    3.6933    3.0093    3.0093    4.0156    3.0000   28.3705   54.3803   60.5293   17.4456  352.0217    8.0065 6989.9521
 5655.7164    3.4926    3.1219    3.2236    4.0428    3.8561    3.6818    3.0295    3.0295    4.0428    1.0000   28.3529   54.1882   61.2979   17.0634  352.1081    7.9886 6993.2412
 5655.7926    3.4833    3.0196    3.2404    4.0447    3.9011    3.6798    3.0140    3.0140    4.0447    8.0000   28.3302   54.7646   60.7215   16.9240  352.1673    7.9511 6995.7236
 5655.8688    3.4690    2.9634    3.2440    4.0140    3.9130    3.6821    2.9973    2.9634    4.0140    0.0000   28.3035   53.8038   60.5293   17.0934  352.1980    7.9052 6997.2578
 5655.9450    3.4499    2.9534    3.2317    3.9575    3.8612    3.6775    3.0178    2.9534    3.9575    0.0000   28.2763   54.3803   61.1058   17.5570  352.2059    7.8641 6997.3740
 5656.0212    3.4179    2.9823    3.2060    3.8922    3.6803    3.6619    3.0848    2.9823    3.8922    0.0000   28.2532   54.3803   59.9529   18.2315  352.2026    7.8346 6995.3164
 5656.0974    3.3613    3.0280    3.1736    3.8521    3.2820    3.6452    3.1867    3.0280    3.8521    0.0000   28.2398   55.1489   61.1058   19.0028  352.1989    7.8184 6991.2031
 5656.1736    3.2633    3.0756    3.1351    3.8521    2.5907    3.6366    3.2899    2.5907    3.8521    0.0000   28.2390   55.3411   60.7215   19.6665  352.1986    7.8115 6986.5391
 5656.2498    3.1198    3.1304    3.0913    3.8851    1.6014    3.6506    3.3600    1.6014    3.8851    3.0000   28.2483   53.9960   61.4901   20.0520  352.2012    7.8104 6983.5576
 5656.3260    2.9451    3.1902    3.0380    3.9231    0.4490    3.6958    3.3745    0.4490    3.9231    0.0000   28.2606   54.1882   63.2195   20.1252  352.2077    7.8126 6983.9375
 5656.4022    2.7724    3.2238    2.9847    3.9350   -0.5776    3.7472    3.3212   -0.5776    3.9350   11.0000   28.2679   53.9960   63.4117   19.9656  352.2252    7.8217 6987.6260
 5656.4784    2.6369    3.1559    2.9439    3.8991   -1.1651    3.7775    3.2100   -1.1651    3.8991    0.0000   28.2658   54.5725   63.9881   19.7209  352.2613    7.8412 6992.7153
 5656.5546    2.5541    2.8958    2.9044    3.8119   -1.1327    3.7651    3.0804   -1.1327    3.8119    1.0000   28.2570   50.5372   60.5293   19.5595  352.3168    7.8726 6996.9478
 5656.6308    2.5151    2.4187    2.8210    3.6886   -0.5127    3.7037    2.9712   -0.5127    3.7037    4.0000   28.2484   54.5725   63.7960   19.5528  352.3839    7.9133 6999.1992
 5656.7070    2.5142    1.8692    2.6474    3.5649    0.4763    3.6194    2.9083    0.4763    3.6194   11.0000   28.2476   54.1882   65.1411   19.6349  352.4482    7.9545 6999.5088
 5656.7832    2.6073    1.5301    2.4536    3.5288    1.5808    3.5995    2.9512    1.5301    3.5995    7.0000   28.2584   49.9607   62.4509   19.6737  352.4954    7.9865 6998.8813
 5656.8594    2.9646    1.7216    2.4988    3.7623    2.7197    3.8062    3.2787    1.7216    3.8062    4.0000   28.2791   47.2705   62.4509   19.5417  352.5180    8.0027 6998.8770
