~Version Information

 VERS.                2.00:   CWLS log ASCII Standard -VERSION 2.00

 WRAP.                  NO:   One line per frame      

~Well Information Block

#MNEM.UNIT                     Data                     Description

#----.----   ----------------------------------------   -------------------------------

 STRT.M                                     5560.9236 : Starting Depth

 STOP.M                                     6796.2018 : Ending Depth

 STEP.M                                        0.0762 : Level Spacing

 NULL.                                      -999.2500 : Absent Value

 COMP.       TOTAL                                    : Company

 WELL.       ABD001                                   : Well

 FLD .       ABSHERON                                 : Field

 LOC .       HEYDAR ALIYEV                            : Location

 PROV.                                                : Province

 CTRY.       AZERBAIJAN                               : Country

 SRVC.       Baker Hughes                             : Service Company

 DATE.       22-APR-2019                              : Log Date

 UWI .                                                : Unique Well ID

 LIC .                                                : License Number

~Curve Information Block

#MNEM    .UNIT        API Codes     Curve Description

#--------.--------   LG--CV-CL--M   ---------------------------------------------------

 DEPT    .M          99 995 99  1 : Depth

 ATAV    .DB/F       81 995 99  1 : Average attenuation

 ATC1    .DB/F       81 995 99  1 : Attenuation pad 1

 ATC2    .DB/F       81 995 99  1 : Attenuation pad 2

 ATC3    .DB/F       81 995 99  1 : Attenuation pad 3

 ATC4    .DB/F       81 995 99  1 : Attenuation pad 4

 ATC5    .DB/F       81 995 99  1 : Attenuation pad 5

 ATC6    .DB/F       81 995 99  1 : Attenuation pad 6

 ATMN    .DB/F       81 995 99  1 : Attenuation minimum

 ATMX    .DB/F       81 995 99  1 : Attenuation maximum

 CCL     .MV         86 150  1  1 : Casing collar locator

 DEVOD   .DEG        75 995 99  1 : Deviation

 DTMN    .US/F       99 995 99  1 : Minimal slowness

 DTMX    .US/F       99 995 99  1 : Maximal slowness

 GR      .GAPI       30 310  1  1 : Gamma ray

 RBSB    .DEG        75 631  1  1 : Relative bearing (relative to borehole low side) for SBT

 SPD     .M/MN       99 636 99  1 : Speed

 TTEN    .LBF        99 635 99  1 : Total tension

~Parameter Information Block

#MNEM.UNIT                     Value                    Description

#----.----   ----------------------------------------   -------------------------------

 HIDE.       SEGMENTED BOND TOOL^S                    : Header Identifier

 HID1.       GAMMA RAY LOG                            : Header Identifier

 HID2.       CASING COLLAR LOCATOR                    : Header Identifier

 HID3.       VARIABLE DENSITY LOG                     : Header Identifier

 HID4.       COMPENSATED Z-DENSILOG^S                 : Header Identifier

 HID5.       COMPENSATED NEUTRON LOG                  : Header Identifier

 HID6.       TTRM SUB^S                               : N/A

 HID7.       *** 7" LINER ***                         : N/A

 CMT1.       FINAL PRINT                              : Comment 1  

 CMT2.       1:200                                    : Comment 2  

 CMT3.       1:500                                    : Comment 3  

 LATI.       39DEG56'09.3"N                           : Latitude

 LONG.       50DEG52'53.8"E                           : Longitude

 OS2 .       SBT/GR/CCL/VDL                           : Other Services Line 2

 OS3 .       ZDL/CN/GR/TTRM                           : Other Services Line 3

 PDAT.       MSL                                      : Permanent Datum

 EPD .M      0                                        : Elevation Of Perm. Datum

 LMF .       DF                                       : Log Measured From

 APD .M      25.7                                     : Above Permanent Datum

 DMF .       DF                                       : Drilling Measured From

 EKB .M      25.7                                     : Elevation Of Kelly Bushing

 EDF .M      25.7                                     : Elevation Of Derrick Floor

 EGL .M      468.3                                    : Elevation Of Ground Level

 RUN .       3.1.1                                    : Run Number

 TRIP.       1                                        : Trip Number

 SON .       AZ19007                                  : Service Order Number

 TDD .M      7411                                     : Total Depth - Driller

 TLAB.       15:15 22-APR-2019                        : Time Logger At Bottom

 TLAS.       XX:XX 23-JAN-2019                        : N/A

 OPRT.       XX HOURS                                 : N/A

 DFT .       OBM                                      : Drilling Fluid Type

 DFD .LB/G   1.6                                      : Drilling Fluid Density

 BSAL.PPM    42500                                    : Borehole Salinity

 WHP .PSI    0                                        : N/A

 MHD .DEG    31.62                                    : Maximum Hole Deviation

 NLS .M/MN   9                                        : Nominal Logging Speed

 REFL.       NA                                       : N/A

 REFD.       NA                                       : N/A

 LUN .       9037                                     : Logging Unit Number

 LUL .       AZERBAIJAN                               : Logging Unit Location

 ENGI.       M.SERROUR/M.GULMAMMADOV                  : Engineer's Name

 WITN.       ADRIEN P. / KAMAL K.                     : Witness' Name

 TSTR.       SBT/GR/CCL//ZDL/CN/TTRM/                 : Title Service Mnemonic

 TSTG.       NA                                       : Title Service Mnemonic

 STUS.       FINAL                                    : Status

 LCNM.       Baker Hughes                             : Logging Company Name

 LCC .       150                                      : Logging Company Code

 OPMD.       CH.WIRE                                  : Operation Mode

 PANA.       M.SERROUR/M.GULMAMMADOV                  : Processing Analyst

 PCON.       Baker Hughes                             : Processing Contractor

 APIN.                                                : API Serial Number

~Other information

1.  LOG OBJECTIVE IS TO EVALUATE CEMENT INTEGRITY BEHIND 10" & 13.375" CASING   

2.   LOG WAS NOT CORRELATED AS PER CUSTOMER REQUEST                             

3.  TOOLSTRING RUN AS PER TOOLSKETCH:                                           

     CH/SWVL/CCL/GR/EL/KNCK/CENT/SBT/CENT/VDL/CENT                              

     WITH TWO GEMOCO CENTRALIZERS ON SBT MANDREL AS INDICATED.                  

4.  MAX CABLEHEAD THERMOMETERS READINGS ARE: 89 DEG C, 89 DEG C, 90 DEG C       

5. NORMALIZATION FACTORS FOR 10 IN LINER WERE TAKEN FROM MAIN LOG OVER          

    4900 - 4750 M INTERVAL                                                      

   NORMALIZATION FACTORS FOR 13.375 IN CASING WERE TAKEN FROM MAIN LOG OVER     

   3770 - 3635 M INTERVAL                                                       

6. MUD REPORT                                                                   

     MUD DETAILS:                                                               

     MUD TYPE: OBM                                                              

     MUD WEIGHT : 1.83 SG                                                       

7.  SBT CEMENT MAP PROCESSED USING THE FOLLOWING PARAMETERS;                    

    FOR 10" LINER:                                                              

    CASING ID:              8.624 IN                                            

    COMPR STR:           1148 PSI (AS PER CUSTOMER REQUEST)                     

    CSG WEIGHT:           68.7  LB/FT                                           

    CSG THICKNESS:     0.688 IN                                                 

    FREE PIPE ATTN:     6.480 DB/F                                              

    FOR 13.375" CASING:                                                         

    CASING ID:               12.347 IN                                          

    COMPR STR:            615 PSI (AS PER CUSTOMER REQUEST)                     

    CSG WEIGHT:           72  LB/FT                                             

    CSG THICKNESS:     0.514 IN                                                 

    FREE PIPE ATTN:     3.285 DB/F                                              

 8. ATTENUATION PARAMETERS OF CEMENT MAP:                                       

   FOR 10" LINER                                                                

    0%   -  6.480 DB/FT                                                         

    20%  - 7.389 DB/F                                                           

    80%  - 10.117 DB/FT                                                         

    100% - 10.980 DB/FT                                                         

   FOR 13.375" CASING                                                           

    0%   -  3.285 DB/FT                                                         

    20%  - 4.181 DB/F                                                           

    80%  - 6.869 DB/FT                                                          

    100% - 7.785 DB/FT                                                          

9.  MAXIMUM DEVIATION OVER THE LOGGED INTERVAL IS 30.8 DEG AT 5040.0 M          

     ACCORDING TO DRILLERS SURVEY                                               

10. GR PEAK ON 10 IN LINER MAIN LOG AT 4619 M WAS DUE TO LOG STOP AND CONTINUE  

#  Curve Data

~A DEPT      ATAV      ATC1      ATC2      ATC3      ATC4      ATC5      ATC6      ATMN      ATMX      CCL       DEVOD     DTMN      DTMX      GR        RBSB      SPD       TTEN     
# ...
 6058.1286    3.7081    3.7696    3.3454    4.0658    3.7704    3.8924    3.4049    3.3454    4.0658    0.0000   24.4395   54.1882   59.9529   34.3051  346.3667    8.2399 7626.0078
 6058.2048    3.6563    3.7231    3.3172    4.0055    3.7562    3.8400    3.2956    3.2956    4.0055    0.0000   24.4306   54.1882   59.9529   34.8800  346.4509    8.2440 7627.6182
 6058.2810    3.6209    3.6852    3.3163    3.9246    3.7152    3.8423    3.2419    3.2419    3.9246    1.0000   24.4274   54.1882   59.5685   35.3224  346.5147    8.2592 7626.0195
 6058.3572    3.6101    3.6428    3.3717    3.8785    3.6633    3.8972    3.2073    3.2073    3.8972    0.0000   24.4309   53.9960   60.3372   35.8069  346.5737    8.2810 7622.1699
 6058.4334    3.6306    3.5908    3.5016    3.9040    3.6182    4.0077    3.1610    3.1610    4.0077    0.0000   24.4415   54.1882   60.5293   36.4889  346.6364    8.3017 7617.1152
 6058.5096    3.6772    3.5364    3.6773    3.9807    3.5838    4.1723    3.1127    3.1127    4.1723    0.0000   24.4584   54.1882   60.3372   37.4614  346.6973    8.3115 7611.8008
 6058.5858    3.7296    3.4925    3.8323    4.0461    3.5516    4.3564    3.0988    3.0988    4.3564    0.0000   24.4790   53.9960   60.3372   38.7238  346.7469    8.3081 7607.4365
 6058.6620    3.7644    3.4623    3.8944    4.0489    3.5213    4.5221    3.1374    3.1374    4.5221    0.0000   24.4991   54.5725   59.9529   40.1629  346.7801    8.2943 7605.6250
 6058.7382    3.7709    3.4492    3.8349    3.9904    3.5016    4.6262    3.2233    3.2233    4.6262    3.0000   24.5148   53.8038   59.7607   41.5276  346.7976    8.2781 7607.3027
 6058.8144    3.7554    3.4603    3.6948    3.9309    3.5060    4.6209    3.3197    3.3197    4.6209    2.0000   24.5243   54.1882   59.7607   42.5191  346.8046    8.2658 7612.1113
 6058.8906    3.7375    3.4996    3.5542    3.9369    3.5471    4.4988    3.3884    3.3884    4.4988    0.0000   24.5282   54.1882   61.4901   42.9374  346.8067    8.2630 7618.1406
 6058.9668    3.7250    3.5648    3.4651    4.0060    3.5972    4.3025    3.4147    3.4147    4.3025    0.0000   24.5290   53.9960   60.1450   42.7042  346.8071    8.2690 7622.2588
 6059.0430    3.7120    3.6413    3.4326    4.0831    3.6145    4.0910    3.4096    3.4096    4.0910    0.0000   24.5290   53.9960   59.9529   41.7999  346.8071    8.2794 7621.8994
 6059.1192    3.6901    3.6982    3.4165    4.1210    3.5996    3.9177    3.3877    3.3877    4.1210    0.0000   24.5278   54.3803   60.3372   40.2076  346.8101    8.2881 7616.5166
 6059.1954    3.6646    3.7172    3.3868    4.1110    3.5846    3.8229    3.3651    3.3651    4.1110    0.0000   24.5220   54.1882   59.9529   38.0359  346.8249    8.2956 7607.3296
 6059.2716    3.6482    3.7013    3.3597    4.0828    3.5966    3.8067    3.3417    3.3417    4.0828    0.0000   24.5084   53.9960   60.3372   35.5232  346.8619    8.3035 7596.6304
 6059.3478    3.6492    3.6729    3.3730    4.0734    3.6429    3.8335    3.2992    3.2992    4.0734    0.0000   24.4875   53.8038   60.7215   33.0096  346.9271    8.3147 7587.5273
 6059.4240    3.6658    3.6556    3.4389    4.0846    3.6998    3.8815    3.2343    3.2343    4.0846    0.0000   24.4639   54.1882   60.1450   30.8402  347.0175    8.3286 7582.7690
 6059.5002    3.6825    3.6629    3.5285    4.0853    3.7258    3.9137    3.1787    3.1787    4.0853    0.0000   24.4441   54.1882   60.1450   29.2278  347.1203    8.3416 7583.5117
 6059.5764    3.6842    3.6800    3.5847    4.0525    3.7091    3.8989    3.1802    3.1802    4.0525    1.0000   24.4332   54.3803   60.1450   28.1492  347.2194    8.3479 7588.9160
 6059.6526    3.6676    3.6793    3.5542    3.9881    3.6693    3.8513    3.2633    3.2633    3.9881    0.0000   24.4325   54.5725   59.9529   27.4011  347.3045    8.3426 7596.3730
 6059.7288    3.6435    3.6424    3.4452    3.9344    3.6298    3.8008    3.4084    3.4084    3.9344    3.0000   24.4386   53.8038   60.1450   26.7766  347.3726    8.3243 7602.7793
 6059.8050    3.6234    3.5750    3.3126    3.9317    3.6065    3.7605    3.5543    3.3126    3.9317    0.0000   24.4466   53.9960   60.9136   26.2275  347.4240    8.2980 7606.1357
 6059.8812    3.6110    3.4965    3.2112    3.9772    3.5967    3.7382    3.6459    3.2112    3.9772    1.0000   24.4520   53.9960   60.5293   25.8982  347.4614    8.2729 7606.2300
 6059.9574    3.5966    3.4278    3.1626    4.0279    3.5825    3.7185    3.6601    3.1626    4.0279    0.0000   24.4531   54.3803   59.9529   26.0118  347.4894    8.2579 7603.9238
 6060.0336    3.5736    3.3748    3.1510    4.0514    3.5677    3.6929    3.6040    3.1510    4.0514    0.0000   24.4517   54.9568   59.9529   26.6848  347.5109    8.2546 7600.7939
 6060.1098    3.5444    3.3383    3.1404    4.0489    3.5746    3.6680    3.4963    3.1404    4.0489    0.0000   24.4497   54.7646   60.1450   27.8792  347.5296    8.2599 7598.4404
 6060.1860    3.5254    3.3159    3.1343    4.0635    3.6241    3.6622    3.3522    3.1343    4.0635    0.0000   24.4468   54.5725   59.9529   29.3693  347.5486    8.2690 7597.7822
 6060.2622    3.5240    3.3032    3.1621    4.1229    3.7248    3.6627    3.1680    3.1621    4.1229    0.0000   24.4411   54.3803   61.4901   30.8213  347.5640    8.2773 7598.8848
 6060.3384    3.5365    3.2936    3.2465    4.2180    3.8618    3.6477    2.9515    2.9515    4.2180    0.0000   24.4309   55.7254   59.7607   31.9832  347.5712    8.2825 7601.4521
 6060.4146    3.5481    3.2773    3.3745    4.3096    3.9916    3.5932    2.7425    2.7425    4.3096    0.0000   24.4172   54.7646   59.9529   32.7705  347.5732    8.2865 7605.0239
 6060.4908    3.5514    3.2454    3.5029    4.3672    4.0863    3.5048    2.6021    2.6021    4.3672    0.0000   24.3626   54.7646   59.7607   33.1856  347.5583    8.2913 7608.7129
 6060.5670    3.5525    3.2096    3.5695    4.3886    4.1509    3.4187    2.5779    2.5779    4.3886    0.0000   24.1473   55.1489   59.7607   33.2654  347.4753    8.2966 7611.1826
 6060.6432    3.5659    3.1871    3.5419    4.4104    4.2010    3.3844    2.6709    2.6709    4.4104    0.0000   23.6814   54.7646   60.3372   33.0607  347.2807    8.2993 7611.1201
 6060.7194    3.5978    3.2021    3.4339    4.4626    4.2443    3.4175    2.8264    2.8264    4.4626    0.0000   23.0314   54.5725   61.1058   32.6926  346.9957    8.2975 7607.7617
 6060.7956    3.6383    3.2689    3.2959    4.5251    4.2710    3.4923    2.9763    2.9763    4.5251    0.0000   22.4006   54.3803   60.3372   32.2586  346.7106    8.2898 7601.3428
 6060.8718    3.6644    3.3741    3.1848    4.5497    4.2622    3.5285    3.0872    3.0872    4.5497    1.0000   22.0322   54.5725   59.9529   31.8112  346.5585    8.2785 7593.5576
 6060.9480    3.6552    3.4607    3.1334    4.5024    4.2184    3.4704    3.1461    3.1334    4.5024    0.0000   22.0900   54.9568   59.5685   31.3671  346.6415    8.2674 7586.9844
 6061.0242    3.6066    3.4729    3.1351    4.3896    4.1593    3.3326    3.1498    3.1351    4.3896    2.0000   22.5679   54.7646   59.9529   30.9558  346.9495    8.2602 7584.1045
 6061.1004    3.5415    3.3896    3.1775    4.2773    4.0964    3.1987    3.1093    3.1093    4.2773    0.0000   23.2894   54.7646   59.9529   30.6088  347.3645    8.2594 7586.0776
 6061.1766    3.4954    3.2510    3.2474    4.2380    4.0392    3.1480    3.0487    3.0487    4.2380    0.0000   23.9961   54.7646   60.9136   30.3488  347.7420    8.2662 7592.2539
 6061.2528    3.4953    3.1278    3.3244    4.2866    4.0044    3.2133    3.0152    3.0152    4.2866    0.0000   24.4753   55.7254   60.7215   30.1764  347.9848    8.2806 7600.2402
 6061.3290    3.5442    3.0865    3.3906    4.3851    3.9907    3.3497    3.0625    3.0625    4.3851    0.0000   24.6668   54.9568   59.7607   30.0421  348.0790    8.3005 7607.1562
 6061.4052    3.6245    3.1432    3.4304    4.4753    3.9922    3.4914    3.2148    3.1432    4.4753    0.0000   24.6794   55.1489   60.5293   29.8771  348.0852    8.3235 7610.5146
 6061.4814    3.7119    3.2716    3.4299    4.5189    4.0054    3.5956    3.4497    3.2716    4.5189    0.0000   24.6552   53.0352   61.8744   29.6325  348.0733    8.3437 7608.9980
