~Version Information

 VERS.                2.00:   CWLS log ASCII Standard -VERSION 2.00

 WRAP.                  NO:   One line per frame      

~Well Information Block

#MNEM.UNIT                     Data                     Description

#----.----   ----------------------------------------   -------------------------------

 STRT.M                                     5560.9236 : Starting Depth

 STOP.M                                     6796.2018 : Ending Depth

 STEP.M                                        0.0762 : Level Spacing

 NULL.                                      -999.2500 : Absent Value

 COMP.       TOTAL                                    : Company

 WELL.       ABD001                                   : Well

 FLD .       ABSHERON                                 : Field

 LOC .       HEYDAR ALIYEV                            : Location

 PROV.                                                : Province

 CTRY.       AZERBAIJAN                               : Country

 SRVC.       Baker Hughes                             : Service Company

 DATE.       22-APR-2019                              : Log Date

 UWI .                                                : Unique Well ID

 LIC .                                                : License Number

~Curve Information Block

#MNEM    .UNIT        API Codes     Curve Description

#--------.--------   LG--CV-CL--M   ---------------------------------------------------

 DEPT    .M          99 995 99  1 : Depth

 ATAV    .DB/F       81 995 99  1 : Average attenuation

 ATC1    .DB/F       81 995 99  1 : Attenuation pad 1

 ATC2    .DB/F       81 995 99  1 : Attenuation pad 2

 ATC3    .DB/F       81 995 99  1 : Attenuation pad 3

 ATC4    .DB/F       81 995 99  1 : Attenuation pad 4

 ATC5    .DB/F       81 995 99  1 : Attenuation pad 5

 ATC6    .DB/F       81 995 99  1 : Attenuation pad 6

 ATMN    .DB/F       81 995 99  1 : Attenuation minimum

 ATMX    .DB/F       81 995 99  1 : Attenuation maximum

 CCL     .MV         86 150  1  1 : Casing collar locator

 DEVOD   .DEG        75 995 99  1 : Deviation

 DTMN    .US/F       99 995 99  1 : Minimal slowness

 DTMX    .US/F       99 995 99  1 : Maximal slowness

 GR      .GAPI       30 310  1  1 : Gamma ray

 RBSB    .DEG        75 631  1  1 : Relative bearing (relative to borehole low side) for SBT

 SPD     .M/MN       99 636 99  1 : Speed

 TTEN    .LBF        99 635 99  1 : Total tension

~Parameter Information Block

#MNEM.UNIT                     Value                    Description

#----.----   ----------------------------------------   -------------------------------

 HIDE.       SEGMENTED BOND TOOL^S                    : Header Identifier

 HID1.       GAMMA RAY LOG                            : Header Identifier

 HID2.       CASING COLLAR LOCATOR                    : Header Identifier

 HID3.       VARIABLE DENSITY LOG                     : Header Identifier

 HID4.       COMPENSATED Z-DENSILOG^S                 : Header Identifier

 HID5.       COMPENSATED NEUTRON LOG                  : Header Identifier

 HID6.       TTRM SUB^S                               : N/A

 HID7.       *** 7" LINER ***                         : N/A

 CMT1.       FINAL PRINT                              : Comment 1  

 CMT2.       1:200                                    : Comment 2  

 CMT3.       1:500                                    : Comment 3  

 LATI.       39DEG56'09.3"N                           : Latitude

 LONG.       50DEG52'53.8"E                           : Longitude

 OS2 .       SBT/GR/CCL/VDL                           : Other Services Line 2

 OS3 .       ZDL/CN/GR/TTRM                           : Other Services Line 3

 PDAT.       MSL                                      : Permanent Datum

 EPD .M      0                                        : Elevation Of Perm. Datum

 LMF .       DF                                       : Log Measured From

 APD .M      25.7                                     : Above Permanent Datum

 DMF .       DF                                       : Drilling Measured From

 EKB .M      25.7                                     : Elevation Of Kelly Bushing

 EDF .M      25.7                                     : Elevation Of Derrick Floor

 EGL .M      468.3                                    : Elevation Of Ground Level

 RUN .       3.1.1                                    : Run Number

 TRIP.       1                                        : Trip Number

 SON .       AZ19007                                  : Service Order Number

 TDD .M      7411                                     : Total Depth - Driller

 TLAB.       15:15 22-APR-2019                        : Time Logger At Bottom

 TLAS.       XX:XX 23-JAN-2019                        : N/A

 OPRT.       XX HOURS                                 : N/A

 DFT .       OBM                                      : Drilling Fluid Type

 DFD .LB/G   1.6                                      : Drilling Fluid Density

 BSAL.PPM    42500                                    : Borehole Salinity

 WHP .PSI    0                                        : N/A

 MHD .DEG    31.62                                    : Maximum Hole Deviation

 NLS .M/MN   9                                        : Nominal Logging Speed

 REFL.       NA                                       : N/A

 REFD.       NA                                       : N/A

 LUN .       9037                                     : Logging Unit Number

 LUL .       AZERBAIJAN                               : Logging Unit Location

 ENGI.       M.SERROUR/M.GULMAMMADOV                  : Engineer's Name

 WITN.       ADRIEN P. / KAMAL K.                     : Witness' Name

 TSTR.       SBT/GR/CCL//ZDL/CN/TTRM/                 : Title Service Mnemonic

 TSTG.       NA                                       : Title Service Mnemonic

 STUS.       FINAL                                    : Status

 LCNM.       Baker Hughes                             : Logging Company Name

 LCC .       150                                      : Logging Company Code

 OPMD.       CH.WIRE                                  : Operation Mode

 PANA.       M.SERROUR/M.GULMAMMADOV                  : Processing Analyst

 PCON.       Baker Hughes                             : Processing Contractor

 APIN.                                                : API Serial Number

~Other information

1.  LOG OBJECTIVE IS TO EVALUATE CEMENT INTEGRITY BEHIND 10" & 13.375" CASING   

2.   LOG WAS NOT CORRELATED AS PER CUSTOMER REQUEST                             

3.  TOOLSTRING RUN AS PER TOOLSKETCH:                                           

     CH/SWVL/CCL/GR/EL/KNCK/CENT/SBT/CENT/VDL/CENT                              

     WITH TWO GEMOCO CENTRALIZERS ON SBT MANDREL AS INDICATED.                  

4.  MAX CABLEHEAD THERMOMETERS READINGS ARE: 89 DEG C, 89 DEG C, 90 DEG C       

5. NORMALIZATION FACTORS FOR 10 IN LINER WERE TAKEN FROM MAIN LOG OVER          

    4900 - 4750 M INTERVAL                                                      

   NORMALIZATION FACTORS FOR 13.375 IN CASING WERE TAKEN FROM MAIN LOG OVER     

   3770 - 3635 M INTERVAL                                                       

6. MUD REPORT                                                                   

     MUD DETAILS:                                                               

     MUD TYPE: OBM                                                              

     MUD WEIGHT : 1.83 SG                                                       

7.  SBT CEMENT MAP PROCESSED USING THE FOLLOWING PARAMETERS;                    

    FOR 10" LINER:                                                              

    CASING ID:              8.624 IN                                            

    COMPR STR:           1148 PSI (AS PER CUSTOMER REQUEST)                     

    CSG WEIGHT:           68.7  LB/FT                                           

    CSG THICKNESS:     0.688 IN                                                 

    FREE PIPE ATTN:     6.480 DB/F                                              

    FOR 13.375" CASING:                                                         

    CASING ID:               12.347 IN                                          

    COMPR STR:            615 PSI (AS PER CUSTOMER REQUEST)                     

    CSG WEIGHT:           72  LB/FT                                             

    CSG THICKNESS:     0.514 IN                                                 

    FREE PIPE ATTN:     3.285 DB/F                                              

 8. ATTENUATION PARAMETERS OF CEMENT MAP:                                       

   FOR 10" LINER                                                                

    0%   -  6.480 DB/FT                                                         

    20%  - 7.389 DB/F                                                           

    80%  - 10.117 DB/FT                                                         

    100% - 10.980 DB/FT                                                         

   FOR 13.375" CASING                                                           

    0%   -  3.285 DB/FT                                                         

    20%  - 4.181 DB/F                                                           

    80%  - 6.869 DB/FT                                                          

    100% - 7.785 DB/FT                                                          

9.  MAXIMUM DEVIATION OVER THE LOGGED INTERVAL IS 30.8 DEG AT 5040.0 M          

     ACCORDING TO DRILLERS SURVEY                                               

10. GR PEAK ON 10 IN LINER MAIN LOG AT 4619 M WAS DUE TO LOG STOP AND CONTINUE  

#  Curve Data

~A DEPT      ATAV      ATC1      ATC2      ATC3      ATC4      ATC5      ATC6      ATMN      ATMX      CCL       DEVOD     DTMN      DTMX      GR        RBSB      SPD       TTEN     
# ...
 5975.8326    4.0068    3.7209    3.7806    3.9573    3.7057    3.8610    5.0154    3.7057    5.0154    0.0000   26.0018   55.7254   60.5293   34.1500  347.5843    8.2769 7458.1055
 5975.9088    3.9566    3.6782    3.6143    3.8007    3.6931    3.8691    5.0843    3.6143    5.0843    3.0000   25.9722   55.7254   60.1450   34.1189  347.4586    8.2749 7456.0791
 5975.9850    3.9210    3.6470    3.5004    3.6725    3.6859    3.8775    5.1427    3.5004    5.1427    0.0000   25.9567   56.1097   60.7215   34.0887  347.3720    8.2761 7454.3174
 5976.0612    3.9103    3.6462    3.4841    3.5981    3.6640    3.8885    5.1812    3.4841    5.1812    0.0000   25.9512   55.9176   59.9529   34.2130  347.3156    8.2808 7453.6592
 5976.1374    3.9218    3.6678    3.5565    3.5756    3.6157    3.9052    5.2099    3.5565    5.2099    0.0000   25.9504   55.9176   60.3372   34.5051  347.2790    8.2858 7454.1709
 5976.2136    3.9394    3.6768    3.6605    3.5924    3.5552    3.9081    5.2435    3.5552    5.2435   38.0000   25.9504   56.4940   60.7215   34.8223  347.2580    8.2875 7455.4863
 5976.2898    3.9433    3.6448    3.7270    3.6351    3.5132    3.8751    5.2644    3.5132    5.2644   20.0000   25.9441   55.7254   59.9529   35.0007  347.2464    8.2830 7457.1670
 5976.3660    3.9233    3.5981    3.7261    3.6942    3.4938    3.8079    5.2199    3.4938    5.2199   15.0000   25.9239   55.7254   60.1450   34.9782  347.2347    8.2748 7458.6807
 5976.4422    3.8836    3.5909    3.6848    3.7567    3.4868    3.7258    5.0565    3.4868    5.0565   15.0000   25.8853   54.9568   61.4901   34.7644  347.2157    8.2686 7459.4062
 5976.5184    3.8314    3.6374    3.6488    3.7965    3.4818    3.6628    4.7611    3.4818    4.7611    0.0000   25.8332   55.9176   60.5293   34.4024  347.1898    8.2713 7458.8325
 5976.5946    3.7755    3.7119    3.6456    3.7872    3.4719    3.6505    4.3856    3.4719    4.3856    0.0000   25.7830   56.3019   60.3372   33.9351  347.1649    8.2835 7456.7080
 5976.6708    3.7179    3.7573    3.6597    3.7185    3.4669    3.6895    4.0155    3.4669    4.0155    0.0000   25.7527   54.9568   60.1450   33.4461  347.1480    8.3010 7453.2842
 5976.7470    3.6605    3.7301    3.6615    3.6083    3.4820    3.7466    3.7346    3.4820    3.7466    5.0000   25.7536   54.1882   60.3372   33.0457  347.1399    8.3149 7449.4346
 5976.8232    3.6066    3.6329    3.6411    3.4931    3.5065    3.7794    3.5865    3.4931    3.7794    6.0000   25.7855   54.7646   60.3372   32.7801  347.1364    8.3180 7446.0576
 5976.8994    3.5714    3.5138    3.6208    3.4119    3.5236    3.7959    3.5623    3.4119    3.7959    1.0000   25.8348   53.9960   60.5293   32.5366  347.1332    8.3095 7443.7393
 5976.9756    3.5631    3.4282    3.6151    3.3709    3.5246    3.8383    3.6018    3.3709    3.8383    0.0000   25.8796   54.7646   60.5293   32.1428  347.1260    8.2971 7442.7188
 5977.0518    3.5749    3.3953    3.6266    3.3625    3.5118    3.9307    3.6225    3.3625    3.9307   11.0000   25.9001   54.1882   60.5293   31.4981  347.1103    8.2896 7442.8530
 5977.1280    3.5940    3.4016    3.6403    3.3865    3.5109    4.0623    3.5622    3.3865    4.0623   27.0000   25.8923   53.4195   60.9136   30.6106  347.0819    8.2950 7443.3467
 5977.2042    3.6099    3.4217    3.6488    3.4492    3.5444    4.1860    3.4091    3.4091    4.1860   34.0000   25.8695   53.8038   60.1450   29.6575  347.0346    8.3111 7443.5811
 5977.2804    3.6148    3.4495    3.6533    3.5457    3.6034    4.2562    3.1804    3.1804    4.2562   18.0000   25.8507   53.9960   60.3372   28.9881  346.9618    8.3292 7443.2002
 5977.3566    3.6114    3.5162    3.6570    3.6437    3.6510    4.2795    2.9209    2.9209    4.2795   36.0000   25.8465   55.5332   60.9136   28.8580  346.8609    8.3370 7442.1133
 5977.4328    3.6005    3.6309    3.6493    3.6914    3.6526    4.2837    2.6953    2.6953    4.2837   28.0000   25.8535   54.5725   59.9529   29.2932  346.7370    8.3281 7440.7480
 5977.5090    3.5865    3.7595    3.6234    3.6733    3.6053    4.2960    2.5614    2.5614    4.2960   21.0000   25.8596   54.9568   60.5293   30.0687  346.6044    8.3048 7440.0029
 5977.5852    3.5766    3.8530    3.5699    3.6138    3.5399    4.3231    2.5599    2.5599    4.3231    1.0000   25.8536   54.5725   60.9136   30.8782  346.4838    8.2779 7440.5962
 5977.6614    3.5761    3.8776    3.5063    3.5587    3.4878    4.3412    2.6851    2.6851    4.3412    0.0000   25.8308   54.3803   60.1450   31.5217  346.3904    8.2588 7442.7188
 5977.7376    3.5847    3.8361    3.4752    3.5456    3.4618    4.2985    2.8910    2.8910    4.2985   39.0000   25.7959   54.5725   60.7215   31.9464  346.3261    8.2549 7446.1421
 5977.8138    3.6012    3.7535    3.5088    3.5824    3.4546    4.1910    3.1170    3.1170    4.1910   40.0000   25.7603   55.5332   61.1058   32.1469  346.2814    8.2652 7449.9951
 5977.8900    3.6196    3.6728    3.5937    3.6268    3.4391    4.0675    3.3178    3.3178    4.0675   12.0000   25.7378   54.5725   60.3372   32.1863  346.2447    8.2825 7453.2051
 5977.9662    3.6276    3.6248    3.6862    3.6393    3.3909    3.9676    3.4569    3.3909    3.9676   28.0000   25.7382   54.3803   60.3372   32.1398  346.2083    8.2972 7454.9502
 5978.0424    3.6210    3.6201    3.7276    3.6198    3.3202    3.9075    3.5307    3.3202    3.9075   15.0000   25.7587   54.7646   60.9136   32.0610  346.1700    8.3038 7454.8828
 5978.1186    3.6156    3.6569    3.6987    3.6041    3.2514    3.8895    3.5930    3.2514    3.8895   31.0000   25.7868   54.5725   60.1450   31.8947  346.1309    8.3028 7453.2842
 5978.1948    3.6319    3.7219    3.6317    3.6353    3.1994    3.8833    3.7200    3.1994    3.8833   29.0000   25.8090   54.1882   60.7215   31.5770  346.0903    8.2989 7451.2588
 5978.2710    3.6840    3.7997    3.5739    3.7205    3.1643    3.8891    3.9563    3.1643    3.9563   19.0000   25.8148   56.1097   61.1058   31.0837  346.0396    8.2970 7450.0869
 5978.3472    3.7699    3.8744    3.5518    3.8176    3.1355    3.9320    4.3082    3.1355    4.3082    0.0000   25.8007   54.7646   60.5293   30.4656  345.9666    8.2998 7450.6807
 5978.4234    3.8662    3.9184    3.5646    3.8895    3.1111    4.0013    4.7123    3.1111    4.7123   40.0000   25.7744   55.5332   60.5293   29.7826  345.8618    8.3061 7453.0830
 5978.4996    3.9490    3.9223    3.5853    3.9399    3.1132    4.0647    5.0686    3.1132    5.0686   10.0000   25.7497   55.7254   60.9136   29.1007  345.7264    8.3117 7456.5732
 5978.5758    4.0067    3.9015    3.5912    3.9929    3.1503    4.0957    5.3089    3.1503    5.3089    9.0000   25.7378   55.7254   60.5293   28.5550  345.5742    8.3109 7460.1455
 5978.6520    4.0345    3.8874    3.5862    4.0635    3.1985    4.0609    5.4108    3.1985    5.4108   18.0000   25.7413   55.9176   60.5293   28.3744  345.4261    8.3020 7463.0576
 5978.7282    4.0359    3.8912    3.5833    4.1431    3.2329    3.9641    5.4006    3.2329    5.4006    5.0000   25.7544   55.3411   60.3372   28.7089  345.2969    8.2879 7464.9668
 5978.8044    4.0188    3.8979    3.5777    4.1869    3.2326    3.8666    5.3511    3.2326    5.3511    0.0000   25.7661   56.1097   60.3372   29.5325  345.1902    8.2742 7465.6245
 5978.8806    3.9929    3.8761    3.5607    4.1607    3.1925    3.8382    5.3295    3.1925    5.3295    0.0000   25.7694   55.9176   60.1450   30.6728  345.1012    8.2649 7464.9668
 5978.9568    3.9654    3.8040    3.5245    4.0760    3.1416    3.9005    5.3457    3.1416    5.3457    0.0000   25.7659   56.1097   60.5293   31.8963  345.0249    8.2626 7463.3506
 5979.0330    3.9413    3.6969    3.4755    3.9705    3.1114    4.0275    5.3660    3.1114    5.3660    1.0000   25.7611   55.7254   60.7215   32.9430  344.9589    8.2660 7461.7715
 5979.1092    3.9204    3.5942    3.4421    3.8831    3.1037    4.1444    5.3549    3.1037    5.3549    0.0000   25.7584   55.7254   60.1450   33.6110  344.9078    8.2733 7460.8164
 5979.1854    3.9003    3.5387    3.4424    3.8253    3.1008    4.1970    5.2979    3.1008    5.2979    4.0000   25.7581   55.7254   60.7215   33.8710  344.8794    8.2823 7460.3076
