~Version Information

 VERS.                2.00:   CWLS log ASCII Standard -VERSION 2.00

 WRAP.                  NO:   One line per frame      

~Well Information Block

#MNEM.UNIT                     Data                     Description

#----.----   ----------------------------------------   -------------------------------

 STRT.M                                     5560.9236 : Starting Depth

 STOP.M                                     6796.2018 : Ending Depth

 STEP.M                                        0.0762 : Level Spacing

 NULL.                                      -999.2500 : Absent Value

 COMP.       TOTAL                                    : Company

 WELL.       ABD001                                   : Well

 FLD .       ABSHERON                                 : Field

 LOC .       HEYDAR ALIYEV                            : Location

 PROV.                                                : Province

 CTRY.       AZERBAIJAN                               : Country

 SRVC.       Baker Hughes                             : Service Company

 DATE.       22-APR-2019                              : Log Date

 UWI .                                                : Unique Well ID

 LIC .                                                : License Number

~Curve Information Block

#MNEM    .UNIT        API Codes     Curve Description

#--------.--------   LG--CV-CL--M   ---------------------------------------------------

 DEPT    .M          99 995 99  1 : Depth

 ATAV    .DB/F       81 995 99  1 : Average attenuation

 ATC1    .DB/F       81 995 99  1 : Attenuation pad 1

 ATC2    .DB/F       81 995 99  1 : Attenuation pad 2

 ATC3    .DB/F       81 995 99  1 : Attenuation pad 3

 ATC4    .DB/F       81 995 99  1 : Attenuation pad 4

 ATC5    .DB/F       81 995 99  1 : Attenuation pad 5

 ATC6    .DB/F       81 995 99  1 : Attenuation pad 6

 ATMN    .DB/F       81 995 99  1 : Attenuation minimum

 ATMX    .DB/F       81 995 99  1 : Attenuation maximum

 CCL     .MV         86 150  1  1 : Casing collar locator

 DEVOD   .DEG        75 995 99  1 : Deviation

 DTMN    .US/F       99 995 99  1 : Minimal slowness

 DTMX    .US/F       99 995 99  1 : Maximal slowness

 GR      .GAPI       30 310  1  1 : Gamma ray

 RBSB    .DEG        75 631  1  1 : Relative bearing (relative to borehole low side) for SBT

 SPD     .M/MN       99 636 99  1 : Speed

 TTEN    .LBF        99 635 99  1 : Total tension

~Parameter Information Block

#MNEM.UNIT                     Value                    Description

#----.----   ----------------------------------------   -------------------------------

 HIDE.       SEGMENTED BOND TOOL^S                    : Header Identifier

 HID1.       GAMMA RAY LOG                            : Header Identifier

 HID2.       CASING COLLAR LOCATOR                    : Header Identifier

 HID3.       VARIABLE DENSITY LOG                     : Header Identifier

 HID4.       COMPENSATED Z-DENSILOG^S                 : Header Identifier

 HID5.       COMPENSATED NEUTRON LOG                  : Header Identifier

 HID6.       TTRM SUB^S                               : N/A

 HID7.       *** 7" LINER ***                         : N/A

 CMT1.       FINAL PRINT                              : Comment 1  

 CMT2.       1:200                                    : Comment 2  

 CMT3.       1:500                                    : Comment 3  

 LATI.       39DEG56'09.3"N                           : Latitude

 LONG.       50DEG52'53.8"E                           : Longitude

 OS2 .       SBT/GR/CCL/VDL                           : Other Services Line 2

 OS3 .       ZDL/CN/GR/TTRM                           : Other Services Line 3

 PDAT.       MSL                                      : Permanent Datum

 EPD .M      0                                        : Elevation Of Perm. Datum

 LMF .       DF                                       : Log Measured From

 APD .M      25.7                                     : Above Permanent Datum

 DMF .       DF                                       : Drilling Measured From

 EKB .M      25.7                                     : Elevation Of Kelly Bushing

 EDF .M      25.7                                     : Elevation Of Derrick Floor

 EGL .M      468.3                                    : Elevation Of Ground Level

 RUN .       3.1.1                                    : Run Number

 TRIP.       1                                        : Trip Number

 SON .       AZ19007                                  : Service Order Number

 TDD .M      7411                                     : Total Depth - Driller

 TLAB.       15:15 22-APR-2019                        : Time Logger At Bottom

 TLAS.       XX:XX 23-JAN-2019                        : N/A

 OPRT.       XX HOURS                                 : N/A

 DFT .       OBM                                      : Drilling Fluid Type

 DFD .LB/G   1.6                                      : Drilling Fluid Density

 BSAL.PPM    42500                                    : Borehole Salinity

 WHP .PSI    0                                        : N/A

 MHD .DEG    31.62                                    : Maximum Hole Deviation

 NLS .M/MN   9                                        : Nominal Logging Speed

 REFL.       NA                                       : N/A

 REFD.       NA                                       : N/A

 LUN .       9037                                     : Logging Unit Number

 LUL .       AZERBAIJAN                               : Logging Unit Location

 ENGI.       M.SERROUR/M.GULMAMMADOV                  : Engineer's Name

 WITN.       ADRIEN P. / KAMAL K.                     : Witness' Name

 TSTR.       SBT/GR/CCL//ZDL/CN/TTRM/                 : Title Service Mnemonic

 TSTG.       NA                                       : Title Service Mnemonic

 STUS.       FINAL                                    : Status

 LCNM.       Baker Hughes                             : Logging Company Name

 LCC .       150                                      : Logging Company Code

 OPMD.       CH.WIRE                                  : Operation Mode

 PANA.       M.SERROUR/M.GULMAMMADOV                  : Processing Analyst

 PCON.       Baker Hughes                             : Processing Contractor

 APIN.                                                : API Serial Number

~Other information

1.  LOG OBJECTIVE IS TO EVALUATE CEMENT INTEGRITY BEHIND 10" & 13.375" CASING   

2.   LOG WAS NOT CORRELATED AS PER CUSTOMER REQUEST                             

3.  TOOLSTRING RUN AS PER TOOLSKETCH:                                           

     CH/SWVL/CCL/GR/EL/KNCK/CENT/SBT/CENT/VDL/CENT                              

     WITH TWO GEMOCO CENTRALIZERS ON SBT MANDREL AS INDICATED.                  

4.  MAX CABLEHEAD THERMOMETERS READINGS ARE: 89 DEG C, 89 DEG C, 90 DEG C       

5. NORMALIZATION FACTORS FOR 10 IN LINER WERE TAKEN FROM MAIN LOG OVER          

    4900 - 4750 M INTERVAL                                                      

   NORMALIZATION FACTORS FOR 13.375 IN CASING WERE TAKEN FROM MAIN LOG OVER     

   3770 - 3635 M INTERVAL                                                       

6. MUD REPORT                                                                   

     MUD DETAILS:                                                               

     MUD TYPE: OBM                                                              

     MUD WEIGHT : 1.83 SG                                                       

7.  SBT CEMENT MAP PROCESSED USING THE FOLLOWING PARAMETERS;                    

    FOR 10" LINER:                                                              

    CASING ID:              8.624 IN                                            

    COMPR STR:           1148 PSI (AS PER CUSTOMER REQUEST)                     

    CSG WEIGHT:           68.7  LB/FT                                           

    CSG THICKNESS:     0.688 IN                                                 

    FREE PIPE ATTN:     6.480 DB/F                                              

    FOR 13.375" CASING:                                                         

    CASING ID:               12.347 IN                                          

    COMPR STR:            615 PSI (AS PER CUSTOMER REQUEST)                     

    CSG WEIGHT:           72  LB/FT                                             

    CSG THICKNESS:     0.514 IN                                                 

    FREE PIPE ATTN:     3.285 DB/F                                              

 8. ATTENUATION PARAMETERS OF CEMENT MAP:                                       

   FOR 10" LINER                                                                

    0%   -  6.480 DB/FT                                                         

    20%  - 7.389 DB/F                                                           

    80%  - 10.117 DB/FT                                                         

    100% - 10.980 DB/FT                                                         

   FOR 13.375" CASING                                                           

    0%   -  3.285 DB/FT                                                         

    20%  - 4.181 DB/F                                                           

    80%  - 6.869 DB/FT                                                          

    100% - 7.785 DB/FT                                                          

9.  MAXIMUM DEVIATION OVER THE LOGGED INTERVAL IS 30.8 DEG AT 5040.0 M          

     ACCORDING TO DRILLERS SURVEY                                               

10. GR PEAK ON 10 IN LINER MAIN LOG AT 4619 M WAS DUE TO LOG STOP AND CONTINUE  

#  Curve Data

~A DEPT      ATAV      ATC1      ATC2      ATC3      ATC4      ATC5      ATC6      ATMN      ATMX      CCL       DEVOD     DTMN      DTMX      GR        RBSB      SPD       TTEN     
# ...
 5893.5366    3.8497    3.4850    3.9691    3.9296    3.7353    4.0669    3.9121    3.4850    4.0669    0.0000   28.4488   54.5725   60.1450   20.0692  353.1071    7.5989 7308.3291
 5893.6128    3.8837    3.5187    4.0241    3.9182    3.7325    4.1167    3.9921    3.5187    4.1167    0.0000   28.3975   54.7646   59.5685   20.0796  352.9595    7.5983 7303.3838
 5893.6890    3.8897    3.5413    4.0158    3.8547    3.6975    4.1325    4.0965    3.5413    4.1325    0.0000   28.3601   54.5725   61.2979   20.0276  352.7969    7.6032 7304.7021
 5893.7652    3.8689    3.5413    3.9253    3.7639    3.6596    4.1162    4.2069    3.5413    4.2069    2.0000   28.3415   54.3803   60.7215   19.8708  352.6408    7.6091 7312.2588
 5893.8414    3.8389    3.5243    3.7944    3.6923    3.6459    4.0757    4.3007    3.5243    4.3007    3.0000   28.3390   54.7646   60.7215   19.6311  352.5091    7.6119 7323.6855
 5893.9176    3.8192    3.5038    3.6894    3.6679    3.6726    4.0253    4.3559    3.5038    4.3559    3.0000   28.3443   55.9176   60.9136   19.3520  352.4093    7.6102 7335.3403
 5893.9938    3.8157    3.4957    3.6536    3.6713    3.7360    3.9770    4.3605    3.4957    4.3605    0.0000   28.3498   55.3411   60.3372   19.1369  352.3391    7.6067 7343.7358
 5894.0700    3.8231    3.5037    3.6951    3.6747    3.8192    3.9312    4.3150    3.5037    4.3150    0.0000   28.3539   55.1489   59.3764   19.1624  352.2885    7.6046 7346.9404
 5894.1462    3.8285    3.5094    3.7671    3.6670    3.9108    3.8820    4.2346    3.5094    4.2346   27.0000   28.3576   55.1489   59.9529   19.5356  352.2413    7.6048 7345.5059
 5894.2224    3.8216    3.4988    3.8144    3.6564    3.9932    3.8247    4.1422    3.4988    4.1422    2.0000   28.3621   54.9568   60.3372   20.2433  352.1855    7.6056 7341.5020
 5894.2986    3.8036    3.4773    3.8253    3.6672    4.0381    3.7532    4.0605    3.4773    4.0605    3.0000   28.3680   55.7254   61.4901   21.0878  352.1138    7.6054 7337.0732
 5894.3748    3.7805    3.4502    3.8130    3.7000    4.0311    3.6820    4.0066    3.4502    4.0311    2.0000   28.3753   56.3019   60.7215   21.8053  352.0246    7.6038 7333.5029
 5894.4510    3.7579    3.4227    3.7933    3.7243    3.9697    3.6445    3.9928    3.4227    3.9928    0.0000   28.3838   55.3411   59.9529   22.1532  351.9222    7.6016 7331.3633
 5894.5272    3.7400    3.3939    3.7923    3.7183    3.8687    3.6560    4.0107    3.3939    4.0107   13.0000   28.3926   54.9568   59.9529   22.0095  351.8174    7.6012 7330.7725
 5894.6034    3.7294    3.3613    3.8207    3.6867    3.7760    3.7008    4.0312    3.3613    4.0312    0.0000   28.4008   54.5725   59.7607   21.4290  351.7215    7.6023 7331.3682
 5894.6796    3.7272    3.3288    3.8650    3.6606    3.7373    3.7451    4.0263    3.3288    4.0263    4.0000   28.4070   54.5725   60.7215   20.6697  351.6396    7.6045 7332.1572
 5894.7558    3.7286    3.3046    3.9038    3.6732    3.7657    3.7416    3.9826    3.3046    3.9826    0.0000   28.4089   54.5725   60.1450   20.0777  351.5685    7.6068 7332.0137
 5894.8320    3.7243    3.2928    3.9042    3.7232    3.8382    3.6788    3.9089    3.2928    3.9089    0.0000   28.4050   55.3411   61.1058   19.8952  351.5026    7.6074 7330.1719
 5894.9082    3.7034    3.2939    3.8294    3.7747    3.9096    3.5811    3.8318    3.2939    3.9096    0.0000   28.3966   55.1489   60.3372   20.1249  351.4422    7.6066 7326.4355
 5894.9844    3.6646    3.3031    3.6850    3.8023    3.9468    3.4799    3.7708    3.3031    3.9468    0.0000   28.3863   54.9568   59.3764   20.5582  351.3934    7.6074 7321.4316
 5895.0606    3.6197    3.3061    3.5043    3.8150    3.9583    3.4058    3.7289    3.3061    3.9583    7.0000   28.3764   54.9568   61.1058   20.8539  351.3591    7.6123 7316.7871
 5895.1368    3.5819    3.2867    3.3300    3.8383    3.9662    3.3897    3.6803    3.2867    3.9662    0.0000   28.3691   54.7646   60.5293   20.7977  351.3332    7.6206 7314.5283
 5895.2130    3.5545    3.2537    3.2152    3.8912    3.9670    3.4235    3.5766    3.2152    3.9670    0.0000   28.3670   55.1489   61.1058   20.4265  351.3001    7.6296 7315.9951
 5895.2892    3.5351    3.2275    3.1942    3.9568    3.9415    3.4812    3.4092    3.1942    3.9568    0.0000   28.3712   55.7254   61.2979   19.9419  351.2441    7.6363 7320.9990
 5895.3654    3.5178    3.2248    3.2480    3.9870    3.8682    3.5514    3.2277    3.2248    3.9870    0.0000   28.3798   54.7646   60.1450   19.5872  351.1576    7.6390 7327.9131
 5895.4416    3.5014    3.2391    3.3300    3.9579    3.7442    3.6285    3.1084    3.1084    3.9579    0.0000   28.3901   56.1097   59.1842   19.5711  351.0457    7.6378 7334.5654
 5895.5178    3.4926    3.2459    3.3897    3.8918    3.6108    3.7084    3.1091    3.1091    3.8918   10.0000   28.4003   54.5725   60.5293   19.9449  350.9265    7.6356 7339.0732
 5895.5940    3.5070    3.2318    3.4002    3.8357    3.5237    3.8024    3.2484    3.2318    3.8357    0.0000   28.4099   53.8038   60.7215   20.6109  350.8235    7.6332 7340.3076
 5895.6702    3.5541    3.2054    3.3797    3.8496    3.5126    3.8932    3.4843    3.2054    3.8932    3.0000   28.4175   53.6117   61.1058   21.4127  350.7526    7.6306 7338.4312
 5895.7464    3.6327    3.1812    3.3692    3.9582    3.5771    3.9659    3.7448    3.1812    3.9659    9.0000   28.4204   53.9960   61.6823   22.1277  350.7138    7.6256 7334.7070
 5895.8226    3.7259    3.1740    3.3840    4.1159    3.6792    4.0324    3.9698    3.1740    4.1159    0.0000   28.4168   53.4195   61.1058   22.5807  350.6972    7.6171 7330.6406
 5895.8988    3.8101    3.1869    3.4232    4.2636    3.7680    4.1002    4.1186    3.1869    4.2636    0.0000   28.4078   53.6117   61.2979   22.6937  350.6912    7.6068 7327.4482
 5895.9750    3.8678    3.2125    3.4661    4.3718    3.8204    4.1568    4.1793    3.2125    4.3718    0.0000   28.3952   53.6117   61.1058   22.4759  350.6871    7.5998 7325.8203
 5896.0512    3.8976    3.2360    3.4899    4.4445    3.8459    4.1930    4.1762    3.2360    4.4445    0.0000   28.3810   53.6117   60.7215   22.0545  350.6824    7.6009 7325.6562
 5896.1274    3.9046    3.2472    3.4970    4.5063    3.8581    4.1943    4.1244    3.2472    4.5063    0.0000   28.3676   53.6117   61.1058   21.6332  350.6780    7.6113 7326.6943
 5896.2036    3.8925    3.2360    3.5017    4.5612    3.8639    4.1579    4.0343    3.2360    4.5612    0.0000   28.3580   53.9960   61.1058   21.3690  350.6779    7.6266 7328.9629
 5896.2798    3.8610    3.1988    3.4952    4.5686    3.8572    4.1038    3.9425    3.1988    4.5686    0.0000   28.3525   53.4195   61.1058   21.2765  350.6917    7.6394 7332.1729
 5896.3560    3.8089    3.1354    3.4685    4.4912    3.8236    4.0522    3.8825    3.1354    4.4912    0.0000   28.3485   53.8038   60.7215   21.2523  350.7240    7.6420 7335.3027
 5896.4322    3.7434    3.0448    3.4155    4.3442    3.7786    4.0126    3.8646    3.0448    4.3442    0.0000   28.3446   53.6117   60.9136   21.1759  350.7653    7.6328 7336.9512
 5896.5084    3.6825    2.9333    3.3476    4.1795    3.7510    3.9967    3.8871    2.9333    4.1795    0.0000   28.3418   53.8038   60.5293   20.9871  350.7957    7.6176 7335.9160
 5896.5846    3.6430    2.8267    3.3046    4.0585    3.7420    3.9913    3.9351    2.8267    4.0585    1.0000   28.3419   53.6117   60.7215   20.7330  350.7945    7.6050 7331.8496
 5896.6608    3.6321    2.7536    3.3282    4.0244    3.7273    3.9809    3.9784    2.7536    4.0244    1.0000   28.3459   54.1882   61.2979   20.4864  350.7515    7.6028 7325.6758
 5896.7370    3.6431    2.7350    3.4184    4.0570    3.6712    3.9674    4.0094    2.7350    4.0570    0.0000   28.3534   53.4195   61.1058   20.3355  350.6734    7.6127 7319.0430
 5896.8132    3.6565    2.7654    3.5419    4.0981    3.5550    3.9494    4.0290    2.7654    4.0981    3.0000   28.3622   53.6117   60.7215   20.2962  350.5816    7.6285 7313.4805
 5896.8894    3.6490    2.8184    3.6393    4.1003    3.4001    3.9108    4.0246    2.8184    4.1003    1.0000   28.3700   53.4195   60.9136   20.2758  350.5009    7.6409 7309.9775
