~Version Information

 VERS.                2.00:   CWLS log ASCII Standard -VERSION 2.00

 WRAP.                  NO:   One line per frame      

~Well Information Block

#MNEM.UNIT                     Data                     Description

#----.----   ----------------------------------------   -------------------------------

 STRT.M                                     5560.9236 : Starting Depth

 STOP.M                                     6796.2018 : Ending Depth

 STEP.M                                        0.0762 : Level Spacing

 NULL.                                      -999.2500 : Absent Value

 COMP.       TOTAL                                    : Company

 WELL.       ABD001                                   : Well

 FLD .       ABSHERON                                 : Field

 LOC .       HEYDAR ALIYEV                            : Location

 PROV.                                                : Province

 CTRY.       AZERBAIJAN                               : Country

 SRVC.       Baker Hughes                             : Service Company

 DATE.       22-APR-2019                              : Log Date

 UWI .                                                : Unique Well ID

 LIC .                                                : License Number

~Curve Information Block

#MNEM    .UNIT        API Codes     Curve Description

#--------.--------   LG--CV-CL--M   ---------------------------------------------------

 DEPT    .M          99 995 99  1 : Depth

 ATAV    .DB/F       81 995 99  1 : Average attenuation

 ATC1    .DB/F       81 995 99  1 : Attenuation pad 1

 ATC2    .DB/F       81 995 99  1 : Attenuation pad 2

 ATC3    .DB/F       81 995 99  1 : Attenuation pad 3

 ATC4    .DB/F       81 995 99  1 : Attenuation pad 4

 ATC5    .DB/F       81 995 99  1 : Attenuation pad 5

 ATC6    .DB/F       81 995 99  1 : Attenuation pad 6

 ATMN    .DB/F       81 995 99  1 : Attenuation minimum

 ATMX    .DB/F       81 995 99  1 : Attenuation maximum

 CCL     .MV         86 150  1  1 : Casing collar locator

 DEVOD   .DEG        75 995 99  1 : Deviation

 DTMN    .US/F       99 995 99  1 : Minimal slowness

 DTMX    .US/F       99 995 99  1 : Maximal slowness

 GR      .GAPI       30 310  1  1 : Gamma ray

 RBSB    .DEG        75 631  1  1 : Relative bearing (relative to borehole low side) for SBT

 SPD     .M/MN       99 636 99  1 : Speed

 TTEN    .LBF        99 635 99  1 : Total tension

~Parameter Information Block

#MNEM.UNIT                     Value                    Description

#----.----   ----------------------------------------   -------------------------------

 HIDE.       SEGMENTED BOND TOOL^S                    : Header Identifier

 HID1.       GAMMA RAY LOG                            : Header Identifier

 HID2.       CASING COLLAR LOCATOR                    : Header Identifier

 HID3.       VARIABLE DENSITY LOG                     : Header Identifier

 HID4.       COMPENSATED Z-DENSILOG^S                 : Header Identifier

 HID5.       COMPENSATED NEUTRON LOG                  : Header Identifier

 HID6.       TTRM SUB^S                               : N/A

 HID7.       *** 7" LINER ***                         : N/A

 CMT1.       FINAL PRINT                              : Comment 1  

 CMT2.       1:200                                    : Comment 2  

 CMT3.       1:500                                    : Comment 3  

 LATI.       39DEG56'09.3"N                           : Latitude

 LONG.       50DEG52'53.8"E                           : Longitude

 OS2 .       SBT/GR/CCL/VDL                           : Other Services Line 2

 OS3 .       ZDL/CN/GR/TTRM                           : Other Services Line 3

 PDAT.       MSL                                      : Permanent Datum

 EPD .M      0                                        : Elevation Of Perm. Datum

 LMF .       DF                                       : Log Measured From

 APD .M      25.7                                     : Above Permanent Datum

 DMF .       DF                                       : Drilling Measured From

 EKB .M      25.7                                     : Elevation Of Kelly Bushing

 EDF .M      25.7                                     : Elevation Of Derrick Floor

 EGL .M      468.3                                    : Elevation Of Ground Level

 RUN .       3.1.1                                    : Run Number

 TRIP.       1                                        : Trip Number

 SON .       AZ19007                                  : Service Order Number

 TDD .M      7411                                     : Total Depth - Driller

 TLAB.       15:15 22-APR-2019                        : Time Logger At Bottom

 TLAS.       XX:XX 23-JAN-2019                        : N/A

 OPRT.       XX HOURS                                 : N/A

 DFT .       OBM                                      : Drilling Fluid Type

 DFD .LB/G   1.6                                      : Drilling Fluid Density

 BSAL.PPM    42500                                    : Borehole Salinity

 WHP .PSI    0                                        : N/A

 MHD .DEG    31.62                                    : Maximum Hole Deviation

 NLS .M/MN   9                                        : Nominal Logging Speed

 REFL.       NA                                       : N/A

 REFD.       NA                                       : N/A

 LUN .       9037                                     : Logging Unit Number

 LUL .       AZERBAIJAN                               : Logging Unit Location

 ENGI.       M.SERROUR/M.GULMAMMADOV                  : Engineer's Name

 WITN.       ADRIEN P. / KAMAL K.                     : Witness' Name

 TSTR.       SBT/GR/CCL//ZDL/CN/TTRM/                 : Title Service Mnemonic

 TSTG.       NA                                       : Title Service Mnemonic

 STUS.       FINAL                                    : Status

 LCNM.       Baker Hughes                             : Logging Company Name

 LCC .       150                                      : Logging Company Code

 OPMD.       CH.WIRE                                  : Operation Mode

 PANA.       M.SERROUR/M.GULMAMMADOV                  : Processing Analyst

 PCON.       Baker Hughes                             : Processing Contractor

 APIN.                                                : API Serial Number

~Other information

1.  LOG OBJECTIVE IS TO EVALUATE CEMENT INTEGRITY BEHIND 10" & 13.375" CASING   

2.   LOG WAS NOT CORRELATED AS PER CUSTOMER REQUEST                             

3.  TOOLSTRING RUN AS PER TOOLSKETCH:                                           

     CH/SWVL/CCL/GR/EL/KNCK/CENT/SBT/CENT/VDL/CENT                              

     WITH TWO GEMOCO CENTRALIZERS ON SBT MANDREL AS INDICATED.                  

4.  MAX CABLEHEAD THERMOMETERS READINGS ARE: 89 DEG C, 89 DEG C, 90 DEG C       

5. NORMALIZATION FACTORS FOR 10 IN LINER WERE TAKEN FROM MAIN LOG OVER          

    4900 - 4750 M INTERVAL                                                      

   NORMALIZATION FACTORS FOR 13.375 IN CASING WERE TAKEN FROM MAIN LOG OVER     

   3770 - 3635 M INTERVAL                                                       

6. MUD REPORT                                                                   

     MUD DETAILS:                                                               

     MUD TYPE: OBM                                                              

     MUD WEIGHT : 1.83 SG                                                       

7.  SBT CEMENT MAP PROCESSED USING THE FOLLOWING PARAMETERS;                    

    FOR 10" LINER:                                                              

    CASING ID:              8.624 IN                                            

    COMPR STR:           1148 PSI (AS PER CUSTOMER REQUEST)                     

    CSG WEIGHT:           68.7  LB/FT                                           

    CSG THICKNESS:     0.688 IN                                                 

    FREE PIPE ATTN:     6.480 DB/F                                              

    FOR 13.375" CASING:                                                         

    CASING ID:               12.347 IN                                          

    COMPR STR:            615 PSI (AS PER CUSTOMER REQUEST)                     

    CSG WEIGHT:           72  LB/FT                                             

    CSG THICKNESS:     0.514 IN                                                 

    FREE PIPE ATTN:     3.285 DB/F                                              

 8. ATTENUATION PARAMETERS OF CEMENT MAP:                                       

   FOR 10" LINER                                                                

    0%   -  6.480 DB/FT                                                         

    20%  - 7.389 DB/F                                                           

    80%  - 10.117 DB/FT                                                         

    100% - 10.980 DB/FT                                                         

   FOR 13.375" CASING                                                           

    0%   -  3.285 DB/FT                                                         

    20%  - 4.181 DB/F                                                           

    80%  - 6.869 DB/FT                                                          

    100% - 7.785 DB/FT                                                          

9.  MAXIMUM DEVIATION OVER THE LOGGED INTERVAL IS 30.8 DEG AT 5040.0 M          

     ACCORDING TO DRILLERS SURVEY                                               

10. GR PEAK ON 10 IN LINER MAIN LOG AT 4619 M WAS DUE TO LOG STOP AND CONTINUE  

#  Curve Data

~A DEPT      ATAV      ATC1      ATC2      ATC3      ATC4      ATC5      ATC6      ATMN      ATMX      CCL       DEVOD     DTMN      DTMX      GR        RBSB      SPD       TTEN     
# ...
 6136.9956    4.1661    4.7662    2.8438    4.7899    3.3195    3.6845    5.5925    2.8438    5.5925    0.0000   23.8644   55.1489   59.9529   33.9626  359.2096    8.1454 7705.3135
 6137.0718    4.0961    4.6705    2.7153    4.5940    3.1892    3.8126    5.5951    2.7153    5.5951    0.0000   23.8171   54.9568   61.1058   34.3985  359.2068    8.1411 7699.3535
 6137.1480    4.0236    4.5608    2.5715    4.4480    3.0942    3.9102    5.5571    2.5715    5.5571    0.0000   23.7898   55.5332   60.3372   34.4424  359.2051    8.1255 7693.5078
 6137.2242    3.9746    4.4730    2.4762    4.3992    3.0637    3.9545    5.4810    2.4762    5.4810    0.0000   23.7857   55.7254   61.2979   34.0266  359.2049    8.1011 7690.0176
 6137.3004    3.9623    4.4168    2.4639    4.4417    3.1054    3.9632    5.3824    2.4639    5.3824    1.0000   23.8016   55.9176   61.2979   33.2163  359.2058    8.0724 7690.3271
 6137.3766    3.9822    4.3780    2.5201    4.5392    3.1999    3.9675    5.2885    2.5201    5.2885    0.0000   23.8277   55.1489   60.3372   32.1972  359.2074    8.0459 7694.8555
 6137.4528    4.0125    4.3226    2.5812    4.6457    3.3168    3.9903    5.2186    2.5812    5.2186    0.0000   23.8555   55.1489   60.1450   31.2226  359.2090    8.0265 7702.4087
 6137.5290    4.0390    4.2349    2.5966    4.7553    3.4396    4.0324    5.1749    2.5966    5.1749    0.0000   23.8800   54.9568   61.4901   30.4623  359.2105    8.0170 7710.6455
 6137.6052    4.0576    4.1280    2.5641    4.8867    3.5423    4.0742    5.1505    2.5641    5.1505    0.0000   23.8998   55.3411   60.7215   29.9978  359.2116    8.0160 7716.7354
 6137.6814    4.0765    4.0452    2.5319    5.0489    3.6050    4.0935    5.1346    2.5319    5.1346    6.0000   23.9175   56.1097   61.4901   29.7696  359.2127    8.0197 7718.6445
 6137.7576    4.1027    4.0096    2.5472    5.2110    3.6188    4.1022    5.1271    2.5472    5.2110    1.0000   23.9374   55.7254   60.7215   29.6165  359.2139    8.0247 7716.1250
 6137.8338    4.1396    4.0166    2.6243    5.3277    3.5913    4.1345    5.1432    2.6243    5.3277    0.0000   23.9619   54.5725   59.1842   29.3435  359.2153    8.0295 7710.9482
 6137.9100    4.1772    4.0288    2.7306    5.3757    3.5458    4.2006    5.1816    2.7306    5.3757    0.0000   23.9881   55.5332   59.9529   28.9050  359.2169    8.0356 7706.0088
 6137.9862    4.2072    4.0157    2.8218    5.3753    3.5371    4.2783    5.2151    2.8218    5.3753    0.0000   24.0062   54.9568   60.7215   28.3900  359.2179    8.0449 7703.9834
 6138.0624    4.2274    3.9827    2.8845    5.3670    3.5857    4.3327    5.2120    2.8845    5.3670    0.0000   24.0046   55.1489   60.1450   27.9602  359.2178    8.0571 7706.0059
 6138.1386    4.2456    3.9797    2.9517    5.3826    3.6746    4.3277    5.1571    2.9517    5.3826    0.0000   23.9784   54.9568   60.9136   27.7461  359.2163    8.0684 7711.2617
 6138.2148    4.2707    4.0514    3.0516    5.4018    3.7702    4.2741    5.0749    3.0516    5.4018    0.0000   23.9356   55.9176   61.4901   27.8151  359.2138    8.0717 7717.5840
 6138.2910    4.3087    4.2130    3.1907    5.3815    3.8295    4.2133    5.0242    3.1907    5.3815    0.0000   23.8930   55.1489   60.7215   28.1261  359.2112    8.0621 7722.4414
 6138.3672    4.3516    4.4275    3.3407    5.2921    3.8248    4.1784    5.0461    3.3407    5.2921    0.0000   23.8676   55.3411   59.5685   28.6087  359.2097    8.0414 7723.6143
 6138.4434    4.3872    4.6383    3.4579    5.1399    3.7699    4.1818    5.1356    3.4579    5.1399    0.0000   23.8717   54.9568   61.1058   29.1444  359.2100    8.0188 7720.1885
 6138.5196    4.4052    4.8060    3.5215    4.9593    3.6793    4.2082    5.2572    3.5215    5.2572    0.0000   23.9077   54.9568   60.5293   29.5492  359.2121    8.0049 7713.0615
 6138.5958    4.4031    4.9288    3.5444    4.7940    3.5784    4.2164    5.3564    3.5444    5.3564    0.0000   23.9674   55.7254   61.8744   29.6418  359.2156    8.0076 7704.2363
 6138.6720    4.3869    5.0094    3.5414    4.6645    3.5080    4.1992    5.3991    3.5080    5.3991    0.0000   24.0349   55.3411   61.2979   29.3724  359.2213    8.0273 7696.0098
 6138.7482    4.3637    5.0500    3.5046    4.5550    3.4929    4.1837    5.3959    3.4929    5.3959    0.0000   24.0944   55.7254   60.9136   28.8276  359.2337    8.0582 7689.9355
 6138.8244    4.3379    5.0442    3.4220    4.4619    3.5286    4.1982    5.3726    3.4220    5.3726    0.0000   24.1370   55.3411   59.7607   28.1991  359.2615    8.0895 7686.9590
 6138.9006    4.3156    4.9913    3.2864    4.4105    3.6031    4.2575    5.3451    3.2864    5.3451    0.0000   24.1616   55.7254   61.2979   27.6880  359.3183    8.1125 7687.3857
 6138.9768    4.3072    4.9116    3.1264    4.4322    3.6892    4.3616    5.3220    3.1264    5.3220    0.0000   24.1713   55.1489   60.5293   27.4149  359.4131    8.1228 7690.8936
 6139.0530    4.3169    4.8441    2.9946    4.5405    3.7486    4.4734    5.2999    2.9946    5.2999    1.0000   24.1701   55.3411   60.7215   27.3559  359.5440    8.1233 7696.1289
 6139.1292    4.3377    4.7968    2.9235    4.7014    3.7565    4.5673    5.2805    2.9235    5.2805    0.0000   24.1604   55.9176   61.4901   27.4114  359.6955    8.1188 7701.2993
 6139.2054    4.3560    4.7582    2.9102    4.8455    3.7105    4.6320    5.2794    2.9102    5.2794    0.0000   24.1462   55.7254   61.1058   27.4753  359.8442    8.1146 7704.5586
 6139.2816    4.3593    4.7027    2.9378    4.9249    3.6239    4.6568    5.3096    2.9378    5.3096    0.0000   24.1323   55.3411   60.1450   27.5258  359.9670    8.1124 7704.7900
 6139.3578    4.3447    4.6137    2.9771    4.9386    3.5386    4.6449    5.3553    2.9771    5.3553    0.0000   24.1236   55.5332   61.4901   27.6154    0.0509    8.1122 7702.1035
 6139.4340    4.3159    4.4942    3.0094    4.9102    3.4771    4.6192    5.3853    3.0094    5.3853    0.0000   24.1234   55.7254   60.3372   27.8307    0.0912    8.1111 7698.0352
 6139.5102    4.2846    4.3874    3.0341    4.8716    3.4463    4.5983    5.3698    3.0341    5.3698    3.0000   24.1317   56.1097   61.2979   28.0788    0.0825    8.1062 7694.9844
 6139.5864    4.2625    4.3359    3.0550    4.8343    3.4435    4.5967    5.3096    3.0550    5.3096    2.0000   24.1451   55.9176   61.4901   28.1812    0.0208    8.0954 7695.2969
 6139.6626    4.2622    4.3618    3.0751    4.7934    3.4689    4.6232    5.2507    3.0751    5.2507    0.0000   24.1589   54.9568   59.9529   28.0433  359.9083    8.0809 7699.9512
 6139.7388    4.2849    4.4493    3.1020    4.7509    3.5109    4.6583    5.2379    3.1020    5.2379    0.0000   24.1691   55.3411   59.9529   27.7120  359.7567    8.0673 7708.2646
 6139.8150    4.3246    4.5696    3.1393    4.7348    3.5576    4.6661    5.2805    3.1393    5.2805    0.0000   24.1745   55.5332   60.7215   27.2963  359.5897    8.0587 7718.3242
 6139.8912    4.3687    4.6888    3.1932    4.7591    3.5796    4.6313    5.3600    3.1932    5.3600    0.0000   24.1767   55.1489   60.5293   26.9681  359.4380    8.0559 7727.4092
 6139.9674    4.4100    4.8031    3.2767    4.8127    3.5634    4.5636    5.4406    3.2767    5.4406    3.0000   24.1779   56.1097   61.6823   26.8294  359.3252    8.0556 7732.8115
 6140.0436    4.4369    4.9138    3.3705    4.8334    3.5013    4.5038    5.4985    3.3705    5.4985    3.0000   24.1786   56.3019   60.7215   26.9478  359.2598    8.0539 7732.9575
 6140.1198    4.4398    5.0185    3.4341    4.7462    3.3982    4.4994    5.5426    3.3982    5.5426    0.0000   24.1789   55.3411   59.5685   27.3445  359.2332    8.0487 7728.1494
 6140.1960    4.4082    5.0984    3.4329    4.5228    3.2697    4.5424    5.5833    3.2697    5.5833    0.0000   24.1790   55.1489   60.1450   27.9757  359.2280    8.0395 7720.2949
 6140.2722    4.3521    5.1540    3.3651    4.2291    3.1626    4.5802    5.6215    3.1626    5.6215    0.0000   24.1790   55.1489   60.9136   28.6703  359.2280    8.0283 7712.2939
 6140.3484    4.2988    5.2161    3.2715    3.9675    3.0995    4.5648    5.6734    3.0995    5.6734    0.0000   24.1790   54.9568   60.5293   29.2851  359.2262    8.0175 7706.7461
