~Version Information

 VERS.                2.00:   CWLS log ASCII Standard -VERSION 2.00

 WRAP.                  NO:   One line per frame      

~Well Information Block

#MNEM.UNIT                     Data                     Description

#----.----   ----------------------------------------   -------------------------------

 STRT.M                                     5560.9236 : Starting Depth

 STOP.M                                     6796.2018 : Ending Depth

 STEP.M                                        0.0762 : Level Spacing

 NULL.                                      -999.2500 : Absent Value

 COMP.       TOTAL                                    : Company

 WELL.       ABD001                                   : Well

 FLD .       ABSHERON                                 : Field

 LOC .       HEYDAR ALIYEV                            : Location

 PROV.                                                : Province

 CTRY.       AZERBAIJAN                               : Country

 SRVC.       Baker Hughes                             : Service Company

 DATE.       22-APR-2019                              : Log Date

 UWI .                                                : Unique Well ID

 LIC .                                                : License Number

~Curve Information Block

#MNEM    .UNIT        API Codes     Curve Description

#--------.--------   LG--CV-CL--M   ---------------------------------------------------

 DEPT    .M          99 995 99  1 : Depth

 ATAV    .DB/F       81 995 99  1 : Average attenuation

 ATC1    .DB/F       81 995 99  1 : Attenuation pad 1

 ATC2    .DB/F       81 995 99  1 : Attenuation pad 2

 ATC3    .DB/F       81 995 99  1 : Attenuation pad 3

 ATC4    .DB/F       81 995 99  1 : Attenuation pad 4

 ATC5    .DB/F       81 995 99  1 : Attenuation pad 5

 ATC6    .DB/F       81 995 99  1 : Attenuation pad 6

 ATMN    .DB/F       81 995 99  1 : Attenuation minimum

 ATMX    .DB/F       81 995 99  1 : Attenuation maximum

 CCL     .MV         86 150  1  1 : Casing collar locator

 DEVOD   .DEG        75 995 99  1 : Deviation

 DTMN    .US/F       99 995 99  1 : Minimal slowness

 DTMX    .US/F       99 995 99  1 : Maximal slowness

 GR      .GAPI       30 310  1  1 : Gamma ray

 RBSB    .DEG        75 631  1  1 : Relative bearing (relative to borehole low side) for SBT

 SPD     .M/MN       99 636 99  1 : Speed

 TTEN    .LBF        99 635 99  1 : Total tension

~Parameter Information Block

#MNEM.UNIT                     Value                    Description

#----.----   ----------------------------------------   -------------------------------

 HIDE.       SEGMENTED BOND TOOL^S                    : Header Identifier

 HID1.       GAMMA RAY LOG                            : Header Identifier

 HID2.       CASING COLLAR LOCATOR                    : Header Identifier

 HID3.       VARIABLE DENSITY LOG                     : Header Identifier

 HID4.       COMPENSATED Z-DENSILOG^S                 : Header Identifier

 HID5.       COMPENSATED NEUTRON LOG                  : Header Identifier

 HID6.       TTRM SUB^S                               : N/A

 HID7.       *** 7" LINER ***                         : N/A

 CMT1.       FINAL PRINT                              : Comment 1  

 CMT2.       1:200                                    : Comment 2  

 CMT3.       1:500                                    : Comment 3  

 LATI.       39DEG56'09.3"N                           : Latitude

 LONG.       50DEG52'53.8"E                           : Longitude

 OS2 .       SBT/GR/CCL/VDL                           : Other Services Line 2

 OS3 .       ZDL/CN/GR/TTRM                           : Other Services Line 3

 PDAT.       MSL                                      : Permanent Datum

 EPD .M      0                                        : Elevation Of Perm. Datum

 LMF .       DF                                       : Log Measured From

 APD .M      25.7                                     : Above Permanent Datum

 DMF .       DF                                       : Drilling Measured From

 EKB .M      25.7                                     : Elevation Of Kelly Bushing

 EDF .M      25.7                                     : Elevation Of Derrick Floor

 EGL .M      468.3                                    : Elevation Of Ground Level

 RUN .       3.1.1                                    : Run Number

 TRIP.       1                                        : Trip Number

 SON .       AZ19007                                  : Service Order Number

 TDD .M      7411                                     : Total Depth - Driller

 TLAB.       15:15 22-APR-2019                        : Time Logger At Bottom

 TLAS.       XX:XX 23-JAN-2019                        : N/A

 OPRT.       XX HOURS                                 : N/A

 DFT .       OBM                                      : Drilling Fluid Type

 DFD .LB/G   1.6                                      : Drilling Fluid Density

 BSAL.PPM    42500                                    : Borehole Salinity

 WHP .PSI    0                                        : N/A

 MHD .DEG    31.62                                    : Maximum Hole Deviation

 NLS .M/MN   9                                        : Nominal Logging Speed

 REFL.       NA                                       : N/A

 REFD.       NA                                       : N/A

 LUN .       9037                                     : Logging Unit Number

 LUL .       AZERBAIJAN                               : Logging Unit Location

 ENGI.       M.SERROUR/M.GULMAMMADOV                  : Engineer's Name

 WITN.       ADRIEN P. / KAMAL K.                     : Witness' Name

 TSTR.       SBT/GR/CCL//ZDL/CN/TTRM/                 : Title Service Mnemonic

 TSTG.       NA                                       : Title Service Mnemonic

 STUS.       FINAL                                    : Status

 LCNM.       Baker Hughes                             : Logging Company Name

 LCC .       150                                      : Logging Company Code

 OPMD.       CH.WIRE                                  : Operation Mode

 PANA.       M.SERROUR/M.GULMAMMADOV                  : Processing Analyst

 PCON.       Baker Hughes                             : Processing Contractor

 APIN.                                                : API Serial Number

~Other information

1.  LOG OBJECTIVE IS TO EVALUATE CEMENT INTEGRITY BEHIND 10" & 13.375" CASING   

2.   LOG WAS NOT CORRELATED AS PER CUSTOMER REQUEST                             

3.  TOOLSTRING RUN AS PER TOOLSKETCH:                                           

     CH/SWVL/CCL/GR/EL/KNCK/CENT/SBT/CENT/VDL/CENT                              

     WITH TWO GEMOCO CENTRALIZERS ON SBT MANDREL AS INDICATED.                  

4.  MAX CABLEHEAD THERMOMETERS READINGS ARE: 89 DEG C, 89 DEG C, 90 DEG C       

5. NORMALIZATION FACTORS FOR 10 IN LINER WERE TAKEN FROM MAIN LOG OVER          

    4900 - 4750 M INTERVAL                                                      

   NORMALIZATION FACTORS FOR 13.375 IN CASING WERE TAKEN FROM MAIN LOG OVER     

   3770 - 3635 M INTERVAL                                                       

6. MUD REPORT                                                                   

     MUD DETAILS:                                                               

     MUD TYPE: OBM                                                              

     MUD WEIGHT : 1.83 SG                                                       

7.  SBT CEMENT MAP PROCESSED USING THE FOLLOWING PARAMETERS;                    

    FOR 10" LINER:                                                              

    CASING ID:              8.624 IN                                            

    COMPR STR:           1148 PSI (AS PER CUSTOMER REQUEST)                     

    CSG WEIGHT:           68.7  LB/FT                                           

    CSG THICKNESS:     0.688 IN                                                 

    FREE PIPE ATTN:     6.480 DB/F                                              

    FOR 13.375" CASING:                                                         

    CASING ID:               12.347 IN                                          

    COMPR STR:            615 PSI (AS PER CUSTOMER REQUEST)                     

    CSG WEIGHT:           72  LB/FT                                             

    CSG THICKNESS:     0.514 IN                                                 

    FREE PIPE ATTN:     3.285 DB/F                                              

 8. ATTENUATION PARAMETERS OF CEMENT MAP:                                       

   FOR 10" LINER                                                                

    0%   -  6.480 DB/FT                                                         

    20%  - 7.389 DB/F                                                           

    80%  - 10.117 DB/FT                                                         

    100% - 10.980 DB/FT                                                         

   FOR 13.375" CASING                                                           

    0%   -  3.285 DB/FT                                                         

    20%  - 4.181 DB/F                                                           

    80%  - 6.869 DB/FT                                                          

    100% - 7.785 DB/FT                                                          

9.  MAXIMUM DEVIATION OVER THE LOGGED INTERVAL IS 30.8 DEG AT 5040.0 M          

     ACCORDING TO DRILLERS SURVEY                                               

10. GR PEAK ON 10 IN LINER MAIN LOG AT 4619 M WAS DUE TO LOG STOP AND CONTINUE  

#  Curve Data

~A DEPT      ATAV      ATC1      ATC2      ATC3      ATC4      ATC5      ATC6      ATMN      ATMX      CCL       DEVOD     DTMN      DTMX      GR        RBSB      SPD       TTEN     
# ...
 6462.7506    5.4603    5.4750    4.0902    5.0623    5.3308    4.5918    8.2119    4.0902    8.2119   17.0000   26.3367   56.3019   60.7215   21.4283  284.5139    8.1289 8119.3096
 6462.8268    6.4267    6.1797    4.9663    6.4748    5.8614    5.6426    9.4354    4.9663    9.4354   17.0000   26.3408   51.3058   61.1058   20.8361  284.2855    8.1238 8120.4746
 6462.9030    7.1453    6.1880    5.2508    7.8775    6.5270    6.6752   10.3533    5.2508   10.3533    2.0000   26.3561   53.4195   67.4470   20.3062  284.0816    8.1169 8120.9854
 6462.9792    7.4975    5.6120    5.0426    8.9805    7.2543    7.4340   10.6619    5.0426   10.6619   21.0000   26.3822   52.0744   66.2940   19.9184  283.8912    8.1088 8121.1992
 6463.0554    7.4591    4.7024    4.5485    9.5189    7.9224    7.7715   10.2909    4.5485   10.2909   28.0000   26.4123   55.1489   64.3725   19.8443  283.6987    8.0974 8121.1172
 6463.1316    7.1038    3.7786    3.9801    9.3876    8.3766    7.6873    9.4127    3.7786    9.4127   26.0000   26.4363   53.6117   70.1371   20.3112  283.4920    8.0821 8120.4766
 6463.2078    6.5740    3.1352    3.4933    8.7019    8.4787    7.2960    8.3387    3.1352    8.7019    7.0000   26.4463   50.5372   61.6823   21.5216  283.2661    8.0651 8119.5977
 6463.2840    6.0414    2.8916    3.1634    7.7609    8.2192    6.8077    7.4053    2.8916    8.2192    0.0000   26.4411   56.4940   61.8744   23.4144  283.0248    8.0509 8119.7002
 6463.3602    5.6227    2.9621    2.9846    6.8686    7.7214    6.4017    6.7979    2.9621    7.7214   19.0000   26.4256   55.1489   61.4901   25.5706  282.7648    8.0445 8121.5693
 6463.4364    5.3878    3.1945    2.9360    6.2442    7.2169    6.1925    6.5427    2.9360    7.2169    3.0000   26.4063   55.7254   60.5293   27.5323  282.4754    8.0479 8125.5391
 6463.5126    5.3710    3.5066    3.0573    5.9540    6.9247    6.1960    6.5872    3.0573    6.9247    2.0000   26.3855   54.7646   60.7215   28.9404  282.1390    8.0582 8131.3623
 6463.5888    5.5289    3.8515    3.3352    5.9284    6.9385    6.3259    6.7939    3.3352    6.9385   29.0000   26.3600   54.9568   60.3372   29.5497  281.7437    8.0708 8138.3555
 6463.6650    5.7459    4.1629    3.6864    6.0216    7.1762    6.4600    6.9681    3.6864    7.1762   22.0000   26.3253   54.7646   60.7215   29.2892  281.2870    8.0802 8145.0752
 6463.7412    5.9425    4.3576    3.9955    6.1380    7.5035    6.5834    7.0767    3.9955    7.5035   23.0000   26.2800   54.7646   60.7215   28.3092  280.7844    8.0839 8149.6504
 6463.8174    6.0737    4.3716    4.1582    6.2373    7.7891    6.7250    7.1610    4.1582    7.7891   24.0000   26.2263   55.1489   60.3372   26.9721  280.2531    8.0802 8150.5059
 6463.8936    6.1104    4.2000    4.1387    6.3166    7.9374    6.8591    7.2109    4.1387    7.9374    4.0000   26.1708   55.9176   59.7607   25.7134  279.7068    8.0710 8147.1030
 6463.9698    6.0655    3.9399    4.0030    6.3999    7.9110    6.9296    7.2098    3.9399    7.9110   30.0000   26.1235   54.9568   60.5293   24.8799  279.1458    8.0584 8140.0859
 6464.0460    5.9855    3.7450    3.8715    6.5205    7.7420    6.8739    7.1602    3.7450    7.7420   35.0000   26.0940   56.3019   60.1450   24.6381  278.5705    8.0450 8131.4463
 6464.1222    5.9257    3.7636    3.8605    6.6814    7.4988    6.6781    7.0716    3.7636    7.4988   47.0000   26.0865   56.8783   60.1450   24.9800  277.9867    8.0329 8123.9346
 6464.1984    5.9243    4.0586    4.0263    6.8580    7.2487    6.3853    6.9690    4.0263    7.2487    4.0000   26.0979   55.3411   59.7607   25.7337  277.4153    8.0246 8120.2979
 6464.2746    5.9870    4.5507    4.3445    7.0292    7.0394    6.0721    6.8864    4.3445    7.0394    0.0000   26.1195   56.3019   59.3764   26.5707  276.8805    8.0223 8121.5342
 6464.3508    6.0870    5.0470    4.7070    7.1754    6.9076    5.8331    6.8521    4.7070    7.1754    1.0000   26.1417   56.3019   59.5685   27.1392  276.4053    8.0261 8126.4766
 6464.4270    6.1881    5.3637    4.9884    7.2824    6.8719    5.7520    6.8702    4.9884    7.2824    0.0000   26.1569   56.1097   60.7215   27.3014  275.9970    8.0351 8132.4219
 6464.5032    6.2638    5.4281    5.1179    7.3558    6.9213    5.8407    6.9188    5.1179    7.3558    7.0000   26.1617   56.1097   59.9529   27.1105  275.6499    8.0497 8136.4258
 6464.5794    6.3046    5.2849    5.0933    7.3975    7.0258    6.0618    6.9642    5.0933    7.3975    0.0000   26.1572   55.1489   59.3764   26.7355  275.3442    8.0693 8136.4907
 6464.6556    6.3243    5.0545    4.9735    7.4067    7.1484    6.3596    7.0029    4.9735    7.4067   13.0000   26.1480   55.3411   59.7607   26.2869  275.0633    8.0912 8132.6523
 6464.7318    6.3491    4.8412    4.8398    7.4057    7.2661    6.6859    7.0562    4.8398    7.4057    0.0000   26.1385   56.4940   59.7607   25.8766  274.8002    8.1104 8126.9854
 6464.8080    6.3985    4.6845    4.7422    7.4449    7.3900    6.9986    7.1309    4.6845    7.4449    0.0000   26.1305   56.8783   59.3764   25.6269  274.5652    8.1205 8122.5547
 6464.8842    6.4796    4.5826    4.7028    7.5793    7.5338    7.2572    7.2221    4.5826    7.5793    0.0000   26.1243   55.9176   59.9529   25.5560  274.3727    8.1180 8121.6807
 6464.9604    6.5862    4.5292    4.7211    7.8372    7.6893    7.4124    7.3279    4.5292    7.8372    2.0000   26.1199   56.3019   60.3372   25.5500  274.2296    8.1027 8124.8135
 6465.0366    6.6964    4.5239    4.7673    8.1757    7.8345    7.4367    7.4400    4.5239    8.1757    1.0000   26.1168   56.4940   59.9529   25.4928  274.1253    8.0824 8130.1631
 6465.1128    6.7796    4.5665    4.7935    8.4759    7.9346    7.3513    7.5562    4.5665    8.4759    0.0000   26.1142   56.6862   59.7607   25.2686  274.0381    8.0636 8135.0586
 6465.1890    6.8161    4.6331    4.7505    8.6395    7.9714    7.2199    7.6824    4.6331    8.6395    5.0000   26.1116   56.1097   59.7607   24.8197  273.9421    8.0518 8137.0840
 6465.2652    6.8058    4.6782    4.6077    8.6542    7.9751    7.1167    7.8029    4.6077    8.6542    0.0000   26.1083   56.8783   60.1450   24.1307  273.8228    8.0481 8135.1055
 6465.3414    6.7624    4.6688    4.3790    8.5712    7.9855    7.0869    7.8832    4.3790    8.5712   10.0000   26.1047   55.5332   60.1450   23.2559  273.6821    8.0490 8129.8232
 6465.4176    6.7011    4.6057    4.1230    8.4799    8.0031    7.1036    7.8915    4.1230    8.4799   14.0000   26.1011   55.7254   59.9529   22.2844  273.5389    8.0502 8123.3340
 6465.4938    6.6318    4.5193    3.9049    8.4458    8.0062    7.1146    7.7999    3.9049    8.4458   22.0000   26.0982   56.3019   59.5685   21.3625  273.4153    8.0503 8117.7852
 6465.5700    6.5550    4.4646    3.7764    8.4478    7.9521    7.0825    7.6064    3.7764    8.4478    5.0000   26.0961   55.9176   59.7607   20.6045  273.3246    8.0512 8114.5957
 6465.6462    6.4680    4.4871    3.7680    8.4221    7.7972    6.9807    7.3527    3.7680    8.4221    0.0000   26.0948   56.4940   59.1842   20.0320  273.2641    8.0567 8114.2832
 6465.7224    6.3661    4.5932    3.8787    8.3169    7.5273    6.7886    7.0917    3.8787    8.3169    0.0000   26.0938   56.6862   59.9529   19.6251  273.2195    8.0661 8116.1621
 6465.7986    6.2557    4.7808    4.0842    8.1323    7.1701    6.5109    6.8562    4.0842    8.1323    0.0000   26.0929   57.0705   60.1450   19.3738  273.1757    8.0749 8118.7988
 6465.8748    6.1497    5.0292    4.3538    7.9200    6.7639    6.1616    6.6697    4.3538    7.9200    0.0000   26.0919   56.4940   59.7607   19.2826  273.1279    8.0770 8120.8242
 6465.9510    6.0625    5.3035    4.6475    7.7435    6.3588    5.7771    6.5448    4.6475    7.7435    0.0000   26.0910   56.3019   59.9529   19.4084  273.0836    8.0676 8121.3975
 6466.0272    5.9959    5.5665    4.9213    7.6106    5.9879    5.4076    6.4812    4.9213    7.6106    3.0000   26.0896   56.4940   60.1450   19.7800  273.0565    8.0469 8120.6250
 6466.1034    5.9450    5.7776    5.1344    7.5118    5.6661    5.1023    6.4778    5.1023    7.5118    2.0000   26.0856   54.3803   59.5685   20.3414  273.0568    8.0185 8119.3047
