~Version Information

 VERS.                2.00:   CWLS log ASCII Standard -VERSION 2.00

 WRAP.                  NO:   One line per frame      

~Well Information Block

#MNEM.UNIT                     Data                     Description

#----.----   ----------------------------------------   -------------------------------

 STRT.M                                     5560.9236 : Starting Depth

 STOP.M                                     6796.2018 : Ending Depth

 STEP.M                                        0.0762 : Level Spacing

 NULL.                                      -999.2500 : Absent Value

 COMP.       TOTAL                                    : Company

 WELL.       ABD001                                   : Well

 FLD .       ABSHERON                                 : Field

 LOC .       HEYDAR ALIYEV                            : Location

 PROV.                                                : Province

 CTRY.       AZERBAIJAN                               : Country

 SRVC.       Baker Hughes                             : Service Company

 DATE.       22-APR-2019                              : Log Date

 UWI .                                                : Unique Well ID

 LIC .                                                : License Number

~Curve Information Block

#MNEM    .UNIT        API Codes     Curve Description

#--------.--------   LG--CV-CL--M   ---------------------------------------------------

 DEPT    .M          99 995 99  1 : Depth

 ATAV    .DB/F       81 995 99  1 : Average attenuation

 ATC1    .DB/F       81 995 99  1 : Attenuation pad 1

 ATC2    .DB/F       81 995 99  1 : Attenuation pad 2

 ATC3    .DB/F       81 995 99  1 : Attenuation pad 3

 ATC4    .DB/F       81 995 99  1 : Attenuation pad 4

 ATC5    .DB/F       81 995 99  1 : Attenuation pad 5

 ATC6    .DB/F       81 995 99  1 : Attenuation pad 6

 ATMN    .DB/F       81 995 99  1 : Attenuation minimum

 ATMX    .DB/F       81 995 99  1 : Attenuation maximum

 CCL     .MV         86 150  1  1 : Casing collar locator

 DEVOD   .DEG        75 995 99  1 : Deviation

 DTMN    .US/F       99 995 99  1 : Minimal slowness

 DTMX    .US/F       99 995 99  1 : Maximal slowness

 GR      .GAPI       30 310  1  1 : Gamma ray

 RBSB    .DEG        75 631  1  1 : Relative bearing (relative to borehole low side) for SBT

 SPD     .M/MN       99 636 99  1 : Speed

 TTEN    .LBF        99 635 99  1 : Total tension

~Parameter Information Block

#MNEM.UNIT                     Value                    Description

#----.----   ----------------------------------------   -------------------------------

 HIDE.       SEGMENTED BOND TOOL^S                    : Header Identifier

 HID1.       GAMMA RAY LOG                            : Header Identifier

 HID2.       CASING COLLAR LOCATOR                    : Header Identifier

 HID3.       VARIABLE DENSITY LOG                     : Header Identifier

 HID4.       COMPENSATED Z-DENSILOG^S                 : Header Identifier

 HID5.       COMPENSATED NEUTRON LOG                  : Header Identifier

 HID6.       TTRM SUB^S                               : N/A

 HID7.       *** 7" LINER ***                         : N/A

 CMT1.       FINAL PRINT                              : Comment 1  

 CMT2.       1:200                                    : Comment 2  

 CMT3.       1:500                                    : Comment 3  

 LATI.       39DEG56'09.3"N                           : Latitude

 LONG.       50DEG52'53.8"E                           : Longitude

 OS2 .       SBT/GR/CCL/VDL                           : Other Services Line 2

 OS3 .       ZDL/CN/GR/TTRM                           : Other Services Line 3

 PDAT.       MSL                                      : Permanent Datum

 EPD .M      0                                        : Elevation Of Perm. Datum

 LMF .       DF                                       : Log Measured From

 APD .M      25.7                                     : Above Permanent Datum

 DMF .       DF                                       : Drilling Measured From

 EKB .M      25.7                                     : Elevation Of Kelly Bushing

 EDF .M      25.7                                     : Elevation Of Derrick Floor

 EGL .M      468.3                                    : Elevation Of Ground Level

 RUN .       3.1.1                                    : Run Number

 TRIP.       1                                        : Trip Number

 SON .       AZ19007                                  : Service Order Number

 TDD .M      7411                                     : Total Depth - Driller

 TLAB.       15:15 22-APR-2019                        : Time Logger At Bottom

 TLAS.       XX:XX 23-JAN-2019                        : N/A

 OPRT.       XX HOURS                                 : N/A

 DFT .       OBM                                      : Drilling Fluid Type

 DFD .LB/G   1.6                                      : Drilling Fluid Density

 BSAL.PPM    42500                                    : Borehole Salinity

 WHP .PSI    0                                        : N/A

 MHD .DEG    31.62                                    : Maximum Hole Deviation

 NLS .M/MN   9                                        : Nominal Logging Speed

 REFL.       NA                                       : N/A

 REFD.       NA                                       : N/A

 LUN .       9037                                     : Logging Unit Number

 LUL .       AZERBAIJAN                               : Logging Unit Location

 ENGI.       M.SERROUR/M.GULMAMMADOV                  : Engineer's Name

 WITN.       ADRIEN P. / KAMAL K.                     : Witness' Name

 TSTR.       SBT/GR/CCL//ZDL/CN/TTRM/                 : Title Service Mnemonic

 TSTG.       NA                                       : Title Service Mnemonic

 STUS.       FINAL                                    : Status

 LCNM.       Baker Hughes                             : Logging Company Name

 LCC .       150                                      : Logging Company Code

 OPMD.       CH.WIRE                                  : Operation Mode

 PANA.       M.SERROUR/M.GULMAMMADOV                  : Processing Analyst

 PCON.       Baker Hughes                             : Processing Contractor

 APIN.                                                : API Serial Number

~Other information

1.  LOG OBJECTIVE IS TO EVALUATE CEMENT INTEGRITY BEHIND 10" & 13.375" CASING   

2.   LOG WAS NOT CORRELATED AS PER CUSTOMER REQUEST                             

3.  TOOLSTRING RUN AS PER TOOLSKETCH:                                           

     CH/SWVL/CCL/GR/EL/KNCK/CENT/SBT/CENT/VDL/CENT                              

     WITH TWO GEMOCO CENTRALIZERS ON SBT MANDREL AS INDICATED.                  

4.  MAX CABLEHEAD THERMOMETERS READINGS ARE: 89 DEG C, 89 DEG C, 90 DEG C       

5. NORMALIZATION FACTORS FOR 10 IN LINER WERE TAKEN FROM MAIN LOG OVER          

    4900 - 4750 M INTERVAL                                                      

   NORMALIZATION FACTORS FOR 13.375 IN CASING WERE TAKEN FROM MAIN LOG OVER     

   3770 - 3635 M INTERVAL                                                       

6. MUD REPORT                                                                   

     MUD DETAILS:                                                               

     MUD TYPE: OBM                                                              

     MUD WEIGHT : 1.83 SG                                                       

7.  SBT CEMENT MAP PROCESSED USING THE FOLLOWING PARAMETERS;                    

    FOR 10" LINER:                                                              

    CASING ID:              8.624 IN                                            

    COMPR STR:           1148 PSI (AS PER CUSTOMER REQUEST)                     

    CSG WEIGHT:           68.7  LB/FT                                           

    CSG THICKNESS:     0.688 IN                                                 

    FREE PIPE ATTN:     6.480 DB/F                                              

    FOR 13.375" CASING:                                                         

    CASING ID:               12.347 IN                                          

    COMPR STR:            615 PSI (AS PER CUSTOMER REQUEST)                     

    CSG WEIGHT:           72  LB/FT                                             

    CSG THICKNESS:     0.514 IN                                                 

    FREE PIPE ATTN:     3.285 DB/F                                              

 8. ATTENUATION PARAMETERS OF CEMENT MAP:                                       

   FOR 10" LINER                                                                

    0%   -  6.480 DB/FT                                                         

    20%  - 7.389 DB/F                                                           

    80%  - 10.117 DB/FT                                                         

    100% - 10.980 DB/FT                                                         

   FOR 13.375" CASING                                                           

    0%   -  3.285 DB/FT                                                         

    20%  - 4.181 DB/F                                                           

    80%  - 6.869 DB/FT                                                          

    100% - 7.785 DB/FT                                                          

9.  MAXIMUM DEVIATION OVER THE LOGGED INTERVAL IS 30.8 DEG AT 5040.0 M          

     ACCORDING TO DRILLERS SURVEY                                               

10. GR PEAK ON 10 IN LINER MAIN LOG AT 4619 M WAS DUE TO LOG STOP AND CONTINUE  

#  Curve Data

~A DEPT      ATAV      ATC1      ATC2      ATC3      ATC4      ATC5      ATC6      ATMN      ATMX      CCL       DEVOD     DTMN      DTMX      GR        RBSB      SPD       TTEN     
# ...
 6298.1586    3.1980    0.4829    3.3124    2.7620    4.2163    2.7391    5.6752    0.4829    5.6752    0.0000   26.6818   56.1097   61.2979   31.0532    2.0673    8.2895 7911.1948
 6298.2348    3.0294   -0.4848    3.2156    2.9969    4.1375    2.8340    5.4771   -0.4848    5.4771    0.0000   26.6566   56.3019   61.2979   31.6812    2.0637    8.3022 7909.6606
 6298.3110    2.8932   -1.1758    3.1432    3.2871    3.9769    2.8980    5.2297   -1.1758    5.2297    0.0000   26.6209   54.7646   61.4901   31.9521    2.0411    8.3209 7913.7441
 6298.3872    2.7656   -1.5320    3.0629    3.5032    3.6849    2.9066    4.9678   -1.5320    4.9678    0.0000   26.5935   46.5019   60.9136   31.8510    1.9825    8.3375 7922.3384
 6298.4634    2.6314   -1.5072    2.9089    3.5429    3.2577    2.8474    4.7385   -1.5072    4.7385    0.0000   26.5842   45.7333   59.7607   31.4899    1.8796    8.3436 7932.7417
 6298.5396    2.5087   -1.0850    2.6281    3.3934    2.7873    2.7383    4.5903   -1.0850    4.5903    0.0000   26.5910   45.9254   60.7215   31.0759    1.7452    8.3341 7941.4873
 6298.6158    2.4656   -0.2903    2.2727    3.1599    2.4313    2.6695    4.5506   -0.2903    4.5506    0.0000   26.6067   55.9176   60.7215   30.8316    1.6161    8.3104 7945.2588
 6298.6920    2.6102    0.8130    1.9840    3.0419    2.3964    2.7850    4.6412    0.8130    4.6412    0.0000   26.6232   55.1489   61.4901   30.8594    1.5367    8.2817 7941.9688
 6298.7682    3.0839    2.1643    1.9234    3.2644    2.9417    3.2703    4.9394    1.9234    4.9394    1.0000   26.6331   44.7725   62.0666   30.9949    1.5364    8.2601 7931.6973
 6298.8444    3.9353    3.5717    2.1444    3.9207    4.1724    4.2037    5.5992    2.1444    5.5992    0.0000   26.6337   42.6588   60.9136   30.9356    1.6153    8.2547 7917.0630
 6298.9206    5.0129    4.7330    2.5032    4.8629    5.8528    5.4120    6.7138    2.5032    6.7138    0.0000   26.6249   55.1489   61.1058   30.3455    1.7440    8.2667 7902.3428
 6298.9968    6.0821    5.5169    2.7856    5.8458    7.5620    6.5884    8.1941    2.7856    8.1941    0.0000   26.6075   54.1882   60.1450   29.0984    1.8787    8.2916 7892.1694
 6299.0730    6.9840    5.9894    2.8088    6.6705    8.9622    7.5578    9.9156    2.8088    9.9156    0.0000   26.5835   51.1136   67.8313   27.3876    1.9829    8.3188 7889.6851
 6299.1492    7.6227    6.2793    2.5300    7.1563    9.8354    8.2672   11.6681    2.5300   11.6681    9.0000   26.5558   54.7646   67.8313   25.6256    2.0458    8.3390 7895.0542
 6299.2254    7.9323    6.4840    2.0669    7.2103   10.0655    8.6739   13.0933    2.0669   13.0933   23.0000   26.5295   50.9215   66.8705   24.1919    2.0795    8.3465 7905.3809
 6299.3016    7.8811    6.5663    1.6331    6.8400    9.6886    8.7609   13.7978    1.6331   13.7978   32.0000   26.5111   54.9568   64.1803   23.3364    2.1036    8.3430 7916.2983
 6299.3778    7.4701    6.4197    1.3982    6.1473    8.8212    8.4878   13.5467    1.3982   13.5467   10.0000   26.5032   52.4587   66.2940   23.1737    2.1304    8.3334 7923.6387
 6299.4540    6.7574    6.0113    1.4169    5.2996    7.6482    7.8122   12.3564    1.4169   12.3564   23.0000   26.5019   51.4980   60.5293   23.6145    2.1584    8.3258 7925.2026
 6299.5302    5.8718    5.4057    1.6323    4.4871    6.3784    6.7934   10.5340    1.6323   10.5340    0.0000   26.5023   53.4195   60.9136   24.4395    2.1832    8.3232 7921.3452
 6299.6064    4.9766    4.7198    1.9622    3.8526    5.1748    5.6202    8.5299    1.9622    8.5299    0.0000   26.5025   48.6156   60.7215   25.4194    2.2032    8.3248 7914.3647
 6299.6826    4.2450    4.1191    2.3099    3.5024    4.2051    4.5670    6.7662    2.3099    6.7662    2.0000   26.5027   55.7254   61.4901   26.3623    2.2211    8.3257 7906.8579
 6299.7588    3.8262    3.7725    2.6243    3.4714    3.6507    3.9073    5.5310    2.6243    5.5310    0.0000   26.5030   54.9568   61.4901   27.1662    2.2411    8.3237 7900.9497
 6299.8350    3.7185    3.6387    2.8529    3.6685    3.5243    3.6938    4.9328    2.8529    4.9328    0.0000   26.5033   54.9568   59.7607   27.8140    2.2659    8.3174 7897.9536
 6299.9112    3.7537    3.5577    2.9596    3.8930    3.6221    3.7083    4.7816    2.9596    4.7816    3.0000   26.5037   55.1489   60.9136   28.2929    2.2939    8.3091 7898.5469
 6299.9874    3.7829    3.4502    2.9676    4.0519    3.7408    3.7130    4.7737    2.9676    4.7737    3.0000   26.5041   55.5332   60.7215   28.5574    2.3202    8.3003 7902.6279
 6300.0636    3.7738    3.3131    2.9458    4.1574    3.8273    3.6546    4.7446    2.9458    4.7446    1.0000   26.5044   55.1489   60.3372   28.5426    2.3387    8.2941 7908.9683
 6300.1398    3.7424    3.1736    2.9616    4.2309    3.8701    3.5592    4.6589    2.9616    4.6589    0.0000   26.5045   55.1489   60.9136   28.2137    2.3468    8.2916 7915.2905
 6300.2160    3.7051    3.0657    3.0407    4.2687    3.8477    3.4602    4.5473    3.0407    4.5473    0.0000   26.5061   54.9568   61.6823   27.5295    2.3483    8.2954 7919.3564
 6300.2922    3.6771    3.0145    3.1737    4.2643    3.7597    3.3852    4.4650    3.0145    4.4650    0.0000   26.5143   55.1489   60.3372   26.5782    2.3478    8.3043 7919.9497
 6300.3684    3.6685    3.0301    3.3209    4.2315    3.6417    3.3377    4.4489    3.0301    4.4489   43.0000   26.5330   55.1489   59.3764   25.6432    2.3500    8.3160 7917.1152
 6300.4446    3.6911    3.1067    3.4419    4.2027    3.5592    3.3314    4.5048    3.1067    4.5048    3.0000   26.5600   54.9568   60.1450   24.9876    2.3646    8.3253 7911.9644
 6300.5208    3.7473    3.2287    3.5251    4.1921    3.5485    3.3756    4.6141    3.2287    4.6141    1.0000   26.5890   54.9568   60.1450   24.7250    2.4045    8.3292 7906.1182
 6300.5970    3.8260    3.3767    3.5756    4.1851    3.6099    3.4698    4.7391    3.3767    4.7391    0.0000   26.6152   55.1489   61.2979   24.8476    2.4799    8.3259 7901.5259
 6300.6732    3.9013    3.5260    3.5774    4.1396    3.7109    3.6098    4.8442    3.5260    4.8442   28.0000   26.6372   55.1489   60.9136   25.2128    2.5893    8.3185 7899.7808
 6300.7494    3.9466    3.6528    3.5098    4.0223    3.8056    3.7756    4.9134    3.5098    4.9134   11.0000   26.6575   54.9568   59.3764   25.6066    2.7161    8.3118 7901.5410
 6300.8256    3.9452    3.7381    3.3659    3.8463    3.8663    3.9124    4.9421    3.3659    4.9421    0.0000   26.6800   54.9568   60.1450   25.8644    2.8347    8.3106 7906.1357
 6300.9018    3.9051    3.7757    3.1593    3.6744    3.9010    3.9825    4.9375    3.1593    4.9375    0.0000   26.7069   55.1489   60.5293   25.9486    2.9259    8.3154 7911.6543
 6300.9780    3.8563    3.7816    2.9459    3.5923    3.9316    3.9838    4.9025    2.9459    4.9025    3.0000   26.7348   54.9568   61.1058   25.8776    2.9818    8.3198 7915.4741
 6301.0542    3.8305    3.7827    2.7991    3.6498    3.9801    3.9395    4.8320    2.7991    4.8320   23.0000   26.7538   55.7254   60.9136   25.7554    3.0061    8.3176 7915.7075
 6301.1304    3.8394    3.7932    2.7493    3.8115    4.0420    3.8995    4.7406    2.7493    4.7406    0.0000   26.7539   55.9176   61.4901   25.6659    3.0109    8.3092 7912.1479
 6301.2066    3.8729    3.8166    2.7836    3.9871    4.0850    3.9014    4.6637    2.7836    4.6637    6.0000   26.7353   54.9568   60.3372   25.5583    3.0108    8.3011 7906.2695
 6301.2828    3.9098    3.8425    2.8542    4.1117    4.0916    3.9406    4.6183    2.8542    4.6183    0.0000   26.7086   55.1489   60.1450   25.3333    3.0145    8.2996 7900.2275
 6301.3590    3.9386    3.8561    2.9143    4.1839    4.0792    3.9993    4.5985    2.9143    4.5985    0.0000   26.6837   54.9568   61.1058   24.9724    3.0262    8.3083 7896.2754
 6301.4352    3.9616    3.8535    2.9590    4.2438    4.0690    4.0605    4.5839    2.9590    4.5839    7.0000   26.6662   54.7646   60.7215   24.4944    3.0459    8.3245 7895.9805
 6301.5114    3.9843    3.8313    3.0085    4.3224    4.0783    4.1095    4.5556    3.0085    4.5556   10.0000   26.6610   55.3411   61.4901   24.0340    3.0710    8.3414 7899.3389
