~Version Information

 VERS.                2.00:   CWLS log ASCII Standard -VERSION 2.00

 WRAP.                  NO:   One line per frame      

~Well Information Block

#MNEM.UNIT                     Data                     Description

#----.----   ----------------------------------------   -------------------------------

 STRT.M                                     5560.9236 : Starting Depth

 STOP.M                                     6796.2018 : Ending Depth

 STEP.M                                        0.0762 : Level Spacing

 NULL.                                      -999.2500 : Absent Value

 COMP.       TOTAL                                    : Company

 WELL.       ABD001                                   : Well

 FLD .       ABSHERON                                 : Field

 LOC .       HEYDAR ALIYEV                            : Location

 PROV.                                                : Province

 CTRY.       AZERBAIJAN                               : Country

 SRVC.       Baker Hughes                             : Service Company

 DATE.       22-APR-2019                              : Log Date

 UWI .                                                : Unique Well ID

 LIC .                                                : License Number

~Curve Information Block

#MNEM    .UNIT        API Codes     Curve Description

#--------.--------   LG--CV-CL--M   ---------------------------------------------------

 DEPT    .M          99 995 99  1 : Depth

 ATAV    .DB/F       81 995 99  1 : Average attenuation

 ATC1    .DB/F       81 995 99  1 : Attenuation pad 1

 ATC2    .DB/F       81 995 99  1 : Attenuation pad 2

 ATC3    .DB/F       81 995 99  1 : Attenuation pad 3

 ATC4    .DB/F       81 995 99  1 : Attenuation pad 4

 ATC5    .DB/F       81 995 99  1 : Attenuation pad 5

 ATC6    .DB/F       81 995 99  1 : Attenuation pad 6

 ATMN    .DB/F       81 995 99  1 : Attenuation minimum

 ATMX    .DB/F       81 995 99  1 : Attenuation maximum

 CCL     .MV         86 150  1  1 : Casing collar locator

 DEVOD   .DEG        75 995 99  1 : Deviation

 DTMN    .US/F       99 995 99  1 : Minimal slowness

 DTMX    .US/F       99 995 99  1 : Maximal slowness

 GR      .GAPI       30 310  1  1 : Gamma ray

 RBSB    .DEG        75 631  1  1 : Relative bearing (relative to borehole low side) for SBT

 SPD     .M/MN       99 636 99  1 : Speed

 TTEN    .LBF        99 635 99  1 : Total tension

~Parameter Information Block

#MNEM.UNIT                     Value                    Description

#----.----   ----------------------------------------   -------------------------------

 HIDE.       SEGMENTED BOND TOOL^S                    : Header Identifier

 HID1.       GAMMA RAY LOG                            : Header Identifier

 HID2.       CASING COLLAR LOCATOR                    : Header Identifier

 HID3.       VARIABLE DENSITY LOG                     : Header Identifier

 HID4.       COMPENSATED Z-DENSILOG^S                 : Header Identifier

 HID5.       COMPENSATED NEUTRON LOG                  : Header Identifier

 HID6.       TTRM SUB^S                               : N/A

 HID7.       *** 7" LINER ***                         : N/A

 CMT1.       FINAL PRINT                              : Comment 1  

 CMT2.       1:200                                    : Comment 2  

 CMT3.       1:500                                    : Comment 3  

 LATI.       39DEG56'09.3"N                           : Latitude

 LONG.       50DEG52'53.8"E                           : Longitude

 OS2 .       SBT/GR/CCL/VDL                           : Other Services Line 2

 OS3 .       ZDL/CN/GR/TTRM                           : Other Services Line 3

 PDAT.       MSL                                      : Permanent Datum

 EPD .M      0                                        : Elevation Of Perm. Datum

 LMF .       DF                                       : Log Measured From

 APD .M      25.7                                     : Above Permanent Datum

 DMF .       DF                                       : Drilling Measured From

 EKB .M      25.7                                     : Elevation Of Kelly Bushing

 EDF .M      25.7                                     : Elevation Of Derrick Floor

 EGL .M      468.3                                    : Elevation Of Ground Level

 RUN .       3.1.1                                    : Run Number

 TRIP.       1                                        : Trip Number

 SON .       AZ19007                                  : Service Order Number

 TDD .M      7411                                     : Total Depth - Driller

 TLAB.       15:15 22-APR-2019                        : Time Logger At Bottom

 TLAS.       XX:XX 23-JAN-2019                        : N/A

 OPRT.       XX HOURS                                 : N/A

 DFT .       OBM                                      : Drilling Fluid Type

 DFD .LB/G   1.6                                      : Drilling Fluid Density

 BSAL.PPM    42500                                    : Borehole Salinity

 WHP .PSI    0                                        : N/A

 MHD .DEG    31.62                                    : Maximum Hole Deviation

 NLS .M/MN   9                                        : Nominal Logging Speed

 REFL.       NA                                       : N/A

 REFD.       NA                                       : N/A

 LUN .       9037                                     : Logging Unit Number

 LUL .       AZERBAIJAN                               : Logging Unit Location

 ENGI.       M.SERROUR/M.GULMAMMADOV                  : Engineer's Name

 WITN.       ADRIEN P. / KAMAL K.                     : Witness' Name

 TSTR.       SBT/GR/CCL//ZDL/CN/TTRM/                 : Title Service Mnemonic

 TSTG.       NA                                       : Title Service Mnemonic

 STUS.       FINAL                                    : Status

 LCNM.       Baker Hughes                             : Logging Company Name

 LCC .       150                                      : Logging Company Code

 OPMD.       CH.WIRE                                  : Operation Mode

 PANA.       M.SERROUR/M.GULMAMMADOV                  : Processing Analyst

 PCON.       Baker Hughes                             : Processing Contractor

 APIN.                                                : API Serial Number

~Other information

1.  LOG OBJECTIVE IS TO EVALUATE CEMENT INTEGRITY BEHIND 10" & 13.375" CASING   

2.   LOG WAS NOT CORRELATED AS PER CUSTOMER REQUEST                             

3.  TOOLSTRING RUN AS PER TOOLSKETCH:                                           

     CH/SWVL/CCL/GR/EL/KNCK/CENT/SBT/CENT/VDL/CENT                              

     WITH TWO GEMOCO CENTRALIZERS ON SBT MANDREL AS INDICATED.                  

4.  MAX CABLEHEAD THERMOMETERS READINGS ARE: 89 DEG C, 89 DEG C, 90 DEG C       

5. NORMALIZATION FACTORS FOR 10 IN LINER WERE TAKEN FROM MAIN LOG OVER          

    4900 - 4750 M INTERVAL                                                      

   NORMALIZATION FACTORS FOR 13.375 IN CASING WERE TAKEN FROM MAIN LOG OVER     

   3770 - 3635 M INTERVAL                                                       

6. MUD REPORT                                                                   

     MUD DETAILS:                                                               

     MUD TYPE: OBM                                                              

     MUD WEIGHT : 1.83 SG                                                       

7.  SBT CEMENT MAP PROCESSED USING THE FOLLOWING PARAMETERS;                    

    FOR 10" LINER:                                                              

    CASING ID:              8.624 IN                                            

    COMPR STR:           1148 PSI (AS PER CUSTOMER REQUEST)                     

    CSG WEIGHT:           68.7  LB/FT                                           

    CSG THICKNESS:     0.688 IN                                                 

    FREE PIPE ATTN:     6.480 DB/F                                              

    FOR 13.375" CASING:                                                         

    CASING ID:               12.347 IN                                          

    COMPR STR:            615 PSI (AS PER CUSTOMER REQUEST)                     

    CSG WEIGHT:           72  LB/FT                                             

    CSG THICKNESS:     0.514 IN                                                 

    FREE PIPE ATTN:     3.285 DB/F                                              

 8. ATTENUATION PARAMETERS OF CEMENT MAP:                                       

   FOR 10" LINER                                                                

    0%   -  6.480 DB/FT                                                         

    20%  - 7.389 DB/F                                                           

    80%  - 10.117 DB/FT                                                         

    100% - 10.980 DB/FT                                                         

   FOR 13.375" CASING                                                           

    0%   -  3.285 DB/FT                                                         

    20%  - 4.181 DB/F                                                           

    80%  - 6.869 DB/FT                                                          

    100% - 7.785 DB/FT                                                          

9.  MAXIMUM DEVIATION OVER THE LOGGED INTERVAL IS 30.8 DEG AT 5040.0 M          

     ACCORDING TO DRILLERS SURVEY                                               

10. GR PEAK ON 10 IN LINER MAIN LOG AT 4619 M WAS DUE TO LOG STOP AND CONTINUE  

#  Curve Data

~A DEPT      ATAV      ATC1      ATC2      ATC3      ATC4      ATC5      ATC6      ATMN      ATMX      CCL       DEVOD     DTMN      DTMX      GR        RBSB      SPD       TTEN     
# ...
 6702.7806   12.2779   10.6300   11.2345   13.8752   13.2759   12.4118   12.2399   10.6300   13.8752    0.0000   29.5287   55.9176   59.9529   37.6291  216.3896    8.3905 8455.8379
 6702.8568   12.4097   10.6237   11.6418   14.0925   12.9503   12.6299   12.5199   10.6237   14.0925    0.0000   29.5318   56.1097   60.9136   38.8486  216.3340    8.3840 8452.6953
 6702.9330   12.3413   10.3867   11.8543   14.0921   12.4536   12.6264   12.6348   10.3867   14.0921    0.0000   29.5284   55.9176   60.5293   39.4245  216.2999    8.3826 8450.1104
 6703.0092   12.0503    9.9535   11.8487   13.8303   11.7848   12.3356   12.5491    9.9535   13.8303    3.0000   29.5244   55.5332   60.7215   39.2111  216.2825    8.3852 8447.8613
 6703.0854   11.5676    9.4446   11.6419   13.2996   10.9867   11.7710   12.2617    9.4446   13.2996    2.0000   29.5255   55.9176   60.3372   38.3509  216.2722    8.3863 8445.8828
 6703.1616   10.9869    9.0235   11.3025   12.5687   10.1537   11.0332   11.8397    9.0235   12.5687    0.0000   29.5328   56.3019   60.1450   37.1267  216.2612    8.3841 8444.5820
 6703.2378   10.4207    8.8238   10.9293   11.7759    9.4039   10.2346   11.3569    8.8238   11.7759    0.0000   29.5440   57.0705   60.3372   35.8292  216.2471    8.3775 8444.2402
 6703.3140    9.9486    8.8914   10.5957   11.0834    8.8193    9.4366   10.8651    8.8193   11.0834    0.0000   29.5558   56.6862   59.5685   34.6431  216.2321    8.3704 8444.4209
 6703.3902    9.5912    9.1682   10.3295   10.6231    8.4062    8.6335   10.3868    8.4062   10.6231    0.0000   29.5663   55.7254   59.9529   33.6519  216.2189    8.3647 8444.2598
 6703.4664    9.3328    9.5274   10.1065   10.4613    8.1426    7.8227    9.9362    7.8227   10.4613    3.0000   29.5741   56.6862   61.1058   32.9047  216.2091    8.3635 8443.1748
 6703.5426    9.1558    9.8282    9.8797   10.5651    8.0238    7.0800    9.5580    7.0800   10.5651    0.0000   29.5783   56.6862   60.3372   32.4117  216.2039    8.3661 8441.1318
 6703.6188    9.0589    9.9372    9.5904   10.8389    8.0983    6.5445    9.3438    6.5445   10.8389    0.0000   29.5788   56.4940   60.5293   32.1196  216.2051    8.3721 8438.2373
 6703.6950    9.0211    9.7195    9.1615   11.1248    8.4162    6.3279    9.3765    6.3279   11.1248    0.0000   29.5770   56.3019   60.7215   31.9330  216.2163    8.3768 8434.5039
 6703.7712    8.9708    9.0625    8.5302   11.2375    8.9335    6.4200    9.6412    6.4200   11.2375   24.0000   29.5752   56.4940   60.3372   31.7718  216.2408    8.3763 8430.0928
 6703.8474    8.7898    7.9512    7.7007   11.0222    9.4471    6.6453    9.9724    6.6453   11.0222    2.0000   29.5750   55.9176   60.1450   31.5266  216.2794    8.3661 8425.7305
 6703.9236    8.3785    6.5236    6.7645   10.4446    9.6879    6.7527   10.0976    6.5236   10.4446    1.0000   29.5770   55.5332   60.5293   30.9662  216.3286    8.3494 8422.9951
 6703.9998    7.7463    5.1014    5.8821    9.6186    9.4857    6.5868    9.8031    5.1014    9.8031    0.0000   29.5811   56.3019   60.3372   29.9413  216.3802    8.3315 8423.6621
 6704.0760    7.0532    4.0823    5.2415    8.7857    8.9003    6.2000    9.1094    4.0823    9.1094    0.0000   29.5872   56.1097   61.6823   28.5329  216.4242    8.3194 8428.8662
 6704.1522    6.5535    3.7498    5.0219    8.2173    8.2117    5.8336    8.2865    3.7498    8.2865   10.0000   29.5941   56.4940   60.7215   27.0247  216.4539    8.3155 8438.2295
 6704.2284    6.4548    4.1553    5.3104    8.1017    7.7427    5.7439    7.6748    4.1553    8.1017   12.0000   29.5996   56.3019   62.0666   25.8213  216.4747    8.3190 8449.6562
 6704.3046    6.8028    5.1266    6.0466    8.4514    7.6591    6.0177    7.5154    5.1266    8.4514    8.0000   29.6024   54.9568   60.7215   25.3379  216.5072    8.3249 8459.6504
 6704.3808    7.4543    6.3434    7.0132    9.1113    7.9133    6.5294    7.8154    6.3434    9.1113    0.0000   29.6040   56.1097   61.1058   25.7666  216.5739    8.3295 8464.9014
 6704.4570    8.1654    7.4759    7.9306    9.8456    8.3244    7.0471    8.3687    7.0471    9.8456    7.0000   29.6061   56.1097   60.7215   26.9627  216.6867    8.3300 8463.7324
 6704.5332    8.7332    8.3225    8.5967   10.4628    8.7265    7.4017    8.8892    7.4017   10.4628    3.0000   29.6091   56.4940   60.5293   28.5362  216.8386    8.3292 8457.0293
 6704.6094    9.0909    8.8525    8.9475   10.8724    9.0950    7.5974    9.1806    7.5974   10.8724    0.0000   29.6126   56.4940   61.2979   29.9899  217.0058    8.3307 8448.0029
 6704.6856    9.2951    9.1342    9.0361   11.0750    9.5210    7.7774    9.2272    7.7774   11.0750    1.0000   29.6150   56.1097   61.2979   30.8094  217.1552    8.3375 8440.7568
 6704.7618    9.4523    9.2669    8.9878   11.1154   10.0862    8.0929    9.1648    8.0929   11.1154    0.0000   29.6128   55.9176   61.1058   30.7256  217.2562    8.3465 8438.3691
 6704.8380    9.6279    9.3221    8.9057   11.0411   10.7668    8.5882    9.1438    8.5882   11.0411    5.0000   29.6016   55.9176   60.7215   29.7626  217.2915    8.3532 8441.4023
 6704.9142    9.8267    9.3272    8.8570   10.8979   11.4355    9.1926    9.2504    8.8570   11.4355    1.0000   29.5787   55.5332   60.7215   28.1286  217.2621    8.3540 8447.4023
 6704.9904   10.0117    9.3001    8.8640   10.7359   11.9403    9.7557    9.4743    8.8640   11.9403    0.0000   29.5443   56.3019   61.1058   26.1516  217.1852    8.3490 8452.1016
 6705.0666   10.1440    9.2495    8.9196   10.5934   12.2118   10.1400    9.7498    8.9196   12.2118    1.0000   29.5027   56.3019   61.6823   24.1829  217.0856    8.3404 8451.8057
 6705.1428   10.2092    9.1724    8.9994   10.4871   12.2883   10.3077   10.0005    8.9994   12.2883    0.0000   29.4622   56.1097   62.2587   22.4487  216.9832    8.3352 8445.5000
 6705.2190   10.2193    9.0772    9.0811   10.4295   12.2426   10.3117   10.1735    9.0772   12.2426    0.0000   29.4351   55.9176   61.1058   21.0742  216.8923    8.3382 8434.9473
 6705.2952   10.1974    8.9930    9.1257   10.4232   12.1303   10.2419   10.2702    8.9930   12.1303    2.0000   29.4300   56.3019   61.1058   20.1113  216.8224    8.3511 8423.0469
 6705.3714   10.1579    8.9406    9.0882   10.4564   11.9745   10.1780   10.3100    8.9406   11.9745    1.0000   29.4449   56.1097   60.5293   19.5085  216.7758    8.3702 8412.6143
 6705.4476   10.1055    8.9113    8.9577   10.5204   11.7885   10.1514   10.3035    8.9113   11.7885    0.0000   29.4685   56.3019   61.2979   19.1389  216.7507    8.3880 8405.9805
 6705.5238   10.0473    8.8766    8.7930   10.6036   11.6004   10.1512   10.2589    8.7930   11.6004    0.0000   29.4875   56.3019   61.1058   18.9271  216.7449    8.3964 8404.3848
 6705.6000    9.9980    8.8197    8.6752   10.6884   11.4667   10.1467   10.1915    8.6752   11.4667    0.0000   29.4940   56.6862   61.8744   18.8741  216.7607    8.3905 8407.5293
 6705.6762    9.9772    8.7560    8.6577   10.7630   11.4470   10.1197   10.1198    8.6577   11.4470    0.0000   29.4904   56.1097   61.1058   19.0036  216.8038    8.3719 8413.7090
 6705.7524    9.9917    8.7169    8.7225   10.8018   11.5673   10.0701   10.0715    8.7169   11.5673    0.0000   29.4863   56.3019   61.2979   19.3581  216.8764    8.3469 8420.0635
 6705.8286   10.0263    8.7245    8.7989   10.7636   11.7801   10.0257   10.0652    8.7245   11.7801    2.0000   29.4926   56.4940   60.9136   19.9669  216.9737    8.3248 8423.6406
 6705.9048   10.0615    8.7804    8.8275   10.6281   11.9973   10.0352   10.1004    8.7804   11.9973    8.0000   29.5125   56.3019   61.4901   20.8324  217.0838    8.3137 8422.6348
 6705.9810   10.0841    8.8532    8.7948   10.4295   12.1384   10.1298   10.1587    8.7948   12.1384    0.0000   29.5380   56.4940   60.7215   21.9085  217.1953    8.3167 8417.3301
 6706.0572   10.0903    8.9045    8.7292   10.2364   12.1745   10.2930   10.2044    8.7292   12.1745    0.0000   29.5544   56.4940   62.0666   23.1250  217.3011    8.3306 8409.9873
 6706.1334   10.0835    8.9190    8.6784   10.1098   12.1161   10.4781   10.1998    8.6784   12.1161    0.0000   29.5517   56.6862   61.8744   24.4388  217.4008    8.3514 8404.0078
