~Version Information

 VERS.                2.00:   CWLS log ASCII Standard -VERSION 2.00

 WRAP.                  NO:   One line per frame      

~Well Information Block

#MNEM.UNIT                     Data                     Description

#----.----   ----------------------------------------   -------------------------------

 STRT.M                                     5560.9236 : Starting Depth

 STOP.M                                     6796.2018 : Ending Depth

 STEP.M                                        0.0762 : Level Spacing

 NULL.                                      -999.2500 : Absent Value

 COMP.       TOTAL                                    : Company

 WELL.       ABD001                                   : Well

 FLD .       ABSHERON                                 : Field

 LOC .       HEYDAR ALIYEV                            : Location

 PROV.                                                : Province

 CTRY.       AZERBAIJAN                               : Country

 SRVC.       Baker Hughes                             : Service Company

 DATE.       22-APR-2019                              : Log Date

 UWI .                                                : Unique Well ID

 LIC .                                                : License Number

~Curve Information Block

#MNEM    .UNIT        API Codes     Curve Description

#--------.--------   LG--CV-CL--M   ---------------------------------------------------

 DEPT    .M          99 995 99  1 : Depth

 ATAV    .DB/F       81 995 99  1 : Average attenuation

 ATC1    .DB/F       81 995 99  1 : Attenuation pad 1

 ATC2    .DB/F       81 995 99  1 : Attenuation pad 2

 ATC3    .DB/F       81 995 99  1 : Attenuation pad 3

 ATC4    .DB/F       81 995 99  1 : Attenuation pad 4

 ATC5    .DB/F       81 995 99  1 : Attenuation pad 5

 ATC6    .DB/F       81 995 99  1 : Attenuation pad 6

 ATMN    .DB/F       81 995 99  1 : Attenuation minimum

 ATMX    .DB/F       81 995 99  1 : Attenuation maximum

 CCL     .MV         86 150  1  1 : Casing collar locator

 DEVOD   .DEG        75 995 99  1 : Deviation

 DTMN    .US/F       99 995 99  1 : Minimal slowness

 DTMX    .US/F       99 995 99  1 : Maximal slowness

 GR      .GAPI       30 310  1  1 : Gamma ray

 RBSB    .DEG        75 631  1  1 : Relative bearing (relative to borehole low side) for SBT

 SPD     .M/MN       99 636 99  1 : Speed

 TTEN    .LBF        99 635 99  1 : Total tension

~Parameter Information Block

#MNEM.UNIT                     Value                    Description

#----.----   ----------------------------------------   -------------------------------

 HIDE.       SEGMENTED BOND TOOL^S                    : Header Identifier

 HID1.       GAMMA RAY LOG                            : Header Identifier

 HID2.       CASING COLLAR LOCATOR                    : Header Identifier

 HID3.       VARIABLE DENSITY LOG                     : Header Identifier

 HID4.       COMPENSATED Z-DENSILOG^S                 : Header Identifier

 HID5.       COMPENSATED NEUTRON LOG                  : Header Identifier

 HID6.       TTRM SUB^S                               : N/A

 HID7.       *** 7" LINER ***                         : N/A

 CMT1.       FINAL PRINT                              : Comment 1  

 CMT2.       1:200                                    : Comment 2  

 CMT3.       1:500                                    : Comment 3  

 LATI.       39DEG56'09.3"N                           : Latitude

 LONG.       50DEG52'53.8"E                           : Longitude

 OS2 .       SBT/GR/CCL/VDL                           : Other Services Line 2

 OS3 .       ZDL/CN/GR/TTRM                           : Other Services Line 3

 PDAT.       MSL                                      : Permanent Datum

 EPD .M      0                                        : Elevation Of Perm. Datum

 LMF .       DF                                       : Log Measured From

 APD .M      25.7                                     : Above Permanent Datum

 DMF .       DF                                       : Drilling Measured From

 EKB .M      25.7                                     : Elevation Of Kelly Bushing

 EDF .M      25.7                                     : Elevation Of Derrick Floor

 EGL .M      468.3                                    : Elevation Of Ground Level

 RUN .       3.1.1                                    : Run Number

 TRIP.       1                                        : Trip Number

 SON .       AZ19007                                  : Service Order Number

 TDD .M      7411                                     : Total Depth - Driller

 TLAB.       15:15 22-APR-2019                        : Time Logger At Bottom

 TLAS.       XX:XX 23-JAN-2019                        : N/A

 OPRT.       XX HOURS                                 : N/A

 DFT .       OBM                                      : Drilling Fluid Type

 DFD .LB/G   1.6                                      : Drilling Fluid Density

 BSAL.PPM    42500                                    : Borehole Salinity

 WHP .PSI    0                                        : N/A

 MHD .DEG    31.62                                    : Maximum Hole Deviation

 NLS .M/MN   9                                        : Nominal Logging Speed

 REFL.       NA                                       : N/A

 REFD.       NA                                       : N/A

 LUN .       9037                                     : Logging Unit Number

 LUL .       AZERBAIJAN                               : Logging Unit Location

 ENGI.       M.SERROUR/M.GULMAMMADOV                  : Engineer's Name

 WITN.       ADRIEN P. / KAMAL K.                     : Witness' Name

 TSTR.       SBT/GR/CCL//ZDL/CN/TTRM/                 : Title Service Mnemonic

 TSTG.       NA                                       : Title Service Mnemonic

 STUS.       FINAL                                    : Status

 LCNM.       Baker Hughes                             : Logging Company Name

 LCC .       150                                      : Logging Company Code

 OPMD.       CH.WIRE                                  : Operation Mode

 PANA.       M.SERROUR/M.GULMAMMADOV                  : Processing Analyst

 PCON.       Baker Hughes                             : Processing Contractor

 APIN.                                                : API Serial Number

~Other information

1.  LOG OBJECTIVE IS TO EVALUATE CEMENT INTEGRITY BEHIND 10" & 13.375" CASING   

2.   LOG WAS NOT CORRELATED AS PER CUSTOMER REQUEST                             

3.  TOOLSTRING RUN AS PER TOOLSKETCH:                                           

     CH/SWVL/CCL/GR/EL/KNCK/CENT/SBT/CENT/VDL/CENT                              

     WITH TWO GEMOCO CENTRALIZERS ON SBT MANDREL AS INDICATED.                  

4.  MAX CABLEHEAD THERMOMETERS READINGS ARE: 89 DEG C, 89 DEG C, 90 DEG C       

5. NORMALIZATION FACTORS FOR 10 IN LINER WERE TAKEN FROM MAIN LOG OVER          

    4900 - 4750 M INTERVAL                                                      

   NORMALIZATION FACTORS FOR 13.375 IN CASING WERE TAKEN FROM MAIN LOG OVER     

   3770 - 3635 M INTERVAL                                                       

6. MUD REPORT                                                                   

     MUD DETAILS:                                                               

     MUD TYPE: OBM                                                              

     MUD WEIGHT : 1.83 SG                                                       

7.  SBT CEMENT MAP PROCESSED USING THE FOLLOWING PARAMETERS;                    

    FOR 10" LINER:                                                              

    CASING ID:              8.624 IN                                            

    COMPR STR:           1148 PSI (AS PER CUSTOMER REQUEST)                     

    CSG WEIGHT:           68.7  LB/FT                                           

    CSG THICKNESS:     0.688 IN                                                 

    FREE PIPE ATTN:     6.480 DB/F                                              

    FOR 13.375" CASING:                                                         

    CASING ID:               12.347 IN                                          

    COMPR STR:            615 PSI (AS PER CUSTOMER REQUEST)                     

    CSG WEIGHT:           72  LB/FT                                             

    CSG THICKNESS:     0.514 IN                                                 

    FREE PIPE ATTN:     3.285 DB/F                                              

 8. ATTENUATION PARAMETERS OF CEMENT MAP:                                       

   FOR 10" LINER                                                                

    0%   -  6.480 DB/FT                                                         

    20%  - 7.389 DB/F                                                           

    80%  - 10.117 DB/FT                                                         

    100% - 10.980 DB/FT                                                         

   FOR 13.375" CASING                                                           

    0%   -  3.285 DB/FT                                                         

    20%  - 4.181 DB/F                                                           

    80%  - 6.869 DB/FT                                                          

    100% - 7.785 DB/FT                                                          

9.  MAXIMUM DEVIATION OVER THE LOGGED INTERVAL IS 30.8 DEG AT 5040.0 M          

     ACCORDING TO DRILLERS SURVEY                                               

10. GR PEAK ON 10 IN LINER MAIN LOG AT 4619 M WAS DUE TO LOG STOP AND CONTINUE  

#  Curve Data

~A DEPT      ATAV      ATC1      ATC2      ATC3      ATC4      ATC5      ATC6      ATMN      ATMX      CCL       DEVOD     DTMN      DTMX      GR        RBSB      SPD       TTEN     
# ...
 6541.6176   11.1685    9.7591    9.4547   12.7825   13.3799   10.4723   11.1625    9.4547   13.3799    0.0000   28.6490   56.4940   60.1450   30.0928  228.6422    8.0305 8212.5859
 6541.6938   11.1821    9.7954    9.6337   12.8460   13.1927   10.4656   11.1593    9.6337   13.1927    0.0000   28.6434   56.3019   60.3372   29.8666  228.6536    8.0430 8206.7100
 6541.7700   11.0832    9.7615    9.7022   12.7703   12.8787   10.3973   10.9892    9.7022   12.8787    3.0000   28.6323   56.3019   61.1058   29.7276  228.6393    8.0505 8200.5166
 6541.8462   10.9141    9.6766    9.6552   12.5697   12.5510   10.2969   10.7352    9.6552   12.5697    1.0000   28.6161   56.4940   60.1450   29.6428  228.6125    8.0538 8196.2891
 6541.9224   10.7368    9.5675    9.5276   12.3027   12.3289   10.1979   10.4963    9.5276   12.3289    0.0000   28.6003   56.4940   60.1450   29.6061  228.5822    8.0579 8194.8096
 6541.9986   10.6074    9.4681    9.3628   12.0655   12.2851   10.1313   10.3314    9.3628   12.2851    0.0000   28.5929   56.4940   60.5293   29.6390  228.5492    8.0663 8195.3887
 6542.0748   10.5492    9.3985    9.1984   11.9324   12.3992   10.1030   10.2634    9.1984   12.3992    0.0000   28.5998   55.9176   60.5293   29.8460  228.5074    8.0793 8196.9219
 6542.1510   10.5478    9.3609    9.0586   11.9239   12.5729   10.0952   10.2750    9.0586   12.5729    0.0000   28.6235   56.1097   61.1058   30.3039  228.4483    8.0913 8198.4336
 6542.2272   10.5655    9.3511    8.9576   11.9914   12.6783   10.0927   10.3220    8.9576   12.6783    2.0000   28.6616   56.4940   60.5293   30.9661  228.3674    8.0971 8199.3252
 6542.3034   10.5760    9.3550    8.9074   12.0808   12.6342   10.1010   10.3777    8.9074   12.6342    2.0000   28.7061   56.3019   60.1450   31.7394  228.2670    8.0926 8199.3252
 6542.3796   10.5854    9.3585    8.9354   12.1811   12.4541   10.1243   10.4591    8.9354   12.4541    0.0000   28.7478   56.6862   61.1058   32.5458  228.1565    8.0791 8198.5801
 6542.4558   10.6260    9.3598    9.0647   12.3286   12.2194   10.1734   10.6103    9.0647   12.3286    0.0000   28.7798   54.7646   60.7215   33.2816  228.0459    8.0603 8197.9551
 6542.5320   10.7235    9.3700    9.3021   12.5708   12.0169   10.2354   10.8457    9.3021   12.5708    0.0000   28.7980   54.5725   60.3372   33.8389  227.9422    8.0419 8198.8389
 6542.6082   10.8697    9.4063    9.6090   12.9124   11.9024   10.2812   11.1068    9.4063   12.9124    2.0000   28.7999   54.1882   60.5293   34.1552  227.8466    8.0285 8202.3418
 6542.6844   11.0222    9.4837    9.9098   13.2724   11.8948   10.2868   11.2854    9.4837   13.2724    4.0000   28.7862   54.1882   60.5293   34.2533  227.7534    8.0245 8208.4824
 6542.7606   11.1323    9.5962   10.1234   13.5424   11.9597   10.2582   11.3141    9.5962   13.5424    3.0000   28.7620   54.5725   60.1450   34.1802  227.6490    8.0298 8216.0371
 6542.8368   11.1728    9.7177   10.2062   13.6458   12.0528   10.2171   11.1975    9.7177   13.6458    0.0000   28.7332   54.1882   60.5293   33.9570  227.5245    8.0408 8222.9531
 6542.9130   11.1559    9.8351   10.1706   13.5820   12.1516   10.2128   10.9833    9.8351   13.5820    3.0000   28.7046   55.1489   60.1450   33.5596  227.3838    8.0509 8227.3301
 6542.9892   11.1191    9.9484   10.0663   13.4142   12.2487   10.2850   10.7522    9.9484   13.4142    0.0000   28.6800   56.4940   60.9136   32.9674  227.2405    8.0560 8228.6602
 6543.0654   11.0846   10.0511    9.9301   13.2230   12.3351   10.4081   10.5604    9.9301   13.2230    0.0000   28.6650   56.6862   60.1450   32.1875  227.1072    8.0538 8227.6523
 6543.1416   11.0477   10.1241    9.7832   13.0520   12.3857   10.5246   10.4167    9.7832   13.0520    3.0000   28.6640   55.9176   60.5293   31.2453  226.9904    8.0469 8225.7734
 6543.2178   10.9959   10.1390    9.6400   12.9320   12.3626   10.5857   10.3160    9.6400   12.9320    0.0000   28.6769   55.7254   60.1450   30.2030  226.8866    8.0389 8224.6035
 6543.2940   10.9216   10.0767    9.5177   12.8893   12.2662   10.5433   10.2364    9.5177   12.8893    0.0000   28.6986   56.8783   61.1058   29.1367  226.7873    8.0326 8225.0312
 6543.3702   10.8280    9.9652    9.4466   12.9160   12.1239   10.3806   10.1358    9.4466   12.9160    0.0000   28.7220   56.6862   60.5293   28.1514  226.6860    8.0286 8226.8604
 6543.4464   10.7179    9.8600    9.4482   12.9391   11.9525   10.1164    9.9911    9.4482   12.9391    3.0000   28.7419   56.4940   60.3372   27.3421  226.5845    8.0256 8228.9707
 6543.5226   10.5863    9.8120    9.5024   12.8521   11.7591    9.8017    9.7903    9.5024   12.8521    0.0000   28.7546   56.1097   60.3372   26.7230  226.4925    8.0209 8229.8916
 6543.5988   10.4264    9.8398    9.5502   12.5559   11.5602    9.5219    9.5308    9.5219   12.5559    1.0000   28.7588   56.1097   59.9529   26.2751  226.4188    8.0156 8228.9551
 6543.6750   10.2381    9.9099    9.5221   12.0254   11.3761    9.3556    9.2398    9.2398   12.0254    2.0000   28.7579   56.3019   59.7607   26.0188  226.3530    8.0135 8226.8438
 6543.7512   10.0060    9.9219    9.3563   11.2946   11.2069    9.3070    8.9495    8.9495   11.2946    3.0000   28.7589   55.5332   60.1450   25.9463  226.2693    8.0194 8225.1943
 6543.8274    9.7207    9.7969    9.0480   10.4747   11.0319    9.3140    8.6588    8.6588   11.0319    0.0000   28.7655   55.5332   60.1450   25.9387  226.1444    8.0330 8225.3584
 6543.9036    9.4265    9.5557    8.7035    9.7880   10.8376    9.3057    8.3687    8.3687   10.8376    0.0000   28.7746   55.7254   60.1450   25.8740  225.9765    8.0509 8227.7441
 6543.9798    9.2402    9.3797    8.5564    9.4942   10.6927    9.2051    8.1130    8.1130   10.6927    0.0000   28.7811   55.7254   60.1450   25.7195  225.7847    8.0668 8231.6660
 6544.0560    9.3336    9.5627    8.8510    9.7936   10.8001    8.9624    8.0315    8.0315   10.8001    4.0000   28.7825   55.5332   62.2587   25.4342  225.5996    8.0762 8235.5840
 6544.1322    9.7993   10.2796    9.6177   10.7016   11.3290    8.5954    8.2722    8.2722   11.3290    0.0000   28.7803   54.9568   62.2587   24.9782  225.4466    8.0766 8238.0039
 6544.2084   10.6059   11.4483   10.7184   12.0539   12.3149    8.2421    8.8580    8.2421   12.3149    0.0000   28.7776   55.1489   61.2979   24.3626  225.3345    8.0696 8238.0215
 6544.2846   11.6517   12.8060   11.9895   13.6499   13.6975    8.1378    9.6292    8.1378   13.6975    0.0000   28.7754   54.1882   62.0666   23.6432  225.2513    8.0593 8235.4521
 6544.3608   12.6980   13.8869   13.1957   15.2393   15.1426    8.4005   10.3232    8.4005   15.2393    0.0000   28.7729   52.8431   64.9489   22.9694  225.1714    8.0500 8230.7812
 6544.4370   13.4362   14.2735   14.0203   16.4841   16.1847    8.9583   10.6960    8.9583   16.4841    3.0000   28.7704   51.8823   65.1411   22.5118  225.0652    8.0431 8225.0186
 6544.5132   13.6319   13.8335   14.2197   17.0847   16.4360    9.5763   10.6411    9.5763   17.0847   12.0000   28.7685   59.9529   64.5646   22.3565  224.9181    8.0397 8219.6338
 6544.5894   13.2353   12.7774   13.7140   16.9262   15.7960    9.9676   10.2309    9.9676   16.9262   30.0000   28.7684   51.1136   64.3725   22.4865  224.7312    8.0405 8216.3076
 6544.6656   12.3841   11.4865   12.6106   16.0989   14.5021    9.9278    9.6786    9.6786   16.0989   19.0000   28.7721   49.7686   66.6783   22.8426  224.5197    8.0461 8216.4541
 6544.7418   11.3391   10.3561   11.1666   14.8226   13.0304    9.4702    9.1884    9.1884   14.8226   10.0000   28.7811   49.3842   60.1450   23.3499  224.3058    8.0541 8220.3740
 6544.8180   10.3656    9.6085    9.6850   13.3851   11.8246    8.8047    8.8859    8.8047   13.3851    6.0000   28.7948   54.9568   60.3372   23.8923  224.1122    8.0599 8226.5508
 6544.8942    9.6333    9.2357    8.4374   12.0440   11.1195    8.2171    8.7462    8.2171   12.0440    0.0000   28.8111   56.6862   59.5685   24.3220  223.9545    8.0601 8232.4434
 6544.9704    9.2048    9.0984    7.6527   10.9983   10.9128    7.8935    8.6734    7.6527   10.9983    0.0000   28.8253   56.3019   61.1058   24.5420  223.8378    8.0544 8235.8867
