~Version Information

 VERS.                2.00:   CWLS log ASCII Standard -VERSION 2.00

 WRAP.                  NO:   One line per frame      

~Well Information Block

#MNEM.UNIT                     Data                     Description

#----.----   ----------------------------------------   -------------------------------

 STRT.M                                     5560.9236 : Starting Depth

 STOP.M                                     6796.2018 : Ending Depth

 STEP.M                                        0.0762 : Level Spacing

 NULL.                                      -999.2500 : Absent Value

 COMP.       TOTAL                                    : Company

 WELL.       ABD001                                   : Well

 FLD .       ABSHERON                                 : Field

 LOC .       HEYDAR ALIYEV                            : Location

 PROV.                                                : Province

 CTRY.       AZERBAIJAN                               : Country

 SRVC.       Baker Hughes                             : Service Company

 DATE.       22-APR-2019                              : Log Date

 UWI .                                                : Unique Well ID

 LIC .                                                : License Number

~Curve Information Block

#MNEM    .UNIT        API Codes     Curve Description

#--------.--------   LG--CV-CL--M   ---------------------------------------------------

 DEPT    .M          99 995 99  1 : Depth

 ATAV    .DB/F       81 995 99  1 : Average attenuation

 ATC1    .DB/F       81 995 99  1 : Attenuation pad 1

 ATC2    .DB/F       81 995 99  1 : Attenuation pad 2

 ATC3    .DB/F       81 995 99  1 : Attenuation pad 3

 ATC4    .DB/F       81 995 99  1 : Attenuation pad 4

 ATC5    .DB/F       81 995 99  1 : Attenuation pad 5

 ATC6    .DB/F       81 995 99  1 : Attenuation pad 6

 ATMN    .DB/F       81 995 99  1 : Attenuation minimum

 ATMX    .DB/F       81 995 99  1 : Attenuation maximum

 CCL     .MV         86 150  1  1 : Casing collar locator

 DEVOD   .DEG        75 995 99  1 : Deviation

 DTMN    .US/F       99 995 99  1 : Minimal slowness

 DTMX    .US/F       99 995 99  1 : Maximal slowness

 GR      .GAPI       30 310  1  1 : Gamma ray

 RBSB    .DEG        75 631  1  1 : Relative bearing (relative to borehole low side) for SBT

 SPD     .M/MN       99 636 99  1 : Speed

 TTEN    .LBF        99 635 99  1 : Total tension

~Parameter Information Block

#MNEM.UNIT                     Value                    Description

#----.----   ----------------------------------------   -------------------------------

 HIDE.       SEGMENTED BOND TOOL^S                    : Header Identifier

 HID1.       GAMMA RAY LOG                            : Header Identifier

 HID2.       CASING COLLAR LOCATOR                    : Header Identifier

 HID3.       VARIABLE DENSITY LOG                     : Header Identifier

 HID4.       COMPENSATED Z-DENSILOG^S                 : Header Identifier

 HID5.       COMPENSATED NEUTRON LOG                  : Header Identifier

 HID6.       TTRM SUB^S                               : N/A

 HID7.       *** 7" LINER ***                         : N/A

 CMT1.       FINAL PRINT                              : Comment 1  

 CMT2.       1:200                                    : Comment 2  

 CMT3.       1:500                                    : Comment 3  

 LATI.       39DEG56'09.3"N                           : Latitude

 LONG.       50DEG52'53.8"E                           : Longitude

 OS2 .       SBT/GR/CCL/VDL                           : Other Services Line 2

 OS3 .       ZDL/CN/GR/TTRM                           : Other Services Line 3

 PDAT.       MSL                                      : Permanent Datum

 EPD .M      0                                        : Elevation Of Perm. Datum

 LMF .       DF                                       : Log Measured From

 APD .M      25.7                                     : Above Permanent Datum

 DMF .       DF                                       : Drilling Measured From

 EKB .M      25.7                                     : Elevation Of Kelly Bushing

 EDF .M      25.7                                     : Elevation Of Derrick Floor

 EGL .M      468.3                                    : Elevation Of Ground Level

 RUN .       3.1.1                                    : Run Number

 TRIP.       1                                        : Trip Number

 SON .       AZ19007                                  : Service Order Number

 TDD .M      7411                                     : Total Depth - Driller

 TLAB.       15:15 22-APR-2019                        : Time Logger At Bottom

 TLAS.       XX:XX 23-JAN-2019                        : N/A

 OPRT.       XX HOURS                                 : N/A

 DFT .       OBM                                      : Drilling Fluid Type

 DFD .LB/G   1.6                                      : Drilling Fluid Density

 BSAL.PPM    42500                                    : Borehole Salinity

 WHP .PSI    0                                        : N/A

 MHD .DEG    31.62                                    : Maximum Hole Deviation

 NLS .M/MN   9                                        : Nominal Logging Speed

 REFL.       NA                                       : N/A

 REFD.       NA                                       : N/A

 LUN .       9037                                     : Logging Unit Number

 LUL .       AZERBAIJAN                               : Logging Unit Location

 ENGI.       M.SERROUR/M.GULMAMMADOV                  : Engineer's Name

 WITN.       ADRIEN P. / KAMAL K.                     : Witness' Name

 TSTR.       SBT/GR/CCL//ZDL/CN/TTRM/                 : Title Service Mnemonic

 TSTG.       NA                                       : Title Service Mnemonic

 STUS.       FINAL                                    : Status

 LCNM.       Baker Hughes                             : Logging Company Name

 LCC .       150                                      : Logging Company Code

 OPMD.       CH.WIRE                                  : Operation Mode

 PANA.       M.SERROUR/M.GULMAMMADOV                  : Processing Analyst

 PCON.       Baker Hughes                             : Processing Contractor

 APIN.                                                : API Serial Number

~Other information

1.  LOG OBJECTIVE IS TO EVALUATE CEMENT INTEGRITY BEHIND 10" & 13.375" CASING   

2.   LOG WAS NOT CORRELATED AS PER CUSTOMER REQUEST                             

3.  TOOLSTRING RUN AS PER TOOLSKETCH:                                           

     CH/SWVL/CCL/GR/EL/KNCK/CENT/SBT/CENT/VDL/CENT                              

     WITH TWO GEMOCO CENTRALIZERS ON SBT MANDREL AS INDICATED.                  

4.  MAX CABLEHEAD THERMOMETERS READINGS ARE: 89 DEG C, 89 DEG C, 90 DEG C       

5. NORMALIZATION FACTORS FOR 10 IN LINER WERE TAKEN FROM MAIN LOG OVER          

    4900 - 4750 M INTERVAL                                                      

   NORMALIZATION FACTORS FOR 13.375 IN CASING WERE TAKEN FROM MAIN LOG OVER     

   3770 - 3635 M INTERVAL                                                       

6. MUD REPORT                                                                   

     MUD DETAILS:                                                               

     MUD TYPE: OBM                                                              

     MUD WEIGHT : 1.83 SG                                                       

7.  SBT CEMENT MAP PROCESSED USING THE FOLLOWING PARAMETERS;                    

    FOR 10" LINER:                                                              

    CASING ID:              8.624 IN                                            

    COMPR STR:           1148 PSI (AS PER CUSTOMER REQUEST)                     

    CSG WEIGHT:           68.7  LB/FT                                           

    CSG THICKNESS:     0.688 IN                                                 

    FREE PIPE ATTN:     6.480 DB/F                                              

    FOR 13.375" CASING:                                                         

    CASING ID:               12.347 IN                                          

    COMPR STR:            615 PSI (AS PER CUSTOMER REQUEST)                     

    CSG WEIGHT:           72  LB/FT                                             

    CSG THICKNESS:     0.514 IN                                                 

    FREE PIPE ATTN:     3.285 DB/F                                              

 8. ATTENUATION PARAMETERS OF CEMENT MAP:                                       

   FOR 10" LINER                                                                

    0%   -  6.480 DB/FT                                                         

    20%  - 7.389 DB/F                                                           

    80%  - 10.117 DB/FT                                                         

    100% - 10.980 DB/FT                                                         

   FOR 13.375" CASING                                                           

    0%   -  3.285 DB/FT                                                         

    20%  - 4.181 DB/F                                                           

    80%  - 6.869 DB/FT                                                          

    100% - 7.785 DB/FT                                                          

9.  MAXIMUM DEVIATION OVER THE LOGGED INTERVAL IS 30.8 DEG AT 5040.0 M          

     ACCORDING TO DRILLERS SURVEY                                               

10. GR PEAK ON 10 IN LINER MAIN LOG AT 4619 M WAS DUE TO LOG STOP AND CONTINUE  

#  Curve Data

~A DEPT      ATAV      ATC1      ATC2      ATC3      ATC4      ATC5      ATC6      ATMN      ATMX      CCL       DEVOD     DTMN      DTMX      GR        RBSB      SPD       TTEN     
# ...
 5732.3736    3.5529    3.7927    3.0000    5.1429    2.6312    3.6202    3.1303    2.6312    5.1429    2.0000   28.5857   53.8038   60.7215   20.7898  354.5954    7.7928 7098.1729
 5732.4498    3.5740    3.8663    3.0133    5.0823    2.5898    3.6819    3.2103    2.5898    5.0823    0.0000   28.6079   53.4195   61.1058   20.7575  354.5218    7.7884 7100.1489
 5732.5260    3.6084    3.9370    3.0476    5.0403    2.5175    3.7872    3.3208    2.5175    5.0403    3.0000   28.6244   53.8038   61.8744   20.5484  354.4207    7.7834 7103.8677
 5732.6022    3.6404    3.9986    3.0893    5.0179    2.4374    3.8860    3.4133    2.4374    5.0179   17.0000   28.6373   53.8038   60.7215   20.2217  354.2784    7.7785 7108.8872
 5732.6784    3.6523    4.0451    3.1226    5.0029    2.3759    3.9242    3.4430    2.3759    5.0029    0.0000   28.6481   53.6117   60.5293   19.8883  354.1051    7.7718 7114.2861
 5732.7546    3.6402    4.0677    3.1402    4.9953    2.3567    3.8791    3.4023    2.3567    4.9953   14.0000   28.6555   53.4195   60.5293   19.6206  353.9230    7.7612 7118.5190
 5732.8308    3.6168    4.0693    3.1484    5.0050    2.3778    3.7788    3.3213    2.3778    5.0050    0.0000   28.6570   53.6117   60.9136   19.4536  353.7552    7.7470 7120.0332
 5732.9070    3.6023    4.0733    3.1536    5.0391    2.4236    3.6805    3.2441    2.4236    5.0391    1.0000   28.6526   54.5725   61.6823   19.2867  353.6172    7.7329 7118.2061
 5732.9832    3.6090    4.0996    3.1455    5.0794    2.4683    3.6469    3.2142    2.4683    5.0794    5.0000   28.6459   54.1882   61.6823   18.9763  353.5142    7.7222 7113.6953
 5733.0594    3.6304    4.1467    3.1004    5.0950    2.4924    3.7080    3.2402    2.4924    5.0950    5.0000   28.6422   53.9960   60.7215   18.4295  353.4425    7.7142 7107.9492
 5733.1356    3.6540    4.1928    3.0083    5.0748    2.4975    3.8498    3.3007    2.4975    5.0748    1.0000   28.6455   53.6117   60.9136   17.6764  353.3951    7.7065 7102.5669
 5733.2118    3.6775    4.2169    2.8922    5.0517    2.5115    4.0308    3.3619    2.5115    5.0517   20.0000   28.6563   53.6117   61.4901   16.8571  353.3653    7.6975 7098.9131
 5733.2880    3.7112    4.2176    2.8104    5.0715    2.5657    4.2066    3.3956    2.5657    5.0715    0.0000   28.6711   53.6117   61.2979   16.1493  353.3500    7.6892 7097.7285
 5733.3642    3.7616    4.1944    2.8231    5.1520    2.6689    4.3407    3.3904    2.6689    5.1520    0.0000   28.6852   54.5725   62.2587   15.7199  353.3457    7.6853 7098.7539
 5733.4404    3.8184    4.1448    2.9298    5.2467    2.7929    4.4322    3.3642    2.7929    5.2467   12.0000   28.6947   53.8038   61.2979   15.6138  353.3464    7.6908 7100.7773
 5733.5166    3.8602    4.0751    3.0692    5.3007    2.8992    4.4833    3.3334    2.8992    5.3007    0.0000   28.6989   53.9960   61.4901   15.7659  353.3474    7.7085 7102.6885
 5733.5928    3.8707    3.9987    3.1722    5.3077    2.9684    4.4863    3.2912    2.9684    5.3077    8.0000   28.6997   53.9960   60.3372   16.0659  353.3476    7.7350 7103.9224
 5733.6690    3.8545    3.9294    3.2067    5.3010    3.0024    4.4548    3.2327    3.0024    5.3010    1.0000   28.6997   53.6117   61.2979   16.4543  353.3476    7.7602 7104.4961
 5733.7452    3.8270    3.8832    3.1873    5.3139    3.0021    4.4141    3.1613    3.0021    5.3139    0.0000   28.6997   54.3803   61.4901   16.9121  353.3476    7.7755 7104.5156
 5733.8214    3.8030    3.8678    3.1499    5.3571    2.9764    4.3776    3.0891    2.9764    5.3571   13.0000   28.6997   54.1882   62.2587   17.4208  353.3476    7.7787 7103.7734
 5733.8976    3.7889    3.8842    3.1200    5.3962    2.9284    4.3550    3.0498    2.9284    5.3962    7.0000   28.6989   54.3803   62.0666   17.8923  353.3474    7.7748 7101.9487
 5733.9738    3.7831    3.9238    3.1070    5.3914    2.8481    4.3481    3.0800    2.8481    5.3914    0.0000   28.6947   53.9960   59.7607   18.2011  353.3464    7.7713 7098.9546
 5734.0500    3.7787    3.9591    3.0981    5.3376    2.7384    4.3604    3.1789    2.7384    5.3376    0.0000   28.6852   53.9960   60.7215   18.2742  353.3457    7.7736 7095.4443
 5734.1262    3.7739    3.9587    3.0683    5.2710    2.6221    4.4057    3.3179    2.6221    5.2710   10.0000   28.6711   53.6117   60.7215   18.1871  353.3500    7.7819 7092.7788
 5734.2024    3.7756    3.9197    3.0121    5.2420    2.5275    4.4946    3.4580    2.5275    5.2420    0.0000   28.6564   53.6117   62.0666   18.0969  353.3638    7.7912 7092.2822
 5734.2786    3.7927    3.8581    2.9475    5.2759    2.4881    4.6142    3.5724    2.4881    5.2759    0.0000   28.6462   53.9960   62.6430   18.1345  353.3861    7.7934 7094.4541
 5734.3548    3.8141    3.7813    2.8844    5.3303    2.5067    4.7282    3.6539    2.5067    5.3303   21.0000   28.6444   53.9960   61.4901   18.3476  353.4105    7.7828 7098.4609
 5734.4310    3.8187    3.6918    2.8232    5.3380    2.5656    4.7893    3.7042    2.5656    5.3380    0.0000   28.6519   53.9960   60.7215   18.6612  353.4279    7.7600 7101.9858
 5734.5072    3.7914    3.5945    2.7603    5.2666    2.6470    4.7602    3.7196    2.6470    5.2666    0.0000   28.6653   53.9960   61.1058   18.9205  353.4325    7.7334 7102.2720
 5734.5834    3.7416    3.5022    2.7146    5.1467    2.7368    4.6495    3.6997    2.7146    5.1467    0.0000   28.6794   54.3803   61.2979   19.0537  353.4278    7.7113 7097.6147
 5734.6596    3.6917    3.4385    2.7242    5.0436    2.8118    4.4981    3.6342    2.7242    5.0436    0.0000   28.6893   53.8038   61.2979   19.1312  353.4227    7.6983 7089.0146
 5734.7358    3.6634    3.4246    2.8120    5.0087    2.8590    4.3612    3.5150    2.8120    5.0087    0.0000   28.6935   54.3803   62.0666   19.2425  353.4236    7.6958 7080.0908
 5734.8120    3.6588    3.4595    2.9483    5.0303    2.8678    4.2843    3.3627    2.8678    5.0303    0.0000   28.6938   54.1882   61.4901   19.4913  353.4312    7.7021 7075.0000
 5734.8882    3.6648    3.5363    3.0765    5.0543    2.8241    4.2681    3.2296    2.8241    5.0543    0.0000   28.6932   53.8038   60.5293   19.8848  353.4390    7.7130 7076.1689
 5734.9644    3.6662    3.6337    3.1453    5.0452    2.7393    4.2827    3.1512    2.7393    5.0452    0.0000   28.6933   53.9960   61.1058   20.3106  353.4376    7.7241 7082.7119
 5735.0406    3.6582    3.7128    3.1365    5.0044    2.6573    4.3035    3.1348    2.6573    5.0044    0.0000   28.6944   54.3803   61.1058   20.6134  353.4222    7.7337 7090.9609
 5735.1168    3.6490    3.7502    3.0806    4.9675    2.6113    4.3167    3.1677    2.6113    4.9675    0.0000   28.6961   53.9960   60.9136   20.7299  353.3979    7.7443 7096.5669
 5735.1930    3.6550    3.7499    3.0411    4.9841    2.6237    4.3130    3.2181    2.6237    4.9841    6.0000   28.6978   53.8038   62.0666   20.7032  353.3736    7.7594 7096.4185
 5735.2692    3.6783    3.7249    3.0525    5.0572    2.6877    4.2929    3.2544    2.6877    5.0572    1.0000   28.6990   54.3803   61.8744   20.6550  353.3566    7.7790 7090.0928
 5735.3454    3.7054    3.6944    3.1053    5.1499    2.7608    4.2571    3.2647    2.7608    5.1499    4.0000   28.6996   53.9960   60.5293   20.6692  353.3491    7.7988 7080.0020
 5735.4216    3.7192    3.6735    3.1535    5.2284    2.8047    4.2015    3.2532    2.8047    5.2284    6.0000   28.6997   53.9960   60.3372   20.7303  353.3476    7.8118 7070.1514
 5735.4978    3.7166    3.6692    3.1560    5.2753    2.8113    4.1469    3.2411    2.8113    5.2753    0.0000   28.6997   54.1882   61.4901   20.7712  353.3476    7.8125 7064.3252
 5735.5740    3.7094    3.6850    3.1189    5.2930    2.7843    4.1246    3.2507    2.7843    5.2930    0.0000   28.7000   53.8038   60.9136   20.7864  353.3432    7.7996 7064.4102
 5735.6502    3.7100    3.7166    3.0749    5.2935    2.7435    4.1566    3.2750    2.7435    5.2935   27.0000   28.7016   53.8038   61.4901   20.7801  353.3207    7.7776 7069.9229
 5735.7264    3.7139    3.7296    3.0421    5.2696    2.7025    4.2498    3.2897    2.7025    5.2696    0.0000   28.7055   54.3803   61.8744   20.7796  353.2653    7.7549 7078.7510
