~Version Information

 VERS.                2.00:   CWLS log ASCII Standard -VERSION 2.00

 WRAP.                  NO:   One line per frame      

~Well Information Block

#MNEM.UNIT                     Data                     Description

#----.----   ----------------------------------------   -------------------------------

 STRT.M                                     5560.9236 : Starting Depth

 STOP.M                                     6796.2018 : Ending Depth

 STEP.M                                        0.0762 : Level Spacing

 NULL.                                      -999.2500 : Absent Value

 COMP.       TOTAL                                    : Company

 WELL.       ABD001                                   : Well

 FLD .       ABSHERON                                 : Field

 LOC .       HEYDAR ALIYEV                            : Location

 PROV.                                                : Province

 CTRY.       AZERBAIJAN                               : Country

 SRVC.       Baker Hughes                             : Service Company

 DATE.       22-APR-2019                              : Log Date

 UWI .                                                : Unique Well ID

 LIC .                                                : License Number

~Curve Information Block

#MNEM    .UNIT        API Codes     Curve Description

#--------.--------   LG--CV-CL--M   ---------------------------------------------------

 DEPT    .M          99 995 99  1 : Depth

 ATAV    .DB/F       81 995 99  1 : Average attenuation

 ATC1    .DB/F       81 995 99  1 : Attenuation pad 1

 ATC2    .DB/F       81 995 99  1 : Attenuation pad 2

 ATC3    .DB/F       81 995 99  1 : Attenuation pad 3

 ATC4    .DB/F       81 995 99  1 : Attenuation pad 4

 ATC5    .DB/F       81 995 99  1 : Attenuation pad 5

 ATC6    .DB/F       81 995 99  1 : Attenuation pad 6

 ATMN    .DB/F       81 995 99  1 : Attenuation minimum

 ATMX    .DB/F       81 995 99  1 : Attenuation maximum

 CCL     .MV         86 150  1  1 : Casing collar locator

 DEVOD   .DEG        75 995 99  1 : Deviation

 DTMN    .US/F       99 995 99  1 : Minimal slowness

 DTMX    .US/F       99 995 99  1 : Maximal slowness

 GR      .GAPI       30 310  1  1 : Gamma ray

 RBSB    .DEG        75 631  1  1 : Relative bearing (relative to borehole low side) for SBT

 SPD     .M/MN       99 636 99  1 : Speed

 TTEN    .LBF        99 635 99  1 : Total tension

~Parameter Information Block

#MNEM.UNIT                     Value                    Description

#----.----   ----------------------------------------   -------------------------------

 HIDE.       SEGMENTED BOND TOOL^S                    : Header Identifier

 HID1.       GAMMA RAY LOG                            : Header Identifier

 HID2.       CASING COLLAR LOCATOR                    : Header Identifier

 HID3.       VARIABLE DENSITY LOG                     : Header Identifier

 HID4.       COMPENSATED Z-DENSILOG^S                 : Header Identifier

 HID5.       COMPENSATED NEUTRON LOG                  : Header Identifier

 HID6.       TTRM SUB^S                               : N/A

 HID7.       *** 7" LINER ***                         : N/A

 CMT1.       FINAL PRINT                              : Comment 1  

 CMT2.       1:200                                    : Comment 2  

 CMT3.       1:500                                    : Comment 3  

 LATI.       39DEG56'09.3"N                           : Latitude

 LONG.       50DEG52'53.8"E                           : Longitude

 OS2 .       SBT/GR/CCL/VDL                           : Other Services Line 2

 OS3 .       ZDL/CN/GR/TTRM                           : Other Services Line 3

 PDAT.       MSL                                      : Permanent Datum

 EPD .M      0                                        : Elevation Of Perm. Datum

 LMF .       DF                                       : Log Measured From

 APD .M      25.7                                     : Above Permanent Datum

 DMF .       DF                                       : Drilling Measured From

 EKB .M      25.7                                     : Elevation Of Kelly Bushing

 EDF .M      25.7                                     : Elevation Of Derrick Floor

 EGL .M      468.3                                    : Elevation Of Ground Level

 RUN .       3.1.1                                    : Run Number

 TRIP.       1                                        : Trip Number

 SON .       AZ19007                                  : Service Order Number

 TDD .M      7411                                     : Total Depth - Driller

 TLAB.       15:15 22-APR-2019                        : Time Logger At Bottom

 TLAS.       XX:XX 23-JAN-2019                        : N/A

 OPRT.       XX HOURS                                 : N/A

 DFT .       OBM                                      : Drilling Fluid Type

 DFD .LB/G   1.6                                      : Drilling Fluid Density

 BSAL.PPM    42500                                    : Borehole Salinity

 WHP .PSI    0                                        : N/A

 MHD .DEG    31.62                                    : Maximum Hole Deviation

 NLS .M/MN   9                                        : Nominal Logging Speed

 REFL.       NA                                       : N/A

 REFD.       NA                                       : N/A

 LUN .       9037                                     : Logging Unit Number

 LUL .       AZERBAIJAN                               : Logging Unit Location

 ENGI.       M.SERROUR/M.GULMAMMADOV                  : Engineer's Name

 WITN.       ADRIEN P. / KAMAL K.                     : Witness' Name

 TSTR.       SBT/GR/CCL//ZDL/CN/TTRM/                 : Title Service Mnemonic

 TSTG.       NA                                       : Title Service Mnemonic

 STUS.       FINAL                                    : Status

 LCNM.       Baker Hughes                             : Logging Company Name

 LCC .       150                                      : Logging Company Code

 OPMD.       CH.WIRE                                  : Operation Mode

 PANA.       M.SERROUR/M.GULMAMMADOV                  : Processing Analyst

 PCON.       Baker Hughes                             : Processing Contractor

 APIN.                                                : API Serial Number

~Other information

1.  LOG OBJECTIVE IS TO EVALUATE CEMENT INTEGRITY BEHIND 10" & 13.375" CASING   

2.   LOG WAS NOT CORRELATED AS PER CUSTOMER REQUEST                             

3.  TOOLSTRING RUN AS PER TOOLSKETCH:                                           

     CH/SWVL/CCL/GR/EL/KNCK/CENT/SBT/CENT/VDL/CENT                              

     WITH TWO GEMOCO CENTRALIZERS ON SBT MANDREL AS INDICATED.                  

4.  MAX CABLEHEAD THERMOMETERS READINGS ARE: 89 DEG C, 89 DEG C, 90 DEG C       

5. NORMALIZATION FACTORS FOR 10 IN LINER WERE TAKEN FROM MAIN LOG OVER          

    4900 - 4750 M INTERVAL                                                      

   NORMALIZATION FACTORS FOR 13.375 IN CASING WERE TAKEN FROM MAIN LOG OVER     

   3770 - 3635 M INTERVAL                                                       

6. MUD REPORT                                                                   

     MUD DETAILS:                                                               

     MUD TYPE: OBM                                                              

     MUD WEIGHT : 1.83 SG                                                       

7.  SBT CEMENT MAP PROCESSED USING THE FOLLOWING PARAMETERS;                    

    FOR 10" LINER:                                                              

    CASING ID:              8.624 IN                                            

    COMPR STR:           1148 PSI (AS PER CUSTOMER REQUEST)                     

    CSG WEIGHT:           68.7  LB/FT                                           

    CSG THICKNESS:     0.688 IN                                                 

    FREE PIPE ATTN:     6.480 DB/F                                              

    FOR 13.375" CASING:                                                         

    CASING ID:               12.347 IN                                          

    COMPR STR:            615 PSI (AS PER CUSTOMER REQUEST)                     

    CSG WEIGHT:           72  LB/FT                                             

    CSG THICKNESS:     0.514 IN                                                 

    FREE PIPE ATTN:     3.285 DB/F                                              

 8. ATTENUATION PARAMETERS OF CEMENT MAP:                                       

   FOR 10" LINER                                                                

    0%   -  6.480 DB/FT                                                         

    20%  - 7.389 DB/F                                                           

    80%  - 10.117 DB/FT                                                         

    100% - 10.980 DB/FT                                                         

   FOR 13.375" CASING                                                           

    0%   -  3.285 DB/FT                                                         

    20%  - 4.181 DB/F                                                           

    80%  - 6.869 DB/FT                                                          

    100% - 7.785 DB/FT                                                          

9.  MAXIMUM DEVIATION OVER THE LOGGED INTERVAL IS 30.8 DEG AT 5040.0 M          

     ACCORDING TO DRILLERS SURVEY                                               

10. GR PEAK ON 10 IN LINER MAIN LOG AT 4619 M WAS DUE TO LOG STOP AND CONTINUE  

#  Curve Data

~A DEPT      ATAV      ATC1      ATC2      ATC3      ATC4      ATC5      ATC6      ATMN      ATMX      CCL       DEVOD     DTMN      DTMX      GR        RBSB      SPD       TTEN     
# ...
 6623.9136   10.7827   10.5303   10.1073   11.5382   12.0341    9.9222   10.5643    9.9222   12.0341    0.0000   29.0412   55.9176   60.3372   40.1998  228.5197    8.7461 8378.6494
 6623.9898   10.7211   10.7819   10.2310   11.7354   11.3593    9.7277   10.4912    9.7277   11.7354    0.0000   29.0256   56.4940   60.5293   38.5523  228.3636    8.7166 8377.6289
 6624.0660   10.6038   10.9928   10.3252   11.8536   10.5447    9.4405   10.4659    9.4405   11.8536    1.0000   29.0041   56.3019   59.7607   36.3524  228.2521    8.6892 8377.1230
 6624.1422   10.4465   11.0979   10.3630   11.8941    9.7293    9.0902   10.5044    9.0902   11.8941    0.0000   28.9836   55.7254   60.1450   33.9046  228.1873    8.6751 8376.5791
 6624.2184   10.2752   11.0796   10.3418   11.8895    9.0502    8.7249   10.5648    8.7249   11.8895    0.0000   28.9690   56.1097   60.3372   31.4910  228.1591    8.6805 8375.4941
 6624.2946   10.1066   10.9603   10.2632   11.8721    8.5766    8.3925   10.5749    8.3925   11.8721    0.0000   28.9601   55.7254   61.2979   29.2790  228.1546    8.7031 8374.1270
 6624.3708    9.9474   10.7832   10.1301   11.8392    8.2878    8.1426   10.5015    8.1426   11.8392    0.0000   28.9519   55.7254   61.6823   27.3362  228.1664    8.7335 8373.3994
 6624.4470    9.7986   10.5718    9.9520   11.7750    8.1206    7.9973   10.3751    7.9973   11.7750    0.0000   28.9398   55.7254   61.1058   25.6360  228.1902    8.7589 8374.2861
 6624.5232    9.6581   10.3333    9.7494   11.6623    8.0149    7.9294   10.2592    7.9294   11.6623    0.0000   28.9241   55.7254   59.7607   24.0754  228.2212    8.7697 8377.4307
 6624.5994    9.5399   10.0882    9.5744   11.5190    7.9378    7.8931   10.2271    7.8931   11.5190    0.0000   28.9091   55.5332   60.3372   22.6128  228.2509    8.7637 8382.4326
 6624.6756    9.4647    9.8739    9.4850   11.3798    7.8955    7.8568   10.2970    7.8568   11.3798    0.0000   28.8999   55.5332   60.5293   21.3559  228.2691    8.7463 8387.6875
 6624.7518    9.4409    9.7254    9.4866   11.2737    7.9215    7.8281   10.4101    7.8281   11.2737    1.0000   28.8999   55.5332   62.2587   20.4588  228.2691    8.7262 8391.1777
 6624.8280    9.4603    9.6530    9.5475   11.1873    8.0287    7.8644   10.4812    7.8644   11.1873    4.0000   28.9085   55.5332   60.7215   20.0025  228.2499    8.7128 8391.4590
 6624.9042    9.5158    9.6229    9.6190   11.1110    8.2350    8.0292   10.4779    8.0292   11.1110    0.0000   28.9204   55.3411   59.7607   19.9387  228.2151    8.7101 8388.0352
 6624.9804    9.6092    9.5872    9.6706   11.0590    8.5779    8.3432   10.4171    8.3432   11.0590    0.0000   28.9298   55.1489   60.1450   20.1641  228.1715    8.7152 8381.7793
 6625.0566    9.7495    9.5198    9.7281   11.0809    9.0706    8.7551   10.3425    8.7551   11.0809    0.0000   28.9348   54.9568   60.3372   20.5578  228.1257    8.7207 8374.4863
 6625.1328    9.9336    9.4289    9.8208   11.2114    9.6896    9.1718   10.2793    9.1718   11.2114    0.0000   28.9383   55.7254   60.5293   21.0667  228.0806    8.7207 8368.3779
 6625.2090   10.1397    9.3584    9.9529   11.4422   10.3666    9.5118   10.2066    9.3584   11.4422    0.0000   28.9440   55.9176   60.9136   21.7295  228.0358    8.7131 8365.6943
 6625.2852   10.3332    9.3448   10.1002   11.7127   10.9960    9.7463   10.0994    9.3448   11.7127    2.0000   28.9545   54.7646   60.5293   22.6238  227.9880    8.7014 8367.6523
 6625.3614   10.4888    9.3951   10.2116   11.9766   11.5092    9.8970    9.9434    9.3951   11.9766    1.0000   28.9715   55.7254   60.5293   23.8125  227.9305    8.6916 8373.3994
 6625.4376   10.5886    9.4784   10.2103   12.2153   11.8867    9.9962    9.7445    9.4784   12.2153    0.0000   28.9938   54.5725   60.3372   25.2843  227.8576    8.6869 8380.3203
 6625.5138   10.6252    9.5492   10.0801   12.4205   12.1235   10.0375    9.5404    9.5404   12.4205    0.0000   29.0180   54.7646   60.3372   26.9821  227.7662    8.6861 8385.1582
 6625.5900   10.6014    9.5696    9.8741   12.5607   12.2118    9.9986    9.3935    9.3935   12.5607    1.0000   29.0400   54.9568   60.9136   28.7960  227.6590    8.6815 8385.6074
 6625.6662   10.5283    9.5513    9.6799   12.5826   12.1586    9.8860    9.3112    9.3112   12.5826    4.0000   29.0564   54.7646   60.1450   30.5653  227.5455    8.6649 8381.2412
 6625.7424   10.4167    9.5652    9.5698   12.4030   11.9802    9.7480    9.2342    9.2342   12.4030   11.0000   29.0658   55.1489   61.6823   32.1026  227.4405    8.6325 8373.6846
 6625.8186   10.3187    9.7273    9.6584   12.0465   11.7191    9.6647    9.0961    9.0961   12.0465   16.0000   29.0683   55.1489   61.1058   33.2158  227.3564    8.5897 8365.4531
 6625.8948   10.3766   10.1272   10.1146   11.7885   11.4867    9.7898    8.9531    8.9531   11.7885    0.0000   29.0648   54.7646   62.4509   33.7548  227.2989    8.5450 8359.1797
 6625.9710   10.7772   10.7353   11.0807   12.0326   11.4117   10.3700    9.0328    9.0328   12.0326    0.0000   29.0578   56.6862   59.9529   33.6694  227.2661    8.5102 8356.6982
 6626.0472   11.5811   11.3502   12.4960   13.0196   11.5687   11.4931    9.5593    9.5593   13.0196    1.0000   29.0515   55.7254   62.2587   32.9973  227.2513    8.4926 8358.1475
 6626.1234   12.6803   11.8168   14.0673   14.5898   11.9989   12.9956   10.6133   10.6133   14.5898    0.0000   29.0485   52.2666   61.8744   31.9415  227.2461    8.4942 8362.0029
 6626.1996   13.8903   12.1127   15.3837   16.2505   12.7693   14.6561   12.1695   12.1127   16.2505    0.0000   29.0472   51.3058   60.5293   30.8111  227.2399    8.5085 8366.1523
 6626.2758   14.9517   12.2351   15.9659   17.3432   13.9172   16.2528   13.9957   12.2351   17.3432    4.0000   29.0440   51.6901   67.2548   29.8904  227.2135    8.5274 8368.9014
 6626.3520   15.5952   12.1891   15.5133   17.4375   15.3059   17.4831   15.6427   12.1891   17.4831   38.0000   29.0361   53.2274   66.6783   29.3551  227.1483    8.5410 8369.4941
 6626.4282   15.6591   11.9906   14.1120   16.5384   16.6099   18.0476   16.6561   11.9906   18.0476   22.0000   29.0225   59.5685   63.9881   29.2913  227.0360    8.5431 8368.1240
 6626.5044   15.1468   11.6326   12.2273   15.0544   17.4421   17.7586   16.7657   11.6326   17.7586   12.0000   29.0044   53.9960   62.6430   29.6998  226.8847    8.5329 8366.0312
 6626.5806   14.2062   11.1058   10.4602   13.5457   17.5373   16.6325   15.9556   10.4602   17.5373    1.0000   28.9848   49.7686   59.9529   30.4470  226.7179    8.5173 8364.9424
 6626.6568   13.0773   10.4428    9.2859   12.4630   16.8895   14.9057   14.4767    9.2859   16.8895    0.0000   28.9671   51.4980   60.5293   31.3174  226.5662    8.5049 8366.0293
 6626.7330   11.9813    9.7224    8.8173   11.9135   15.7502   12.9399   12.7444    8.8173   15.7502    0.0000   28.9542   53.4195   59.5685   31.9894  226.4534    8.5038 8369.0107
 6626.8092   11.0812    9.0820    8.8908   11.7855   14.5058   11.0465   11.1763    8.8908   14.5058    0.0000   28.9479   56.8783   61.1058   32.1664  226.3857    8.5144 8372.6465
 6626.8854   10.4666    8.6557    9.2211   11.8829   13.4747    9.4677   10.0977    8.6557   13.4747    0.0000   28.9508   56.4940   60.1450   31.7566  226.3483    8.5300 8376.0879
 6626.9616   10.1234    8.4517    9.5184   12.0391   12.7437    8.3398    9.6479    8.3398   12.7437    3.0000   28.9647   56.3019   61.1058   30.8993  226.3162    8.5395 8378.9971
 6627.0378    9.9025    8.3535    9.5536   12.0877   12.1641    7.5888    9.6671    7.5888   12.1641    2.0000   28.9897   56.1097   61.4901   29.8872  226.2701    8.5364 8381.3506
 6627.1140    9.6912    8.3165    9.3442   11.9542   11.5654    7.0736    9.8931    7.0736   11.9542    0.0000   29.0234   56.3019   60.3372   29.0662  226.2082    8.5207 8383.0312
 6627.1902    9.4994    8.3317    9.0478   11.6668   10.9794    6.8164   10.1545    6.8164   11.6668    0.0000   29.0606   57.0705   60.9136   28.6873  226.1402    8.5005 8383.6543
 6627.2664    9.3843    8.3658    8.7909   11.3018   10.5773    6.9025   10.3674    6.9025   11.3018    0.0000   29.0938   56.4940   60.7215   28.8085  226.0775    8.4856 8382.8672
