~Version Information

 VERS.                2.00:   CWLS log ASCII Standard -VERSION 2.00

 WRAP.                  NO:   One line per frame      

~Well Information Block

#MNEM.UNIT                     Data                     Description

#----.----   ----------------------------------------   -------------------------------

 STRT.M                                     5560.9236 : Starting Depth

 STOP.M                                     6796.2018 : Ending Depth

 STEP.M                                        0.0762 : Level Spacing

 NULL.                                      -999.2500 : Absent Value

 COMP.       TOTAL                                    : Company

 WELL.       ABD001                                   : Well

 FLD .       ABSHERON                                 : Field

 LOC .       HEYDAR ALIYEV                            : Location

 PROV.                                                : Province

 CTRY.       AZERBAIJAN                               : Country

 SRVC.       Baker Hughes                             : Service Company

 DATE.       22-APR-2019                              : Log Date

 UWI .                                                : Unique Well ID

 LIC .                                                : License Number

~Curve Information Block

#MNEM    .UNIT        API Codes     Curve Description

#--------.--------   LG--CV-CL--M   ---------------------------------------------------

 DEPT    .M          99 995 99  1 : Depth

 ATAV    .DB/F       81 995 99  1 : Average attenuation

 ATC1    .DB/F       81 995 99  1 : Attenuation pad 1

 ATC2    .DB/F       81 995 99  1 : Attenuation pad 2

 ATC3    .DB/F       81 995 99  1 : Attenuation pad 3

 ATC4    .DB/F       81 995 99  1 : Attenuation pad 4

 ATC5    .DB/F       81 995 99  1 : Attenuation pad 5

 ATC6    .DB/F       81 995 99  1 : Attenuation pad 6

 ATMN    .DB/F       81 995 99  1 : Attenuation minimum

 ATMX    .DB/F       81 995 99  1 : Attenuation maximum

 CCL     .MV         86 150  1  1 : Casing collar locator

 DEVOD   .DEG        75 995 99  1 : Deviation

 DTMN    .US/F       99 995 99  1 : Minimal slowness

 DTMX    .US/F       99 995 99  1 : Maximal slowness

 GR      .GAPI       30 310  1  1 : Gamma ray

 RBSB    .DEG        75 631  1  1 : Relative bearing (relative to borehole low side) for SBT

 SPD     .M/MN       99 636 99  1 : Speed

 TTEN    .LBF        99 635 99  1 : Total tension

~Parameter Information Block

#MNEM.UNIT                     Value                    Description

#----.----   ----------------------------------------   -------------------------------

 HIDE.       SEGMENTED BOND TOOL^S                    : Header Identifier

 HID1.       GAMMA RAY LOG                            : Header Identifier

 HID2.       CASING COLLAR LOCATOR                    : Header Identifier

 HID3.       VARIABLE DENSITY LOG                     : Header Identifier

 HID4.       COMPENSATED Z-DENSILOG^S                 : Header Identifier

 HID5.       COMPENSATED NEUTRON LOG                  : Header Identifier

 HID6.       TTRM SUB^S                               : N/A

 HID7.       *** 7" LINER ***                         : N/A

 CMT1.       FINAL PRINT                              : Comment 1  

 CMT2.       1:200                                    : Comment 2  

 CMT3.       1:500                                    : Comment 3  

 LATI.       39DEG56'09.3"N                           : Latitude

 LONG.       50DEG52'53.8"E                           : Longitude

 OS2 .       SBT/GR/CCL/VDL                           : Other Services Line 2

 OS3 .       ZDL/CN/GR/TTRM                           : Other Services Line 3

 PDAT.       MSL                                      : Permanent Datum

 EPD .M      0                                        : Elevation Of Perm. Datum

 LMF .       DF                                       : Log Measured From

 APD .M      25.7                                     : Above Permanent Datum

 DMF .       DF                                       : Drilling Measured From

 EKB .M      25.7                                     : Elevation Of Kelly Bushing

 EDF .M      25.7                                     : Elevation Of Derrick Floor

 EGL .M      468.3                                    : Elevation Of Ground Level

 RUN .       3.1.1                                    : Run Number

 TRIP.       1                                        : Trip Number

 SON .       AZ19007                                  : Service Order Number

 TDD .M      7411                                     : Total Depth - Driller

 TLAB.       15:15 22-APR-2019                        : Time Logger At Bottom

 TLAS.       XX:XX 23-JAN-2019                        : N/A

 OPRT.       XX HOURS                                 : N/A

 DFT .       OBM                                      : Drilling Fluid Type

 DFD .LB/G   1.6                                      : Drilling Fluid Density

 BSAL.PPM    42500                                    : Borehole Salinity

 WHP .PSI    0                                        : N/A

 MHD .DEG    31.62                                    : Maximum Hole Deviation

 NLS .M/MN   9                                        : Nominal Logging Speed

 REFL.       NA                                       : N/A

 REFD.       NA                                       : N/A

 LUN .       9037                                     : Logging Unit Number

 LUL .       AZERBAIJAN                               : Logging Unit Location

 ENGI.       M.SERROUR/M.GULMAMMADOV                  : Engineer's Name

 WITN.       ADRIEN P. / KAMAL K.                     : Witness' Name

 TSTR.       SBT/GR/CCL//ZDL/CN/TTRM/                 : Title Service Mnemonic

 TSTG.       NA                                       : Title Service Mnemonic

 STUS.       FINAL                                    : Status

 LCNM.       Baker Hughes                             : Logging Company Name

 LCC .       150                                      : Logging Company Code

 OPMD.       CH.WIRE                                  : Operation Mode

 PANA.       M.SERROUR/M.GULMAMMADOV                  : Processing Analyst

 PCON.       Baker Hughes                             : Processing Contractor

 APIN.                                                : API Serial Number

~Other information

1.  LOG OBJECTIVE IS TO EVALUATE CEMENT INTEGRITY BEHIND 10" & 13.375" CASING   

2.   LOG WAS NOT CORRELATED AS PER CUSTOMER REQUEST                             

3.  TOOLSTRING RUN AS PER TOOLSKETCH:                                           

     CH/SWVL/CCL/GR/EL/KNCK/CENT/SBT/CENT/VDL/CENT                              

     WITH TWO GEMOCO CENTRALIZERS ON SBT MANDREL AS INDICATED.                  

4.  MAX CABLEHEAD THERMOMETERS READINGS ARE: 89 DEG C, 89 DEG C, 90 DEG C       

5. NORMALIZATION FACTORS FOR 10 IN LINER WERE TAKEN FROM MAIN LOG OVER          

    4900 - 4750 M INTERVAL                                                      

   NORMALIZATION FACTORS FOR 13.375 IN CASING WERE TAKEN FROM MAIN LOG OVER     

   3770 - 3635 M INTERVAL                                                       

6. MUD REPORT                                                                   

     MUD DETAILS:                                                               

     MUD TYPE: OBM                                                              

     MUD WEIGHT : 1.83 SG                                                       

7.  SBT CEMENT MAP PROCESSED USING THE FOLLOWING PARAMETERS;                    

    FOR 10" LINER:                                                              

    CASING ID:              8.624 IN                                            

    COMPR STR:           1148 PSI (AS PER CUSTOMER REQUEST)                     

    CSG WEIGHT:           68.7  LB/FT                                           

    CSG THICKNESS:     0.688 IN                                                 

    FREE PIPE ATTN:     6.480 DB/F                                              

    FOR 13.375" CASING:                                                         

    CASING ID:               12.347 IN                                          

    COMPR STR:            615 PSI (AS PER CUSTOMER REQUEST)                     

    CSG WEIGHT:           72  LB/FT                                             

    CSG THICKNESS:     0.514 IN                                                 

    FREE PIPE ATTN:     3.285 DB/F                                              

 8. ATTENUATION PARAMETERS OF CEMENT MAP:                                       

   FOR 10" LINER                                                                

    0%   -  6.480 DB/FT                                                         

    20%  - 7.389 DB/F                                                           

    80%  - 10.117 DB/FT                                                         

    100% - 10.980 DB/FT                                                         

   FOR 13.375" CASING                                                           

    0%   -  3.285 DB/FT                                                         

    20%  - 4.181 DB/F                                                           

    80%  - 6.869 DB/FT                                                          

    100% - 7.785 DB/FT                                                          

9.  MAXIMUM DEVIATION OVER THE LOGGED INTERVAL IS 30.8 DEG AT 5040.0 M          

     ACCORDING TO DRILLERS SURVEY                                               

10. GR PEAK ON 10 IN LINER MAIN LOG AT 4619 M WAS DUE TO LOG STOP AND CONTINUE  

#  Curve Data

~A DEPT      ATAV      ATC1      ATC2      ATC3      ATC4      ATC5      ATC6      ATMN      ATMX      CCL       DEVOD     DTMN      DTMX      GR        RBSB      SPD       TTEN     
# ...
 5571.2106 -999.2500 -999.2500 -999.2500 -999.2500 -999.2500 -999.2500 -999.2500 -999.2500 -999.2500    0.0000 -999.2500 -999.2500 -999.2500   26.2170 -999.2500 -999.2500 -999.2500
 5571.2868 -999.2500 -999.2500 -999.2500 -999.2500 -999.2500 -999.2500 -999.2500 -999.2500 -999.2500    0.0000 -999.2500 -999.2500 -999.2500   26.3552 -999.2500 -999.2500 -999.2500
 5571.3630 -999.2500 -999.2500 -999.2500 -999.2500 -999.2500 -999.2500 -999.2500 -999.2500 -999.2500    0.0000 -999.2500 -999.2500 -999.2500   26.4604 -999.2500 -999.2500 -999.2500
 5571.4392 -999.2500 -999.2500 -999.2500 -999.2500 -999.2500 -999.2500 -999.2500 -999.2500 -999.2500    3.0000 -999.2500 -999.2500 -999.2500   26.6995 -999.2500 -999.2500 -999.2500
 5571.5154 -999.2500 -999.2500 -999.2500 -999.2500 -999.2500 -999.2500 -999.2500 -999.2500 -999.2500    0.0000 -999.2500 -999.2500 -999.2500   27.1051 -999.2500 -999.2500 -999.2500
 5571.5916 -999.2500 -999.2500 -999.2500 -999.2500 -999.2500 -999.2500 -999.2500 -999.2500 -999.2500    0.0000 -999.2500 -999.2500 -999.2500   27.5443 -999.2500 -999.2500 -999.2500
 5571.6678 -999.2500 -999.2500 -999.2500 -999.2500 -999.2500 -999.2500 -999.2500 -999.2500 -999.2500    0.0000 -999.2500 -999.2500 -999.2500   27.8540 -999.2500 -999.2500 -999.2500
 5571.7440 -999.2500 -999.2500 -999.2500 -999.2500 -999.2500 -999.2500 -999.2500 -999.2500 -999.2500    4.0000 -999.2500 -999.2500 -999.2500   27.9850 -999.2500 -999.2500 -999.2500
 5571.8202 -999.2500 -999.2500 -999.2500 -999.2500 -999.2500 -999.2500 -999.2500 -999.2500 -999.2500    0.0000 -999.2500 -999.2500 -999.2500   28.0080 -999.2500 -999.2500 -999.2500
 5571.8964 -999.2500 -999.2500 -999.2500 -999.2500 -999.2500 -999.2500 -999.2500 -999.2500 -999.2500    0.0000 -999.2500 -999.2500 -999.2500   28.0128 -999.2500 -999.2500 -999.2500
 5571.9726 -999.2500 -999.2500 -999.2500 -999.2500 -999.2500 -999.2500 -999.2500 -999.2500 -999.2500    0.0000 -999.2500 -999.2500 -999.2500   28.0222 -999.2500 -999.2500 -999.2500
 5572.0488 -999.2500 -999.2500 -999.2500 -999.2500 -999.2500 -999.2500 -999.2500 -999.2500 -999.2500    0.0000 -999.2500 -999.2500 -999.2500   28.0008 -999.2500 -999.2500 -999.2500
 5572.1250 -999.2500 -999.2500 -999.2500 -999.2500 -999.2500 -999.2500 -999.2500 -999.2500 -999.2500    0.0000 -999.2500 -999.2500 -999.2500   27.8786 -999.2500 -999.2500 -999.2500
 5572.2012 -999.2500 -999.2500 -999.2500 -999.2500 -999.2500 -999.2500 -999.2500 -999.2500 -999.2500    0.0000 -999.2500 -999.2500 -999.2500   27.6346 -999.2500 -999.2500 -999.2500
 5572.2774 -999.2500 -999.2500 -999.2500 -999.2500 -999.2500 -999.2500 -999.2500 -999.2500 -999.2500    1.0000 -999.2500   58.4156   75.3254   27.2595 -999.2500 -999.2500 -999.2500
 5572.3536 -999.2500 -999.2500 -999.2500 -999.2500 -999.2500 -999.2500 -999.2500 -999.2500 -999.2500    0.0000 -999.2500   57.4548   74.1724   26.7953 -999.2500 -999.2500 -999.2500
 5572.4298 -999.2500 -999.2500 -999.2500 -999.2500 -999.2500 -999.2500 -999.2500 -999.2500 -999.2500    0.0000 -999.2500   57.8391   74.1724   26.3235 -999.2500 -999.2500 -999.2500
 5572.5060 -999.2500 -999.2500 -999.2500 -999.2500 -999.2500 -999.2500 -999.2500 -999.2500 -999.2500    0.0000 -999.2500   59.1842   73.4038   25.9087 -999.2500 -999.2500 -999.2500
 5572.5822 -999.2500 -999.2500 -999.2500 -999.2500 -999.2500 -999.2500 -999.2500 -999.2500 -999.2500    0.0000 -999.2500   57.6470   72.8273   25.5365 -999.2500 -999.2500 -999.2500
 5572.6584 -999.2500    8.2289    9.6912    9.6067    7.9380    9.1261    8.5938    7.9380    9.6912    0.0000   28.2369   57.4548   73.5960   25.1546  353.9133 -999.2500 -999.2500
 5572.7346 -999.2500    8.2055    9.8270    9.9544    7.9362    8.9650    8.6298    7.9362    9.9544    0.0000   28.2293   59.1842   73.5960   24.7664  354.0338 -999.2500 -999.2500
 5572.8108 -999.2500    8.1606    9.8310   10.3119    7.9245    8.7067    8.6632    7.9245   10.3119    0.0000   28.2228   58.6078   74.7489   24.4367  354.1381 -999.2500 -999.2500
 5572.8870 -999.2500    8.1132    9.7193   10.6565    7.9530    8.4238    8.6938    7.9530   10.6565    0.0000   28.2183   57.4548   74.5567   24.2339  354.2104 -999.2500 -999.2500
 5572.9632 -999.2500    8.0939    9.5460   10.9837    8.0278    8.1874    8.7148    8.0278   10.9837    0.0000   28.2160   57.6470   73.7881   24.2275  354.2495 -999.2500 -999.2500
 5573.0394    8.9512    8.1199    9.3623   11.3112    8.1334    8.0571    8.7235    8.0571   11.3112    0.0000   28.2150   57.6470   72.8273   24.4489  354.2647 -999.2500 -999.2500
 5573.1156    9.0208    8.1980    9.2102   11.6605    8.2872    8.0461    8.7226    8.0461   11.6605    0.0000   28.2151   57.6470   72.4430   24.8452  354.2632 -999.2500 -999.2500
 5573.1918    9.1457    8.3053    9.1066   12.0354    8.5419    8.1617    8.7232    8.1617   12.0354    0.0000   28.2165   57.6470   73.4038   25.3201  354.2404 -999.2500 -999.2500
 5573.2680    9.3214    8.3998    9.0369   12.3919    8.9446    8.4001    8.7550    8.3998   12.3919    0.0000   28.2189   57.0705   72.8273   25.7874  354.1884 -999.2500 -999.2500
 5573.3442    9.5429    8.4805    9.0114   12.6785    9.5018    8.7332    8.8517    8.4805   12.6785    9.0000   28.2193   58.4156   72.8273   26.1685  354.1133 -999.2500 -999.2500
 5573.4204    9.8029    8.5858    9.0717   12.8694   10.1619    9.1196    9.0088    8.5858   12.8694   27.0000   28.2136   58.6078   73.2117   26.4684  354.0383 -999.2500 -999.2500
 5573.4966   10.0748    8.7340    9.2335   12.9791   10.8074    9.5127    9.1818    8.7340   12.9791   14.0000   28.1985   57.0705   72.8273   26.6971  353.9953 -999.2500 -999.2500
 5573.5728   10.3056    8.9085    9.4610   13.0425   11.2814    9.8386    9.3013    8.9085   13.0425    0.0000   28.1737   58.2234   74.3646   26.8254  354.0074 -999.2500 -999.2500
 5573.6490   10.4389    9.0639    9.6920   13.0880   11.4580   10.0138    9.3177    9.0639   13.0880    0.0000   28.1431   57.8391   73.0195   26.8328  354.0733 -999.2500 -999.2500
 5573.7252   10.4332    9.1409    9.8579   13.0946   11.2923    9.9863    9.2273    9.1409   13.0946   19.0000   28.1141   58.4156   72.6352   26.7009  354.1677 -999.2500 -999.2500
 5573.8014   10.2757    9.0893    9.9185   12.9886   10.8227    9.7679    9.0675    9.0675   12.9886    0.0000   28.0951   57.4548   72.0587   26.3691  354.2549 -999.2500 -999.2500
 5573.8776    9.9822    8.9117    9.8512   12.6849   10.1334    9.4220    8.8898    8.8898   12.6849   12.0000   28.0920   57.8391   72.8273   25.7988  354.3070 -999.2500 -999.2500
 5573.9538    9.5988    8.6698    9.6670   12.1688    9.3294    9.0298    8.7279    8.6698   12.1688   60.0000   28.1050   58.0313   73.0195   25.0751  354.3171 -999.2500 -999.2500
 5574.0300    9.1802    8.4216    9.4093   11.4853    8.5215    8.6618    8.5818    8.4216   11.4853    0.0000   28.1291   58.0313   72.8273   24.3142  354.3016 -999.2500 -999.2500
 5574.1062    8.7764    8.2140    9.1295   10.7209    7.7862    8.3731    8.4348    7.7862   10.7209    4.0000   28.1567   57.0705   72.8273   23.5310  354.2823 -999.2500 -999.2500
 5574.1824    8.4205    8.0767    8.8576    9.9762    7.1470    8.2023    8.2635    7.1470    9.9762    0.0000   28.1807   57.6470   73.0195   22.7594  354.2698 -999.2500 -999.2500
 5574.2586    8.1207    8.0096    8.6106    9.3184    6.6023    8.1376    8.0457    6.6023    9.3184    0.0000   28.1946   58.0313   72.8273   22.0114  354.2650 -999.2500 -999.2500
 5574.3348    7.8735    7.9948    8.4032    8.7582    6.1545    8.1434    7.7870    6.1545    8.7582    0.0000   28.1955   58.4156   73.0195   21.2608  354.2637 -999.2500 -999.2500
 5574.4110    7.6795    8.0088    8.2369    8.2847    5.8153    8.1937    7.5373    5.8153    8.2847   35.0000   28.1862   57.6470   73.2117   20.5031  354.2617 -999.2500 -999.2500
 5574.4872    7.5374    8.0427    8.0937    7.8899    5.6014    8.2390    7.3576    5.6014    8.2390    0.0000   28.1734   57.6470   73.2117   19.7514  354.2606 -999.2500 -999.2500
 5574.5634    7.4483    8.1141    7.9827    7.5854    5.5178    8.2120    7.2777    5.5178    8.2120    0.0000   28.1645   57.6470   73.0195   19.0702  354.2664 -999.2500 -999.2500
