~Version ---------------------------------------------------
VERS.   2.0 : CWLS log ASCII Standard -VERSION 2.0
WRAP.    NO : One line per depth step
DLM . SPACE : Column Data Section Delimiter
~Well ------------------------------------------------------
STRT.m 1330.00000 : START DEPTH
STOP.m 1380.00000 : STOP DEPTH
STEP.m    0.05000 : STEP
NULL.    -9999.25 : NULL VALUE
COMP.     Unknown : COMPANY
WELL.     Unknown : WELL
FLD .     Unknown : FIELD
LOC .             : LOCATION
PROV.             : PROVINCE
CNTY.             : COUNTY
STAT.             : STATE
CTRY.     Unknown : COUNTRY
SRVC.             : SERVICE COMPANY
DATE.     Unknown : DATE
UWI .     Unknown : UNIQUE WELL ID
API .             : API NUMBER
~Curve Information -----------------------------------------
DEPT            .m            : depths
GammaKT         .api          : digitalized and interpolated data
GammaTotal      .api          : digitalized and interpolated data
Bit Size        .inches       : digitalized and interpolated data
Pe              .             : digitalized and interpolated data
DensityCorr     .gram per cc  : digitalized and interpolated data
Neutron Porosity.decp         : digitalized and interpolated data
Density         .gram per cc  : digitalized and interpolated data
~Params ----------------------------------------------------
~Other -----------------------------------------------------
~ASCII -----------------------------------------------------
 1330.00000    1.79760    6.92760    8.62170    4.98420    0.00770    0.14030    2.38300
 1330.05000    1.99640    6.91540    8.62610    4.97950    0.00980    0.13490    2.40130
 1330.10000    2.15760    6.92030    8.63050    4.98620    0.01200    0.14220    2.42500
 1330.15000    2.31590    6.98320    8.63480    4.98540    0.01450    0.12970    2.45130
 1330.20000    2.47430    7.04620    8.63540    4.96960    0.01520    0.12880    2.47090
 1330.25000    2.50900    7.11540    8.63530    4.95380    0.01390    0.11940    2.48490
 1330.30000    2.52220    7.19670    8.63530    4.97430    0.01410    0.11780    2.49350
 1330.35000    2.53550    7.27800    8.63520    4.98980    0.01270    0.10980    2.49750
 1330.40000    2.54870    7.42260    8.63510    4.96940    0.00890    0.10970    2.49470
 1330.45000    2.56190    7.59860    8.63350    4.98850    0.00590    0.11010    2.48550
 1330.50000    2.57510    7.81980    8.63160    4.94060    0.00230    0.11470    2.47090
 1330.55000    2.48970    8.15310    8.63000    4.93330    0.00090    0.11750    2.46000
 1330.60000    2.37330    8.56270    8.62980    4.91250   -0.00030    0.12020    2.44310
 1330.65000    2.26060    8.99650    8.62970    4.86590    0.00210    0.12000    2.42940
 1330.70000    2.15490    9.35380    8.63060    4.85000    0.00090    0.12250    2.41560
 1330.75000    2.04910    9.70740    8.63150    4.83400   -0.00030    0.12260    2.40780
 1330.80000    1.93950    9.93430    8.63640    4.86670   -0.00080    0.12190    2.40400
 1330.85000    1.75810   10.11580    8.64190    4.88520   -0.00090    0.12110    2.40140
 1330.90000    1.57660   10.29730    8.65760    4.89560   -0.00310    0.12010    2.40480
 1330.95000    1.54110   10.39010    8.66750    4.85230   -0.00280    0.12180    2.40930
 1331.00000    1.56120   10.48080    8.65340    4.86960   -0.00350    0.12130    2.41380
 1331.05000    1.53140   10.47410    8.63930    4.87830   -0.00570    0.12110    2.41650
 1331.10000    1.45850   10.26280    8.63760    4.88050   -0.00610    0.12170    2.41710
 1331.15000    1.38560   10.18620    8.63600    4.88520   -0.00640    0.12520    2.40880
 1331.20000    1.31260    9.94860    8.63640    4.89570   -0.00690    0.12740    2.39490
 1331.25000    1.23970    9.62830    8.63970    4.90220   -0.00740    0.13390    2.37690
 1331.30000    1.16680    9.34200    8.64310    4.85720   -0.00800    0.13050    2.35700
 1331.35000    1.09390    9.15240    8.64650    4.85140   -0.00860    0.14810    2.33570
 1331.40000    0.99360    8.96290    8.64680    4.84570   -0.00920    0.14270    2.31830
 1331.45000    0.83640    8.73950    8.64150    4.84060   -0.00970    0.16060    2.30730
 1331.50000    0.67910    8.50400    8.63620    4.83690   -0.00870    0.16310    2.30290
 1331.55000    0.52180    8.25610    8.63170    4.83320   -0.00580    0.17480    2.30180
 1331.60000    0.45620    8.00290    8.63240    4.82620   -0.00200    0.17650    2.30410
 1331.65000    0.42120    7.76460    8.63310    4.81850    0.00280    0.17800    2.30640
 1331.70000    0.38620    7.61860    8.62930    4.81960    0.00620    0.17930    2.30790
 1331.75000    0.35110    7.47260    8.61690    4.85740    0.00910    0.18080    2.30770
 1331.80000    0.34520    7.39310    8.61730    4.85110    0.01210    0.18260    2.30560
 1331.85000    0.37020    7.38010    8.62610    4.84470    0.01520    0.18130    2.30290
 1331.90000    0.39520    7.36710    8.65120    4.85400    0.01490    0.17960    2.29740
 1331.95000    0.47710    7.35370    8.69060    4.86700    0.01460    0.18190    2.29570
 1332.00000    0.56820    7.31100    8.65440    4.87610    0.01190    0.18070    2.29810
 1332.05000    0.65920    7.29270    8.63780    4.87110    0.01080    0.17860    2.30160
 1332.10000    0.75020    7.30940    8.63480    4.86620    0.01010    0.17960    2.30620
 1332.15000    0.84120    7.32330    8.63180    4.86330    0.00970    0.17770    2.31460
 1332.20000    0.93380    7.29260    8.62810    4.86420    0.00940    0.17650    2.32130
 1332.25000    1.05780    7.26190    8.62480    4.86610    0.00900    0.17550    2.32540
 1332.30000    1.18190    7.23110    8.62800    4.87680    0.00860    0.17610    2.32880
 1332.35000    1.34280    7.23420    8.63110    4.88740    0.00820    0.17670    2.33240
 1332.40000    1.52690    7.24790    8.63130    4.90260    0.00790    0.17300    2.33600
 1332.45000    1.71100    7.19570    8.63110    4.92840    0.00770    0.16990    2.33830
 1332.50000    1.97590    7.12840    8.63170    4.95380    0.00920    0.16450    2.34060
 1332.55000    2.24320    7.06110    8.63240    4.97870    0.00890    0.16360    2.34590
 1332.60000    2.48980    7.11930    8.63310    5.00450    0.00860    0.16210    2.35150
 1332.65000    2.72040    7.18160    8.63350    5.03280    0.00830    0.15450    2.35710
 1332.70000    2.93920    7.24390    8.63230    5.06110    0.01000    0.15220    2.36300
 1332.75000    3.03850    7.31200    8.63120    5.03420    0.00870    0.15130    2.36900
 1332.80000    3.13770    7.38750    8.63010    5.05930    0.00730    0.15010    2.37430
 1332.85000    3.23690    7.46310    8.64090    5.02260    0.00390    0.14960    2.37590
 1332.90000    3.33620    7.54830    8.65220    4.97980    0.00460    0.15080    2.37560
 1332.95000    3.43540    7.67970    8.66360    4.99590    0.00540    0.15050    2.37230
 1333.00000    3.49550    7.81110    8.61140    5.01900    0.00550    0.15010    2.36950
 1333.05000    3.45440    7.91450    8.62270    4.99300    0.00560    0.15150    2.36450
 1333.10000    3.41320    7.98240    8.63170    4.95130    0.00330    0.14970    2.36250
 1333.15000    3.37210    8.01400    8.62330    4.92690    0.00240    0.15210    2.36110
 1333.20000    3.31680    7.96030    8.61500    4.92240    0.00220    0.15090    2.36130
 1333.25000    3.26090    7.90670    8.62440    4.91780    0.00190    0.14990    2.36160
 1333.30000    3.20510    7.85950    8.63360    4.94450   -0.00270    0.15200    2.36010
 1333.35000    3.14590    8.04560    8.63160    4.96710   -0.00460    0.15360    2.35730
 1333.40000    3.07670    8.11820    8.62950    4.94170   -0.00710    0.15390    2.35200
 1333.45000    3.00750    7.89820    8.62750    4.96690   -0.00990    0.15490    2.34600
 1333.50000    2.93840    7.67830    8.62520    4.98330   -0.01130    0.15760    2.33820
 1333.55000    2.91250    7.58080    8.62300    4.94770   -0.01280    0.16120    2.33240
 1333.60000    2.89660    7.48440    8.63380    5.02820   -0.01360    0.16380    2.32800
 1333.65000    2.91930    7.38790    8.64080    4.98710   -0.01120    0.16610    2.32560
 1333.70000    2.98300    7.28270    8.63810    4.98670   -0.00640    0.17060    2.32340
 1333.75000    3.04680    7.04320    8.63510    5.04030   -0.00330    0.17600    2.32140
 1333.80000    3.11050    6.80370    8.63160    5.00730   -0.00070    0.17950    2.31850
 1333.85000    3.17420    6.58980    8.62820    5.01350    0.00050    0.18050    2.31490
 1333.90000    3.23300    6.39440    8.61810    5.06170    0.00770    0.18010    2.31120
 1333.95000    3.29140    6.19900    8.60310    5.08690    0.00990    0.18310    2.30670
 1334.00000    3.35310    6.02760    8.66350    4.97880    0.01210    0.19120    2.30470
 1334.05000    3.41960    5.90310    8.65160    5.02000    0.01500    0.18980    2.30470
 1334.10000    3.48800    5.77860    8.63970    5.04670    0.01690    0.18840    2.30750
 1334.15000    3.56250    5.65410    8.62800    4.99740    0.01870    0.19320    2.31390
 1334.20000    3.63700    5.58610    8.61690    4.96510    0.02050    0.19120    2.32220
 1334.25000    3.68410    5.55000    8.60590    4.94010    0.01930    0.18650    2.33020
 1334.30000    3.53570    5.51380    8.61210    4.92120    0.02030    0.18640    2.33900
 1334.35000    3.53460    5.47930    8.62860    4.90830    0.02130    0.18160    2.34790
 1334.40000    3.62790    5.56450    8.63830    4.89530    0.02240    0.17810    2.35280
 1334.45000    3.69830    5.64980    8.63560    4.88880    0.02190    0.17980    2.35580
