~Version ---------------------------------------------------
VERS.   2.0 : CWLS log ASCII Standard -VERSION 2.0
WRAP.    NO : One line per depth step
DLM . SPACE : Column Data Section Delimiter
~Well ------------------------------------------------------
STRT.m 2028.00000 : START DEPTH
STOP.m 2082.00000 : STOP DEPTH
STEP.m    0.05000 : STEP
NULL.    -9999.25 : NULL VALUE
COMP.     Unknown : COMPANY
WELL.     Unknown : WELL
FLD .     Unknown : FIELD
LOC .             : LOCATION
PROV.             : PROVINCE
CNTY.             : COUNTY
STAT.             : STATE
CTRY.     Unknown : COUNTRY
SRVC.             : SERVICE COMPANY
DATE.     Unknown : DATE
UWI .     Unknown : UNIQUE WELL ID
API .             : API NUMBER
~Curve Information -----------------------------------------
DEPT.m       : depths
GRS .api     : Gamma-Ray Spectral, digitalized and interpolated data
GR  .api     : Gamma-Ray, digitalized and interpolated data
CALI.inches  : Caliper, digitalized and interpolated data
NPHI.ls-pu   : Limestone calibrated neutron porosity, digitalized and interpolated data
RHOB.gm/cc   : Bulk density, digitalized and interpolated data
DRHO.gm/cc   : Density correction, digitalized and interpolated data
~Params ----------------------------------------------------
~Other -----------------------------------------------------
~ASCII -----------------------------------------------------
# ...
 2048.60000   34.81540  110.60460   11.93380   14.16690    2.56420    0.09980
 2048.65000   33.65440  109.16480   11.90280   13.64780    2.57250    0.09690
 2048.70000   32.79910  102.42110   11.87170   13.12880    2.57880    0.09800
 2048.75000   32.21400  100.87980   11.84070   12.78400    2.58190    0.10000
 2048.80000   31.62900   86.82110   11.80960   12.46810    2.58500    0.10200
 2048.85000   29.02030   95.13700   11.77860   12.14290    2.58800    0.10410
 2048.90000   27.51420   81.75310   11.74760   11.76050    2.59110    0.10610
 2048.95000   27.38530   90.40350   11.71650   11.37810    2.59410    0.10610
 2049.00000   27.25640   76.13780   11.68550   11.05420    2.59720    0.10520
 2049.05000   27.12740   75.74730   11.65450   10.80360    2.60030    0.10420
 2049.10000   26.99850   75.35690   11.62340   10.55290    2.60330    0.10320
 2049.15000   27.17680   74.96640   11.59240   10.30230    2.60640    0.10220
 2049.20000   27.44470   75.97890   11.56140   10.03010    2.60860    0.10120
 2049.25000   27.71260   77.34420   11.53030    9.71420    2.61060    0.10020
 2049.30000   27.98050   79.39670   11.49930    9.39820    2.61260    0.09800
 2049.35000   28.24830   78.82850   11.46820    9.08230    2.61470    0.09510
 2049.40000   27.99780   79.83820   11.43720    8.76640    2.61690    0.09220
 2049.45000   27.41270   80.84800   11.40620    8.45040    2.62100    0.08920
 2049.50000   26.82760   81.70140   11.37510    8.13450    2.62510    0.08530
 2049.55000   26.17790   80.54030   11.34410    7.81850    2.62920    0.08140
 2049.60000   25.01680   76.40500   11.31310    7.44300    2.63070    0.07760
 2049.65000   23.85570   74.12610   11.28200    6.78220    2.63210    0.05640
 2049.70000   22.69460   72.01550   11.25100    6.51750    2.63340    0.05160
 2049.75000   21.53360   70.10430   11.21990    6.30980    2.63480    0.04680
 2049.80000   20.37250   57.77550   11.18890    6.10200    2.63580    0.04200
 2049.85000   14.79380   56.23680   11.15790    5.89420    2.63450    0.01860
 2049.90000   14.01540   51.12540   11.12680    5.71760    2.63320    0.01110
 2049.95000    8.16440   49.21420   11.09580    5.55220    2.63190   -0.00290
 2050.00000    7.07840   44.58730   11.06480    5.38690    2.63050   -0.00580
 2050.05000    6.49340   43.41550   11.03370    5.22150    2.62970   -0.00870
 2050.10000    5.90830   41.87680   11.00270    5.13640    2.63040   -0.01090
 2050.15000    5.32320   40.24470   10.97160    5.11150    2.63100   -0.00990
 2050.20000    5.11120   38.33340   10.94060    5.08660    2.63170   -0.00890
 2050.25000    5.11400   36.76850   10.90960    5.06170    2.63240   -0.00790
 2050.30000    5.11670   35.60740   10.87850    5.03680    2.63310   -0.00690
 2050.35000    5.11940   35.07350   10.84750    5.01190    2.63370   -0.00590
 2050.40000    5.12220   34.81350   10.81650    4.98690    2.63440   -0.00490
 2050.45000    5.66420   34.55350   10.78540    4.99770    2.63510   -0.00380
 2050.50000    6.87960   34.29350   10.75440    5.04500    2.63580   -0.00280
 2050.55000    7.18520   34.03350   10.72330    5.09220    2.63490   -0.00180
 2050.60000    7.18790   34.09250   10.69230    5.13950    2.63300   -0.00080
 2050.65000    7.19070   34.49390   10.66130    5.18680    2.63100   -0.00060
 2050.70000    7.19340   34.89530   10.63020    5.23400    2.62880   -0.00060
 2050.75000    7.19620   35.27840   10.59920    5.28130    2.62580   -0.00060
 2050.80000    7.19890   35.28110   10.56820    5.34280    2.62290   -0.00060
 2050.85000    7.20160   35.28380   10.53710    5.43150    2.62000   -0.00060
 2050.90000    7.20440   35.28660   10.50610    5.52020    2.61700    0.00120
 2050.95000    7.19390   35.21220   10.47500    5.60890    2.61410    0.00430
 2051.00000    7.06500   35.08320   10.44400    5.69760    2.61120    0.00730
 2051.05000    6.93610   34.95430   10.41300    5.78630    2.60630    0.01030
 2051.10000    6.80720   34.82540   10.38190    5.82220    2.60060    0.01300
 2051.15000    6.67820   34.69640   10.35090    5.82160    2.60160    0.01570
 2051.20000    6.54930   34.56750   10.31990    5.82090    2.60260    0.01850
 2051.25000    6.42040   34.43860   10.28880    5.82020    2.60360    0.02120
 2051.30000    6.29140   34.30970   10.25780    5.81950    2.60550    0.02390
 2051.35000    6.16250   34.18070   10.22680    5.81880    2.60750    0.02590
 2051.40000    6.03360   34.05180   10.19570    5.81810    2.60950    0.02790
 2051.45000    5.90460   33.94680   10.16470    5.81740    2.61410    0.02990
 2051.50000    6.42640   33.94960   10.13360    5.81050    2.62020    0.02960
 2051.55000    7.23190   33.95230   10.10260    5.71810    2.62220    0.02760
 2051.60000    8.03750   33.95510   10.07160    5.62580    2.62420    0.02570
 2051.65000    9.31790   33.95780   10.04050    5.53340    2.62630    0.02370
 2051.70000   11.79790   33.96050   10.00950    5.44100    2.62650    0.02170
 2051.75000   11.14860   34.35870    9.97850    5.34860    2.62660    0.01920
 2051.80000   11.95420   34.76010    9.94740    5.28720    2.62660    0.01530
 2051.85000   12.75970   35.16150    9.91640    5.26230    2.62660    0.01150
 2051.90000   13.56530   35.41490    9.88530    5.23740    2.62650    0.00760
 2051.95000   14.37080   35.54990    9.85430    5.21250    2.62080    0.00510
 2052.00000   14.98630   35.68490    9.82330    5.18760    2.61560    0.00310
 2052.05000   15.38770   35.81990    9.79220    5.16270    2.61170    0.00120
 2052.10000   15.78910   35.95490    9.76120    5.13780    2.60780   -0.00050
 2052.15000   16.15050   36.04000    9.73020    5.14500    2.60390   -0.00120
 2052.20000   15.37220   36.04270    9.69910    5.20420    2.59820   -0.00180
 2052.25000   14.59380   36.04550    9.66810    5.26330    2.59240   -0.00250
 2052.30000   13.81540   36.04820    9.63700    5.32250    2.58660   -0.00320
 2052.35000   13.13880   36.05100    9.60600    5.38160    2.58330   -0.00380
 2052.40000   12.55370   36.05370    9.57500    5.44080    2.58140   -0.00190
 2052.45000   11.96860   36.05640    9.54390    5.48050    2.57940    0.00010
 2052.50000   11.37760   35.93900    9.51290    5.50980    2.57770    0.00210
 2052.55000   10.59920   35.67900    9.48190    5.53920    2.57640    0.00410
 2052.60000    9.92830   35.41900    9.45080    5.56860    2.57510    0.00620
 2052.65000    9.53780   35.15900    9.41980    5.59790    2.57370    0.00700
 2052.70000    9.14740   34.89900    9.38870    5.62730    2.57240    0.00750
 2052.75000    8.75690   34.55980    9.35770    5.60530    2.57240    0.00800
 2052.80000    8.78330   33.97470    9.32670    5.58030    2.57370    0.00850
 2052.85000    8.91830   33.38960    9.29560    5.55540    2.57510    0.00900
 2052.90000    9.05330   32.80450    9.26460    5.53050    2.57640    0.00950
 2052.95000    9.18830   32.07490    9.23360    5.50560    2.57780    0.01000
 2053.00000    9.32330   31.29650    9.20250    5.48070    2.58100    0.01100
 2053.05000    9.25560   30.51810    9.17150    5.45580    2.58510    0.01200
 2053.10000    9.06110   29.64770    9.14050    5.36680    2.58920    0.01300
 2053.15000    8.86660   28.48660    9.10940    5.26820    2.59330    0.01400
 2053.20000    8.64390   27.50730    9.07840    5.16970    2.59740    0.01500
 2053.25000    8.25350   26.72890    9.04730    5.07110    2.60150    0.01600
 2053.30000    7.86300   25.95050    9.01630    4.97250    2.60560    0.01700
 2053.35000    7.47250   25.17220    8.98530    4.87390    2.60970    0.01990
 2053.40000    6.57380   25.14960    8.96050    4.77530    2.61390    0.02300
 2053.45000    5.41280   25.15230    8.95090    4.72640    2.61770    0.02610
 2053.50000    5.29210   25.15510    8.94130    4.68530    2.62080    0.03070
 2053.55000    5.29480   25.15780    8.93170    4.64410    2.62390    0.03700
 2053.60000    5.29750   25.16050    8.92210    4.60300    2.62690    0.04320
 2053.65000    5.30030   25.47320    8.91250    4.66190    2.63000    0.04990
 2053.70000    5.30300   25.87460    8.90290    4.77990    2.63310    0.05830
