~Version ---------------------------------------------------
VERS.   2.0 : CWLS log ASCII Standard -VERSION 2.0
WRAP.    NO : One line per depth step
DLM . SPACE : Column Data Section Delimiter
~Well ------------------------------------------------------
STRT.m 2028.00000 : START DEPTH
STOP.m 2082.00000 : STOP DEPTH
STEP.m    0.05000 : STEP
NULL.    -9999.25 : NULL VALUE
COMP.     Unknown : COMPANY
WELL.     Unknown : WELL
FLD .     Unknown : FIELD
LOC .             : LOCATION
PROV.             : PROVINCE
CNTY.             : COUNTY
STAT.             : STATE
CTRY.     Unknown : COUNTRY
SRVC.             : SERVICE COMPANY
DATE.     Unknown : DATE
UWI .     Unknown : UNIQUE WELL ID
API .             : API NUMBER
~Curve Information -----------------------------------------
DEPT.m       : depths
GRS .api     : Gamma-Ray Spectral, digitalized and interpolated data
GR  .api     : Gamma-Ray, digitalized and interpolated data
CALI.inches  : Caliper, digitalized and interpolated data
NPHI.ls-pu   : Limestone calibrated neutron porosity, digitalized and interpolated data
RHOB.gm/cc   : Bulk density, digitalized and interpolated data
DRHO.gm/cc   : Density correction, digitalized and interpolated data
~Params ----------------------------------------------------
~Other -----------------------------------------------------
~ASCII -----------------------------------------------------
# ...
 2033.15000   24.09650   94.36680    9.05790   13.25740    2.57000   -0.00700
 2033.20000   20.42100   93.58840    9.05820   13.37540    2.56930   -0.00750
 2033.25000   17.07420   94.14740    9.05840   13.49330    2.56890   -0.00800
 2033.30000   15.75420   95.89500    9.05870   13.61130    2.56890   -0.00840
 2033.35000   15.36370   97.64260    9.05900   13.72930    2.56890   -0.00890
 2033.40000   14.97320   99.39020    9.05930   13.84730    2.56890   -0.00940
 2033.45000   14.58270  101.13790    9.05950   13.96530    2.56890   -0.00990
 2033.50000   15.32710   97.11910    9.05980   14.08320    2.56890   -0.00700
 2033.55000   16.54250  104.04080    9.06010   14.20120    2.56890   -0.00400
 2033.60000   17.75790   99.31670    9.06030   14.31920    2.57060   -0.00090
 2033.65000   16.99730  103.28180    9.06060   14.43720    2.57270    0.00620
 2033.70000   21.25030  107.24700    9.06090   14.55510    2.57470    0.01690
 2033.75000   26.74210  108.47800    9.06120   14.89550    2.57670    0.02260
 2033.80000   26.82070  110.95790    9.06140   15.64920    2.57880    0.02780
 2033.85000   33.38330  112.06970    9.06170   16.00740    2.58080    0.03290
 2033.90000   37.56630  112.60510    9.06200   16.24010    2.58280    0.03640
 2033.95000   43.69960  113.14060    9.06230   16.47280    2.58490    0.03840
 2034.00000   44.56200  113.67610    9.06250   17.77490    2.58690    0.04040
 2034.05000   48.35040  114.21160    9.05700   18.11860    2.58830    0.04250
 2034.10000   49.98140  114.37430    9.04410   18.46230    2.58780    0.04450
 2034.15000   51.61240  114.24540    9.03120   18.69050    2.58730    0.04680
 2034.20000   53.24330  114.11650    9.01830   18.86630    2.58680    0.04950
 2034.25000   53.87600  113.98760    9.00550   19.04210    2.58630    0.05220
 2034.30000   54.27740  113.85860    8.99260   19.21790    2.58580    0.05490
 2034.35000   54.67870  113.49650    8.97970   19.39370    2.58530    0.05760
 2034.40000   54.70960  112.71810    8.96680   19.56960    2.58370    0.06190
 2034.45000   54.12450  111.93970    8.95400   19.59340    2.58170    0.07030
 2034.50000   53.53950  111.16140    8.94110   19.59280    2.57980    0.07740
 2034.55000   52.95440  104.12020    8.92860   19.59210    2.57780    0.08370
 2034.60000   51.86240  102.20890    8.92880   19.59140    2.57580    0.08790
 2034.65000   47.99150  101.02350    8.92910   19.59070    2.57390    0.09310
 2034.70000   46.45280   96.38640    8.92940   19.59000    2.57190    0.10150
 2034.75000   42.33890   94.47510    8.92970   19.58930    2.56990    0.10610
 2034.80000   41.17790   90.04220    8.92990   19.52680    2.57030    0.10810
 2034.85000   38.00340   88.50350    8.94640   19.44480    2.57230    0.11010
 2034.90000   36.84230   83.91560    8.96640   19.36270    2.57430    0.11140
 2034.95000   35.93970   81.63660    8.98640   19.28060    2.57640    0.10950
 2035.00000   35.16140   80.43160    9.00200   19.15300    2.57840    0.10600
 2035.05000   34.03020   79.65330    9.00950   18.98760    2.58100    0.10020
 2035.10000   32.86910   78.87490    9.01690   18.82220    2.58370    0.08650
 2035.15000   31.70810   78.25920    9.02440   18.65680    2.58640    0.08450
 2035.20000   28.73810   78.26190    9.03180   18.52340    2.58910    0.06970
 2035.25000   28.15300   78.26470    9.03930   18.44130    2.59180    0.06400
 2035.30000   27.56790   78.26740    9.04670   18.35920    2.59390    0.05820
 2035.35000   26.98280   80.44810    9.05410   18.27710    2.59590    0.05280
 2035.40000   27.41870   81.23240    9.06160   18.21720    2.59790    0.05180
 2035.45000   28.02150   84.58610    9.06900   18.26450    2.60000    0.05080
 2035.50000   28.62430   86.31150    9.07650   18.31170    2.60200    0.04980
 2035.55000   29.67430   89.22510    9.08390   18.35900    2.60400    0.05050
 2035.60000   31.30530   92.13880    9.09140   18.40630    2.60610    0.05250
 2035.65000   32.62360   90.02600    9.09880   18.45350    2.60810    0.05450
 2035.70000   33.86310   93.25950    9.10630   18.50080    2.61010    0.05630
 2035.75000   35.49410   96.49300    9.11370   18.55310    2.61150    0.05630
 2035.80000   36.96910   99.72640    9.12120   18.84180    2.61200    0.05640
 2035.85000   38.18450   98.93320    9.12860   19.13040    2.61250    0.05640
 2035.90000   39.39980  102.03310    9.13610   19.43470    2.61300    0.05390
 2035.95000   40.61520  102.03590    9.13840   19.98980    2.61350    0.05010
 2036.00000   42.24050  102.03860    9.12560   20.37840    2.61400    0.04890
 2036.05000   43.87150  102.04140    9.11270   20.61120    2.61450    0.04820
 2036.10000   45.50250  102.04410    9.09980   20.84390    2.61390    0.04760
 2036.15000   46.49490  102.04680    9.08690   20.98760    2.61320    0.04690
 2036.20000   47.09760  101.72900    9.07350   21.06640    2.61260    0.04630
 2036.25000   47.70040  101.33850    9.04750   21.14530    2.61190    0.04840
 2036.30000   48.18520  100.94800    9.02140   21.22420    2.61130    0.05250
 2036.35000   48.18790  100.62250    8.99540   21.21450    2.61140    0.05850
 2036.40000   48.19070  100.42800    8.96940   20.96380    2.61140    0.06580
 2036.45000   48.19340  100.23340    8.94340   20.71320    2.61140    0.07650
 2036.50000   48.19620  100.03890    8.93100   20.46250    2.61140    0.07970
 2036.55000   48.19630   98.11690    8.92140   20.21190    2.61140    0.09050
 2036.60000   47.80590   92.66780    8.91190   19.96120    2.61140    0.09500
 2036.65000   47.41540   91.50670    8.90230   19.65950    2.61170    0.09960
 2036.70000   47.02490   90.34560    8.89270   19.34350    2.61210    0.10590
 2036.75000   43.36750   89.18460    8.88310   18.99640    2.61250    0.10690
 2036.80000   41.82880   84.98770    8.87350   18.18850    2.61290    0.10400
 2036.85000   40.29020   83.07650    8.87270   17.38060    2.61330    0.10110
 2036.90000   38.75150   78.31880    8.87290   17.99170    2.61370    0.09820
 2036.95000   37.21280   77.15770    8.87320   16.43150    2.61410    0.09750
 2037.00000   35.72820   75.35590    8.87350   16.18090    2.61450    0.09690
 2037.05000   34.56710   73.46880    8.87380   15.93020    2.61470    0.09620
 2037.10000   33.26350   71.93020    8.87400   15.76850    2.61470    0.09550
 2037.15000   31.72480   70.50000    8.87430   15.72730    2.61470    0.09490
 2037.20000   30.99280   69.33890    8.87460   15.68620    2.61470    0.09370
 2037.25000   30.79830   68.58000    8.87690   15.64500    2.61470    0.09240
 2037.30000   30.60380   68.18950    8.88710   15.62640    2.61470    0.09110
 2037.35000   30.40920   67.79900    8.89720   15.70530    2.61470    0.08980
 2037.40000   30.21470   67.43870    8.90730   15.78420    2.61470    0.08850
 2037.45000   30.02010   67.84010    8.91750   15.86310    2.61380    0.08590
 2037.50000   29.82560   68.24150    8.92760   15.94190    2.61180    0.08210
 2037.55000   30.28750   68.64290    8.93770   16.25340    2.60990    0.07820
 2037.60000   31.09300   69.04430    8.95050   16.51020    2.60790    0.07430
 2037.65000   31.89860   69.44560    8.97050   16.62820    2.60590    0.07050
 2037.70000   32.80400   70.11440    8.99050   16.74620    2.60360    0.06620
 2037.75000   34.01940   70.81840    9.01050   16.86410    2.60100    0.05860
 2037.80000   35.23480   71.52240    9.03050   16.99360    2.59840    0.02820
 2037.85000   36.45020   72.22640    9.05050   17.33730    2.59570    0.02250
 2037.90000   37.31530   72.93030    9.07050   17.58740    2.59310    0.01760
 2037.95000   38.15110   73.63430    9.08420   17.76320    2.59250    0.01470
 2038.00000   39.16090   72.26640    9.08450   17.93900    2.59290    0.01170
 2038.05000   40.17070   73.68890    9.08470   18.03970    2.59330    0.00880
 2038.10000   41.18040   75.11130    9.08500   18.09890    2.59370    0.00810
 2038.15000   42.03750   76.53380    9.08530   18.15800    2.59410    0.00810
 2038.20000   42.81810   77.30910    9.08560   18.21720    2.59450    0.00810
 2038.25000   43.01940   77.71050    9.08580   18.27630    2.59490    0.00830
