~Version ---------------------------------------------------
VERS.   2.0 : CWLS log ASCII Standard -VERSION 2.0
WRAP.    NO : One line per depth step
DLM . SPACE : Column Data Section Delimiter
~Well ------------------------------------------------------
STRT.m 2028.00000 : START DEPTH
STOP.m 2082.00000 : STOP DEPTH
STEP.m    0.05000 : STEP
NULL.    -9999.25 : NULL VALUE
COMP.     Unknown : COMPANY
WELL.     Unknown : WELL
FLD .     Unknown : FIELD
LOC .             : LOCATION
PROV.             : PROVINCE
CNTY.             : COUNTY
STAT.             : STATE
CTRY.     Unknown : COUNTRY
SRVC.             : SERVICE COMPANY
DATE.     Unknown : DATE
UWI .     Unknown : UNIQUE WELL ID
API .             : API NUMBER
~Curve Information -----------------------------------------
DEPT.m       : depths
GRS .api     : Gamma-Ray Spectral, digitalized and interpolated data
GR  .api     : Gamma-Ray, digitalized and interpolated data
CALI.inches  : Caliper, digitalized and interpolated data
NPHI.ls-pu   : Limestone calibrated neutron porosity, digitalized and interpolated data
RHOB.gm/cc   : Bulk density, digitalized and interpolated data
DRHO.gm/cc   : Density correction, digitalized and interpolated data
~Params ----------------------------------------------------
~Other -----------------------------------------------------
~ASCII -----------------------------------------------------
# ...
 2058.90000    4.58330   11.75230    8.85650   13.88380    2.64720    0.04140
 2058.95000    4.38870   11.75510    8.85680   14.05960    2.64420    0.04010
 2059.00000    4.24320   11.81330    8.85710   14.23540    2.64130    0.03880
 2059.05000    4.37830   12.01460    8.85730   14.41120    2.63490    0.03750
 2059.10000    4.51330   12.21600    8.85760   14.58710    2.62760    0.03620
 2059.15000    4.64830   12.41740    8.85790   14.76290    2.62690    0.03340
 2059.20000    4.78330   12.61880    8.85820   14.98440    2.62630    0.02770
 2059.25000    4.91830   12.82010    8.85840   15.21710    2.62560    0.02340
 2059.30000    5.50730   13.02150    8.85870   15.44980    2.62500    0.02050
 2059.35000    6.11010   13.29940    8.85900   15.77860    2.62430    0.01760
 2059.40000    6.71290   13.70080    8.85930   16.12230    2.62370    0.01460
 2059.45000    7.13270   14.10220    8.85950   16.46600    2.62300   -0.02430
 2059.50000    7.40060   14.50360    8.85980   16.66220    2.62240   -0.03000
 2059.55000    7.66850   14.52770    8.85990   16.83800    2.62170   -0.03580
 2059.60000    7.93640   14.53040    8.85220   17.01380    2.62040   -0.04140
 2059.65000    8.20430   14.53310    8.84460   17.24450    2.61740   -0.04520
 2059.70000    8.32150   14.53590    8.83700   17.47720    2.61450   -0.04350
 2059.75000    8.19260   14.53860    8.82940   17.70990    2.61160   -0.02800
 2059.80000    8.06360   14.54140    8.82180   17.94260    2.60220   -0.01170
 2059.85000    7.93470   14.53720    8.81420   18.17540    2.59430   -0.01090
 2059.90000    7.80580   14.27720    8.80650   18.39780    2.59040    0.03690
 2059.95000    7.65350   14.01720    8.79890   18.51580    2.58660    0.04470
 2060.00000    7.39350   13.75720    8.79400   18.63380    2.58270    0.06400
 2060.05000    7.13350   13.49720    8.79430   18.75180    2.57520    0.07250
 2060.10000    6.87350   13.23720    8.79460   18.86980    2.56880    0.07710
 2060.15000    6.61350   13.03040    8.79490   18.89810    2.56590    0.07710
 2060.20000    6.35350   12.83580    8.79510   18.89740    2.56300    0.07710
 2060.25000    6.21990   12.64130    8.79540   18.89680    2.56000    0.07710
 2060.30000    6.09100   12.44680    8.79570   18.89610    2.55800    0.07710
 2060.35000    5.96200   12.25220    8.79600   18.81400    2.55610    0.07670
 2060.40000    5.83310   12.05770    8.79620   18.64860    2.55410    0.07470
 2060.45000    5.70420   11.86310    8.79650   18.48320    2.55560    0.07280
 2060.50000    5.52530   11.84000    8.79680   18.31790    2.55860    0.07080
 2060.55000    5.33070   11.84270    8.79710   18.10270    2.56170    0.06880
 2060.60000    5.13620   11.84550    8.79730   17.78680    2.56640    0.06690
 2060.65000    4.96070   11.84820    8.79760   17.47080    2.57260    0.06490
 2060.70000    4.83180   11.85100    8.79790   17.31800    2.57480    0.06210
 2060.75000    4.70280   11.78660    8.79820   17.26870    2.57690    0.05450
 2060.80000    4.57390   11.69060    8.79840   17.21940    2.57890    0.04820
 2060.85000    4.44500   11.59450    8.79870   17.17010    2.57640    0.04430
 2060.90000    4.32770   11.49840    8.79900   17.12080    2.57250    0.04040
 2060.95000    4.33040   11.40240    8.79930   17.07150    2.56870    0.03650
 2061.00000    4.33310   11.30630    8.79950   17.02220    2.56310    0.03270
 2061.05000    4.33590   11.21020    8.79980   17.01690    2.55550    0.02880
 2061.10000    4.33860   11.18790    8.80010   17.04620    2.54790    0.02490
 2061.15000    4.34140   11.19070    8.80030   17.07560    2.54050    0.02140
 2061.20000    4.34410   11.19340    8.80060   17.10490    2.53760    0.01940
 2061.25000    4.38030   11.19620    8.80090   17.13430    2.53470    0.01740
 2061.30000    4.58160   11.19890    8.79820   17.16370    2.53170    0.01550
 2061.35000    4.78300   11.20160    8.78860   17.26860    2.52950    0.01540
 2061.40000    4.98440   11.20440    8.77900   17.38660    2.52750    0.01640
 2061.45000    5.04270   11.12540    8.76940   17.50460    2.52560    0.01740
 2061.50000    5.04550   11.02940    8.75980   17.62260    2.52500    0.01930
 2061.55000    5.04820   10.93330    8.75020   17.72020    2.52600    0.02550
 2061.60000    5.05100   10.83720    8.74060   17.79910    2.52700    0.03070
 2061.65000    5.05370   10.74120    8.73660   17.87800    2.52860    0.03480
 2061.70000    5.05640   10.64510    8.74250   17.95680    2.53160    0.03890
 2061.75000    5.05920   10.54900    8.74840   18.03780    2.53470    0.04300
 2061.80000    5.06190   10.54140    8.75440   18.12650    2.53780    0.04720
 2061.85000    5.06470   10.54410    8.76030   18.21510    2.54190    0.05130
 2061.90000    5.06740   10.54680    8.76620   18.30380    2.54610    0.05540
 2061.95000    5.07010   10.54960    8.77210   18.39250    2.55020    0.06430
 2062.00000    5.07290   10.55230    8.77800   18.48120    2.55230    0.07400
 2062.05000    5.07560   10.55510    8.78390   18.58320    2.55440    0.07500
 2062.10000    5.07840   10.55780    8.78980   18.70120    2.55640    0.07600
 2062.15000    5.08110   10.56050    8.79570   18.81920    2.55550    0.07700
 2062.20000    5.08380   10.56330    8.80160   18.93720    2.55350    0.07800
 2062.25000    5.08660   10.56600    8.80640   19.08250    2.55160    0.07900
 2062.30000    5.08930   10.56880    8.80660   19.42620    2.54790    0.08000
 2062.35000    5.09210   10.57150    8.80690   19.76990    2.54210    0.08080
 2062.40000    5.09480   10.88700    8.80720   20.11360    2.53490    0.08010
 2062.45000    5.09750   11.28840    8.80750   20.45730    2.52750    0.07940
 2062.50000    5.10030   11.68980    8.80770   20.69340    2.52170    0.07880
 2062.55000    5.10300   11.95230    8.80800   20.86920    2.51670    0.07810
 2062.60000    5.10570   11.95510    8.80830   21.04500    2.51280    0.07750
 2062.65000    5.10850   11.95780    8.80860   21.11430    2.50890    0.07470
 2062.70000    5.11120   11.96050    8.80880   21.14360    2.50520    0.07180
 2062.75000    5.26690   11.96330    8.80910   21.17300    2.50370    0.06890
 2062.80000    5.46820   11.96600    8.80940   21.20240    2.50220    0.06630
 2062.85000    5.66960   11.96880    8.80970   21.23170    2.50080    0.06440
 2062.90000    5.84960   11.97150    8.80990   21.25680    2.49930    0.06240
 2062.95000    5.98470   11.97420    8.81020   21.09140    2.49780    0.06040
 2063.00000    6.11970   11.97700    8.81050   20.92610    2.49630    0.05900
 2063.05000    6.25470   11.97970    8.81080   20.76070    2.49600    0.05770
 2063.10000    6.38970   11.98250    8.81100   20.59530    2.49670    0.05640
 2063.15000    6.48690   11.98520    8.81130   20.30070    2.49740    0.05510
 2063.20000    6.35790   11.98790    8.81160   19.98470    2.49810    0.05380
 2063.25000    6.22900   11.99070    8.81190   19.68980    2.49870    0.05250
 2063.30000    6.10010   11.99340    8.81210   19.52440    2.50260    0.05120
 2063.35000    5.97120   11.99620    8.81240   19.35900    2.50780    0.04990
 2063.40000    5.84220   11.99890    8.81270   19.19370    2.51300    0.04850
 2063.45000    5.10190   12.00160    8.81290   19.02830    2.51750    0.04720
 2063.50000    4.47010   12.00440    8.81320   18.87320    2.52160    0.04590
 2063.55000    4.47290   12.00710    8.81570   18.71830    2.52570    0.04440
 2063.60000    4.47560   12.00990    8.82910   18.56340    2.53170    0.04290
 2063.65000    4.47840   12.01260    8.84250   18.40860    2.54010    0.04150
 2063.70000    3.91270   12.24280    8.85600   18.25370    2.54660    0.04000
 2063.75000    3.13430   12.51070    8.86940   18.03180    2.55290    0.03850
 2063.80000    1.98320   12.77860    8.88280   17.71580    2.55910    0.03700
 2063.85000    1.09220   13.04650    8.88360   17.39990    2.56530    0.03580
 2063.90000    1.22720   13.31440    8.88390   17.12950    2.57160    0.03550
 2063.95000    1.36220   13.50870    8.88420   16.87890    2.57780    0.03510
 2064.00000    1.49720   13.67030    8.88450   16.62820    2.58170    0.03470
