~Version ---------------------------------------------------
VERS.   2.0 : CWLS log ASCII Standard -VERSION 2.0
WRAP.    NO : One line per depth step
DLM . SPACE : Column Data Section Delimiter
~Well ------------------------------------------------------
STRT.m 2028.00000 : START DEPTH
STOP.m 2082.00000 : STOP DEPTH
STEP.m    0.05000 : STEP
NULL.    -9999.25 : NULL VALUE
COMP.     Unknown : COMPANY
WELL.     Unknown : WELL
FLD .     Unknown : FIELD
LOC .             : LOCATION
PROV.             : PROVINCE
CNTY.             : COUNTY
STAT.             : STATE
CTRY.     Unknown : COUNTRY
SRVC.             : SERVICE COMPANY
DATE.     Unknown : DATE
UWI .     Unknown : UNIQUE WELL ID
API .             : API NUMBER
~Curve Information -----------------------------------------
DEPT.m       : depths
GRS .api     : Gamma-Ray Spectral, digitalized and interpolated data
GR  .api     : Gamma-Ray, digitalized and interpolated data
CALI.inches  : Caliper, digitalized and interpolated data
NPHI.ls-pu   : Limestone calibrated neutron porosity, digitalized and interpolated data
RHOB.gm/cc   : Bulk density, digitalized and interpolated data
DRHO.gm/cc   : Density correction, digitalized and interpolated data
~Params ----------------------------------------------------
~Other -----------------------------------------------------
~ASCII -----------------------------------------------------
# ...
 2053.75000    5.87080   26.27600    8.89220    4.89780    2.63610    0.06560
 2053.80000    6.67640   26.74610    8.87930    5.01580    2.63830    0.07180
 2053.85000    7.27960   27.34880    8.86650    5.16760    2.64030    0.07540
 2053.90000    7.88240   27.95160    8.85360    5.40030    2.64240    0.07840
 2053.95000    8.48520   28.55440    8.84070    5.63300    2.64350    0.08150
 2054.00000    9.08790   28.24670    8.82970    5.85220    2.64420    0.08230
 2054.05000    9.69070   27.85620    8.82990    6.04710    2.64480    0.08040
 2054.10000   10.29350   27.46570    8.83020    6.24200    2.64550    0.07840
 2054.15000   10.82680   27.07520    8.83050    6.43690    2.64620    0.07640
 2054.20000   10.96180   26.68480    8.83080    6.63180    2.64590    0.07100
 2054.25000   11.09680   26.02620    8.83100    7.17760    2.64540    0.06550
 2054.30000   11.23180   25.24780    8.83130    7.68780    2.64490    0.06160
 2054.35000   11.36680   24.46950    8.83160    8.13900    2.64440    0.05800
 2054.40000   11.50180   23.72660    8.83190    9.05340    2.64390    0.05510
 2054.45000   10.75060   23.14150    8.83210    9.28610    2.64340    0.05220
 2054.50000    9.97220   22.55640    8.83240    9.51880    2.64240    0.04930
 2054.55000    9.19380   21.97130    8.83270    9.75150    2.64050    0.04800
 2054.60000    8.59500   21.38620    8.83290    9.98420    2.63850    0.04740
 2054.65000    8.20450   20.80120    8.83320   10.21690    2.63660    0.04670
 2054.70000    7.81400   20.21610    8.83350   10.28630    2.63600    0.04610
 2054.75000    7.42350   19.44750    8.83380   10.34550    2.63530    0.04540
 2054.80000    7.03310   17.90880    8.83400   10.40460    2.63470    0.04510
 2054.85000    6.68910   16.68570    8.83430   10.46380    2.63400    0.04510
 2054.90000    6.49450   15.90730    8.83460   10.52290    2.63430    0.04510
 2054.95000    6.30000   15.12890    8.83490   10.53470    2.63840    0.04510
 2055.00000    6.10550   14.35050    8.83510   10.36930    2.64250    0.04510
 2055.05000    6.06190   14.16160    8.83540   10.20390    2.64650    0.04510
 2055.10000    6.06470   14.03270    8.83570   10.03860    2.64860    0.04510
 2055.15000    6.06740   13.90370    8.83600    9.87320    2.65060    0.04520
 2055.20000    6.07010   13.77480    8.83620    9.70780    2.65260    0.04520
 2055.25000    6.07290   13.64590    8.83650    9.54240    2.65470    0.04360
 2055.30000    5.99990   13.89120    8.83680    9.37700    2.65620    0.04170
 2055.35000    5.87090   14.29250    8.83710    9.21170    2.65620    0.03970
 2055.40000    5.74200   14.69390    8.83730    9.04630    2.65620    0.03680
 2055.45000    5.61310   15.14950    8.83760    8.88090    2.65610    0.03100
 2055.50000    5.48410   15.75230    8.83790    8.71550    2.65220    0.02700
 2055.55000    5.44140   16.35510    8.83820    8.55010    2.64870    0.02500
 2055.60000    5.54330   16.95780    8.83840    8.48160    2.64570    0.02310
 2055.65000    5.64520   17.56060    8.83870    8.45060    2.64280    0.02110
 2055.70000    5.74710   18.16340    8.83900    8.41960    2.64010    0.02180
 2055.75000    5.84890   18.76610    8.83930    8.38860    2.64010    0.02280
 2055.80000    5.95080   19.17230    8.83950    8.35760    2.64010    0.02390
 2055.85000    6.05270   19.30730    8.83980    8.33420    2.64010    0.02820
 2055.90000    6.15460   19.44230    8.84010    8.42290    2.64010    0.03670
 2055.95000    6.25650   19.57730    8.84030    8.51160    2.64050    0.04080
 2056.00000    6.35840   19.71230    8.84470    8.60030    2.64260    0.04380
 2056.05000    6.46030   19.76760    8.86470    8.68890    2.64460    0.04690
 2056.10000    6.56220   19.57300    8.88470    8.77760    2.64660    0.04960
 2056.15000    6.66400   19.37850    8.90470    8.87540    2.64870    0.05160
 2056.20000    6.76590   19.18400    8.91020    8.99330    2.65070    0.05360
 2056.25000    6.73930   18.83850    8.91050    9.11130    2.65270    0.05560
 2056.30000    6.61030   18.44800    8.91080    9.22930    2.65250    0.05770
 2056.35000    6.48140   18.05760    8.91100    9.34730    2.65190    0.05920
 2056.40000    6.35250   17.66710    8.91130    9.57710    2.65120    0.05920
 2056.45000    6.22360   17.27660    8.91160    9.80980    2.65060    0.05920
 2056.50000    6.09460   16.88610    8.91190   10.05060    2.64990    0.05920
 2056.55000    5.96570   16.49560    8.91210   10.50170    2.64860    0.05700
 2056.60000    5.83680   16.10520    8.91240   11.47030    2.64730    0.05410
 2056.65000    5.70780   15.70290    8.91270   11.62700    2.64600    0.05120
 2056.70000    5.57890   15.11780    8.91290   11.78360    2.64470    0.04870
 2056.75000    5.45000   14.53270    8.91320   11.94030    2.64360    0.04810
 2056.80000    5.32100   13.94760    8.90580   12.09810    2.64560    0.04740
 2056.85000    5.19210   13.69480    8.89290   12.27400    2.64760    0.04670
 2056.90000    5.06320   13.69750    8.88010   12.44980    2.64970    0.04610
 2056.95000    4.93430   13.70030    8.86720   12.57130    2.65530    0.04540
 2057.00000    4.80530   13.70300    8.85430   12.38480    2.66060    0.04350
 2057.05000    4.80160   13.70570    8.84640   12.19830    2.66370    0.04160
 2057.10000    4.80440   13.70850    8.84660   11.88470    2.66670    0.03960
 2057.15000    4.80710   13.71120    8.84690   11.38910    2.66950    0.03770
 2057.20000    4.80990   13.97120    8.84720   11.26560    2.67010    0.03570
 2057.25000    4.81260   14.37250    8.84750   11.14210    2.67080    0.03250
 2057.30000    5.01710   14.77390    8.84770   11.01870    2.67150    0.02860
 2057.35000    5.28500   15.17530    8.84800   10.89520    2.67220    0.02480
 2057.40000    5.55290   15.57670    8.84830   10.77170    2.67140    0.02080
 2057.45000    5.82080   16.07690    8.84860   10.64820    2.66760    0.01500
 2057.50000    6.08870   16.67960    8.84880   10.52470    2.66370    0.00980
 2057.55000    6.43600   17.28240    8.84910   10.40120    2.65980    0.00590
 2057.60000    6.83740   17.82810    8.84940   10.27770    2.65400    0.00320
 2057.65000    7.23870   17.56810    8.84970   10.22370    2.64830    0.00190
 2057.70000    7.56450   17.30810    8.84990   10.34170    2.64250    0.00060
 2057.75000    7.48810   17.04810    8.85020   10.45960    2.63850   -0.00070
 2057.80000    7.41180   16.78810    8.85050   10.57760    2.63560   -0.00200
 2057.85000    7.33550   16.52810    8.85080   10.69560    2.63270   -0.00270
 2057.90000    7.25910   15.82620    8.85100   11.13130    2.63090   -0.00070
 2057.95000    7.18280   15.04780    8.85130   11.47070    2.63160    0.00140
 2058.00000    7.10650   14.26950    8.85160   11.66560    2.63230    0.00340
 2058.05000    7.03010   13.62490    8.85190   11.86050    2.63290    0.00540
 2058.10000    6.95380   13.23440    8.85210   12.05540    2.63360    0.00740
 2058.15000    6.72150   12.84390    8.85240   12.24820    2.63460    0.00950
 2058.20000    6.33100   12.45350    8.85270   12.40490    2.63600    0.01150
 2058.25000    5.94050   12.06300    8.85290   12.56150    2.63730    0.01350
 2058.30000    5.55670   11.71940    8.85320   12.71820    2.63870    0.01560
 2058.35000    5.69180   11.72220    8.85350   12.87480    2.64000    0.01760
 2058.40000    5.82680   11.72490    8.85380   12.98420    2.64140    0.02050
 2058.45000    5.96180   11.72770    8.85400   13.07290    2.64270    0.02360
 2058.50000    6.09680   11.73040    8.85430   13.16160    2.64410    0.02660
 2058.55000    6.23180   11.73310    8.85460   13.25030    2.64540    0.02970
 2058.60000    6.03720   11.73590    8.85490   13.33900    2.64680    0.03280
 2058.65000    5.77720   11.73860    8.85510   13.42770    2.64750    0.03580
 2058.70000    5.51720   11.74140    8.85540   13.50710    2.64820    0.03880
 2058.75000    5.25720   11.74410    8.85570   13.58600    2.64890    0.03980
 2058.80000    4.99720   11.74680    8.85600   13.66490    2.64960    0.04080
 2058.85000    4.77780   11.74960    8.85620   13.74370    2.65010    0.04180
