~Version ---------------------------------------------------
VERS.   2.0 : CWLS log ASCII Standard -VERSION 2.0
WRAP.    NO : One line per depth step
DLM . SPACE : Column Data Section Delimiter
~Well ------------------------------------------------------
STRT.m 1330.00000 : START DEPTH
STOP.m 1380.00000 : STOP DEPTH
STEP.m    0.05000 : STEP
NULL.    -9999.25 : NULL VALUE
COMP.     Unknown : COMPANY
WELL.     Unknown : WELL
FLD .     Unknown : FIELD
LOC .             : LOCATION
PROV.             : PROVINCE
CNTY.             : COUNTY
STAT.             : STATE
CTRY.     Unknown : COUNTRY
SRVC.             : SERVICE COMPANY
DATE.     Unknown : DATE
UWI .     Unknown : UNIQUE WELL ID
API .             : API NUMBER
~Curve Information -----------------------------------------
DEPT            .m            : depths
GammaKT         .api          : digitalized and interpolated data
GammaTotal      .api          : digitalized and interpolated data
Bit Size        .inches       : digitalized and interpolated data
Pe              .             : digitalized and interpolated data
DensityCorr     .gram per cc  : digitalized and interpolated data
Neutron Porosity.decp         : digitalized and interpolated data
Density         .gram per cc  : digitalized and interpolated data
~Params ----------------------------------------------------
~Other -----------------------------------------------------
~ASCII -----------------------------------------------------
# ...
 1357.00000   17.22840   92.99740    8.60550    4.93370    0.02650    0.05810    2.58720
 1357.05000   17.64140   91.04220    8.60790    4.92030    0.03830    0.06240    2.58620
 1357.10000   18.03130   88.03260    8.61030    4.90930    0.04210    0.06440    2.58810
 1357.15000   18.58840   84.82970    8.61270    4.89830    0.04770    0.06870    2.58970
 1357.20000   18.36950   80.32230    8.59590    4.88730    0.05420    0.06380    2.59010
 1357.25000   18.16300   75.08290    8.58440    4.89790    0.06520    0.06260    2.59040
 1357.30000   18.07190   70.05230    8.59730    4.91460    0.07610    0.06130    2.59080
 1357.35000   17.98080   64.50030    8.60850    4.93390    0.08530    0.06610    2.59200
 1357.40000   17.90660   58.69250    8.60700    4.96340    0.10300    0.06620    2.59360
 1357.45000   17.84650   52.94170    8.60550    4.99440    0.11480    0.06590    2.59680
 1357.50000   17.78640   49.12040    8.60400    5.02800    0.12060    0.06550    2.60430
 1357.55000   17.72630   45.49790    8.60220    5.03420    0.12580    0.06180    2.61240
 1357.60000   17.66620   42.77080    8.59990    5.01250    0.12530    0.06170    2.61750
 1357.65000   17.60600   40.76950    8.59760    5.01430    0.11550    0.06330    2.61940
 1357.70000   17.54590   39.55400    8.59910    4.93530    0.10890    0.06590    2.61780
 1357.75000   17.36480   38.50480    8.60220    4.88680    0.09220    0.06290    2.61380
 1357.80000   17.09030   37.78290    8.60500    4.87040    0.08490    0.06060    2.60230
 1357.85000   16.69040   37.18200    8.60300    4.85390    0.07720    0.06460    2.59680
 1357.90000   16.06150   36.70750    8.60110    4.84350    0.06970    0.06700    2.59060
 1357.95000   15.27560   36.24370    8.59910    4.84030    0.06630    0.06200    2.59290
 1358.00000   14.15770   35.59970    8.60030    4.83710    0.06370    0.06390    2.59640
 1358.05000   13.13210   34.77170    8.60410    4.83740    0.06310    0.06660    2.60490
 1358.10000   12.08010   33.96900    8.60790    4.85110    0.06260    0.06360    2.61450
 1358.15000   10.92900   33.35910    8.60920    4.86470    0.05850    0.04740    2.62370
 1358.20000    9.79830   32.84230    8.60830    4.87810    0.05480    0.04500    2.62900
 1358.25000    8.71170   32.50150    8.60730    4.89130    0.05250    0.04900    2.63050
 1358.30000    7.95280   32.16070    8.60710    4.94480    0.04240    0.04680    2.63120
 1358.35000    7.62040   31.86540    8.60700    4.91350    0.03530    0.04450    2.63030
 1358.40000    7.28800   31.58220    8.60680    4.88210    0.02940    0.04460    2.62900
 1358.45000    6.95560   31.42410    8.60660    4.86250    0.02290    0.04700    2.62800
 1358.50000    6.63810   31.36920    8.60510    4.84720    0.01770    0.04910    2.62710
 1358.55000    6.52600   31.31430    8.60270    4.83190    0.01760    0.04890    2.62620
 1358.60000    6.41390   31.25950    8.60040    4.84680    0.01750    0.05190    2.62390
 1358.65000    6.29940   31.22040    8.60170    4.86630    0.01560    0.05590    2.62040
 1358.70000    6.17170   31.20350    8.60410    4.88770    0.01580    0.05680    2.61560
 1358.75000    6.04010   31.18660    8.60660    4.92350    0.01620    0.06000    2.61000
 1358.80000    5.83070   30.86320    8.60550    5.01100    0.01600    0.06030    2.60380
 1358.85000    5.62130   30.38910    8.60160    5.00180    0.01580    0.06560    2.59870
 1358.90000    5.42330   30.06160    8.59850    4.99270    0.01530    0.06600    2.59340
 1358.95000    5.23540   29.75400    8.60150    4.98360    0.01430    0.06450    2.58720
 1359.00000    5.04750   29.44640    8.60450    4.97520    0.01340    0.06530    2.58110
 1359.05000    5.02010   29.23180    8.60480    4.96680    0.01120    0.06610    2.57550
 1359.10000    5.00950   29.02800    8.60460    4.95850    0.00970    0.06760    2.57030
 1359.15000    4.99900   28.86890    8.60450    4.95140    0.00910    0.06670    2.56580
 1359.20000    4.98850   29.00030    8.60430    4.95270    0.00850    0.06610    2.56290
 1359.25000    4.97790   29.13180    8.60410    4.95400    0.00550    0.06640    2.55920
 1359.30000    4.97350   29.53110    8.60400    4.95530    0.00430    0.06870    2.56090
 1359.35000    5.10930   30.45740    8.60380    4.95880    0.00350    0.06920    2.56300
 1359.40000    5.24510   31.63770    8.60370    4.96220    0.00530    0.06960    2.56440
 1359.45000    5.33480   33.03650    8.60320    5.00370    0.00270    0.06910    2.56520
 1359.50000    5.35510   35.24760    8.59940    5.00740    0.00230    0.06860    2.56610
 1359.55000    5.37550   37.59110    8.59660    4.98910    0.00230    0.06760    2.56560
 1359.60000    5.39580   39.96720    8.59980    5.01940    0.00120    0.06580    2.56380
 1359.65000    5.41610   44.36120    8.60290    5.04330    0.00020    0.06380    2.56310
 1359.70000    5.43640   48.51090    8.60270    5.04630    0.00020    0.06120    2.56390
 1359.75000    5.45670   53.39190    8.60260    4.99720    0.00040    0.06130    2.56570
 1359.80000    5.47700   57.92210    8.60240    5.01220    0.00050    0.05660    2.56900
 1359.85000    5.43500   62.81810    8.60230    5.02610    0.00090    0.05780    2.57390
 1359.90000    5.38740   66.92420    8.60210    5.02460    0.00120    0.05480    2.58050
 1359.95000    5.34520   71.65040    8.60200    5.02310   -0.00150    0.04890    2.58880
 1360.00000    5.48450   75.59220    8.60180    5.02170    0.00140    0.04560    2.59400
 1360.05000    5.63370   79.71290    8.60160    5.01850    0.00090    0.04730    2.60030
 1360.10000    5.78290   83.19920    8.60050    5.01510    0.00020    0.04340    2.60690
 1360.15000    5.96200   86.28920    8.59700    5.01000    0.00030    0.04170    2.61250
 1360.20000    6.39970   87.98570    8.59470    4.98780    0.00100    0.04030    2.61730
 1360.25000    6.85240   89.27720    8.59790    4.96570    0.00170    0.03900    2.62220
 1360.30000    7.38890   90.06450    8.60090    4.94170    0.00460    0.04020    2.62670
 1360.35000    8.10680   90.51770    8.60070    4.91610    0.00490    0.03870    2.62950
 1360.40000    8.88200   90.65060    8.60050    4.88880    0.00520    0.03930    2.63180
 1360.45000    9.64430   89.83600    8.60040    4.85520    0.00550    0.04180    2.63340
 1360.50000   10.54100   88.86820    8.60020    4.82360    0.00590    0.04330    2.63470
 1360.55000   11.46540   87.50620    8.60010    4.80120    0.00680    0.04480    2.63460
 1360.60000   12.21770   85.74380    8.59990    4.77880    0.00780    0.04620    2.63420
 1360.65000   12.96310   83.47320    8.59980    4.77260    0.00870    0.05240    2.63340
 1360.70000   13.76230   80.34880    8.59960    4.77910    0.00970    0.05680    2.63270
 1360.75000   14.43270   77.95130    8.59910    4.78560    0.01040    0.06110    2.63190
 1360.80000   14.89500   74.64830    8.59810    4.80580    0.01090    0.06450    2.63120
 1360.85000   15.21780   71.66710    8.59700    4.84010    0.01090    0.06820    2.63010
 1360.90000   15.43810   68.65610    8.59460    4.83320    0.01090    0.06820    2.62820
 1360.95000   15.62980   65.61720    8.58890    4.82110    0.01110    0.07610    2.62630
 1361.00000   15.75660   63.45290    8.58540    4.84050    0.01160    0.07270    2.62400
 1361.05000   15.88350   60.91280    8.58910    4.85010    0.01200    0.07450    2.62090
 1361.10000   16.01030   58.54440    8.59280    4.83480    0.01300    0.07570    2.61730
 1361.15000   16.04050   56.59050    8.59500    4.82490    0.01370    0.07720    2.61390
 1361.20000   15.88450   55.01350    8.59600    4.82210    0.01270    0.07850    2.61190
 1361.25000   15.63930   53.55520    8.59700    4.81930    0.01170    0.07560    2.60990
 1361.30000   15.36670   52.33240    8.59770    4.81740    0.00760    0.07460    2.60670
 1361.35000   14.98020   50.79990    8.59760    4.81570    0.00390    0.07200    2.60900
 1361.40000   14.55310   49.97940    8.59730    4.81720    0.00250    0.07250    2.61230
 1361.45000   14.22070   49.43620    8.59500    4.82340    0.00280    0.06890    2.61740
