~Version ---------------------------------------------------
VERS.   2.0 : CWLS log ASCII Standard -VERSION 2.0
WRAP.    NO : One line per depth step
DLM . SPACE : Column Data Section Delimiter
~Well ------------------------------------------------------
STRT.m 1330.00000 : START DEPTH
STOP.m 1380.00000 : STOP DEPTH
STEP.m    0.05000 : STEP
NULL.    -9999.25 : NULL VALUE
COMP.     Unknown : COMPANY
WELL.     Unknown : WELL
FLD .     Unknown : FIELD
LOC .             : LOCATION
PROV.             : PROVINCE
CNTY.             : COUNTY
STAT.             : STATE
CTRY.     Unknown : COUNTRY
SRVC.             : SERVICE COMPANY
DATE.     Unknown : DATE
UWI .     Unknown : UNIQUE WELL ID
API .             : API NUMBER
~Curve Information -----------------------------------------
DEPT            .m            : depths
GammaKT         .api          : digitalized and interpolated data
GammaTotal      .api          : digitalized and interpolated data
Bit Size        .inches       : digitalized and interpolated data
Pe              .             : digitalized and interpolated data
DensityCorr     .gram per cc  : digitalized and interpolated data
Neutron Porosity.decp         : digitalized and interpolated data
Density         .gram per cc  : digitalized and interpolated data
~Params ----------------------------------------------------
~Other -----------------------------------------------------
~ASCII -----------------------------------------------------
# ...
 1334.50000    3.71250    5.73000    8.63290    4.91940    0.01860    0.17810    2.35760
 1334.55000    3.72670    5.70500    8.63170    4.95010    0.01530    0.17320    2.35790
 1334.60000    3.74100    5.68000    8.63150    4.91040    0.00920    0.17090    2.35500
 1334.65000    3.75520    5.65510    8.63220    4.94900    0.00630    0.17220    2.35010
 1334.70000    3.76940    5.61630    8.63500    4.98820    0.00580    0.17090    2.34800
 1334.75000    3.79030    5.57160    8.63780    5.04170    0.00520    0.17260    2.34660
 1334.80000    3.81440    5.52430    8.63420    5.08090    0.00420    0.17580    2.34540
 1334.85000    3.83840    5.31940    8.63350    5.11670    0.00230    0.17240    2.34730
 1334.90000    3.82100    5.12350    8.64710    5.14740    0.00220    0.17020    2.34920
 1334.95000    3.76630    5.04880    8.66060    5.17000    0.00600    0.17040    2.35550
 1335.00000    3.71170    4.97420    8.59550    5.21680    0.01070    0.17170    2.37050
 1335.05000    3.67280    4.89960    8.60780    5.22430    0.01210    0.16930    2.37950
 1335.10000    3.63400    4.89760    8.62020    5.20110    0.01320    0.16510    2.38440
 1335.15000    3.53510    4.98530    8.63260    5.19460    0.01600    0.16480    2.38750
 1335.20000    3.40540    5.07290    8.63170    5.18580    0.01540    0.16560    2.38720
 1335.25000    3.27570    5.16060    8.63050    5.16810    0.01480    0.16870    2.38330
 1335.30000    3.19360    5.23870    8.62930    5.16230    0.01440    0.17110    2.37720
 1335.35000    3.14360    5.31450    8.62920    5.16930    0.01800    0.17400    2.36930
 1335.40000    3.09350    5.40530    8.62900    5.16480    0.02200    0.18370    2.36410
 1335.45000    3.04340    5.53320    8.62880    5.12830    0.02790    0.17990    2.35770
 1335.50000    2.99330    5.66110    8.62870    5.13390    0.03320    0.19010    2.35130
 1335.55000    2.93320    5.74590    8.63050    5.13960    0.03810    0.19260    2.34520
 1335.60000    2.78530    5.81720    8.63340    5.15440    0.04000    0.19970    2.33960
 1335.65000    2.65870    5.88840    8.63420    5.18780    0.04050    0.20060    2.33300
 1335.70000    2.56490    5.98500    8.63070    5.16160    0.04100    0.20110    2.32760
 1335.75000    2.47110    6.08420    8.62870    5.17490    0.04060    0.19690    2.32290
 1335.80000    2.38750    6.18340    8.63220    5.14870    0.03890    0.19280    2.31980
 1335.85000    2.31820    6.28830    8.63970    5.10420    0.03710    0.19110    2.31830
 1335.90000    2.24890    6.39410    8.65780    5.10420    0.03490    0.19110    2.31670
 1335.95000    2.17950    6.49990    8.67580    5.02430    0.03560    0.17970    2.31520
 1336.00000    2.18790    6.71620    8.62920    5.00180    0.03630    0.19050    2.31370
 1336.05000    2.23260    6.96110    8.63070    4.97830    0.03430    0.18800    2.31110
 1336.10000    2.27730    7.17740    8.63210    4.92580    0.03410    0.18640    2.30820
 1336.15000    2.31020    7.33140    8.63360    4.90590    0.03420    0.18320    2.30500
 1336.20000    2.28710    7.48540    8.63360    4.89330    0.03360    0.18190    2.30320
 1336.25000    2.26390    7.72860    8.63340    4.88340    0.03260    0.18220    2.30150
 1336.30000    2.24080    7.97280    8.63330    4.88050    0.03160    0.18310    2.30180
 1336.35000    2.21760    8.30730    8.63310    4.87760    0.03080    0.18450    2.30390
 1336.40000    2.19370    8.69070    8.63300    4.86150    0.02980    0.18550    2.30660
 1336.45000    2.04750    9.11350    8.63280    4.84330    0.02730    0.18320    2.30950
 1336.50000    1.90140    9.59070    8.63270    4.81660    0.02420    0.18390    2.31210
 1336.55000    1.75950   10.14780    8.63250    4.78200    0.01940    0.18290    2.31230
 1336.60000    1.63310   10.77580    8.63230    4.75620    0.01300    0.18110    2.31120
 1336.65000    1.50660   11.49050    8.63220    4.74030    0.01050    0.18100    2.30800
 1336.70000    1.37390   12.18720    8.63200    4.72440    0.00540    0.18180    2.30310
 1336.75000    1.24050   13.07530    8.63190    4.71450    0.00190    0.18040    2.29890
 1336.80000    1.12570   13.78360    8.63170    4.71000    0.00000    0.18130    2.29480
 1336.85000    1.06260   14.40720    8.62910    4.70560   -0.00070    0.18410    2.29300
 1336.90000    0.99950   14.95670    8.62530    4.70420   -0.00140    0.18470    2.29120
 1336.95000    0.93640   15.32560    8.67420    4.71360   -0.00070    0.18480    2.29190
 1337.00000    0.94780   15.63200    8.66910    4.72290    0.00100    0.18500    2.29310
 1337.05000    0.96120   15.75570    8.65600    4.72950    0.00220    0.18720    2.29390
 1337.10000    0.97460   15.87930    8.64290    4.73840    0.00320    0.18760    2.29400
 1337.15000    0.98800   15.87470    8.63060    4.76700    0.00390    0.18910    2.29400
 1337.20000    1.00140   15.84090    8.63050    4.76410    0.00420    0.18950    2.29400
 1337.25000    1.01480   15.75950    8.63030    4.74980    0.00460    0.19010    2.29300
 1337.30000    1.07780   15.60760    8.63020    4.75190    0.00500    0.19100    2.29170
 1337.35000    1.14150   15.48440    8.63000    4.75410    0.00570    0.19070    2.29070
 1337.40000    1.21350   15.40420    8.63010    4.69670    0.00700    0.19030    2.29030
 1337.45000    1.28890   15.32390    8.63170    4.68280    0.00820    0.19330    2.28980
 1337.50000    1.35450   15.24370    8.63330    4.66890    0.00950    0.19490    2.28890
 1337.55000    1.41750   15.24730    8.63250    4.66340    0.01300    0.19390    2.28760
 1337.60000    1.52020   15.28300    8.62870    4.67280    0.01400    0.19300    2.28620
 1337.65000    1.66830   15.31860    8.62500    4.68220    0.01490    0.19440    2.28490
 1337.70000    1.81410   15.36670    8.62910    4.70260    0.01820    0.19600    2.28360
 1337.75000    1.94650   15.42980    8.63500    4.72920    0.01860    0.19790    2.28390
 1337.80000    2.07890   15.50210    8.63810    4.75810    0.01890    0.19910    2.28490
 1337.85000    2.44170   15.62920    8.64080    4.79040    0.02020    0.19980    2.28620
 1337.90000    2.55360   15.75630    8.63520    4.86420    0.02150    0.19690    2.29020
 1337.95000    2.65720   15.80910    8.62080    4.86910    0.02080    0.18940    2.29900
 1338.00000    2.76090   15.85230    8.62610    4.88040    0.01960    0.19970    2.30520
 1338.05000    2.86450   15.89540    8.63140    4.92470    0.01770    0.18630    2.31230
 1338.10000    2.98220   15.93920    8.63670    4.92080    0.01600    0.18160    2.32080
 1338.15000    3.21710   15.98320    8.64120    4.91690    0.01430    0.17860    2.32880
 1338.20000    3.45200   16.02720    8.63310    4.92470    0.01210    0.17700    2.33670
 1338.25000    3.74190   16.04480    8.62790    4.94310    0.01000    0.17530    2.34310
 1338.30000    4.05850   16.03250    8.63040    4.96160    0.00870    0.17110    2.35050
 1338.35000    4.24710   16.02010    8.63290    4.92470    0.00740    0.16870    2.35880
 1338.40000    4.41690   16.00770    8.63300    4.96220    0.00610    0.16180    2.36700
 1338.45000    4.63690   16.02420    8.63280    5.01640    0.00660    0.15670    2.37640
 1338.50000    4.87240   16.08450    8.63250    5.04520    0.00730    0.15270    2.38510
 1338.55000    5.05960   16.14480    8.63240    5.06280    0.00810    0.14560    2.39430
 1338.60000    5.15200   16.20500    8.63260    5.12780    0.00880    0.14620    2.40210
 1338.65000    5.12030   16.23440    8.63280    5.12570    0.00750    0.14200    2.40850
 1338.70000    5.05260   16.22900    8.63290    5.08140    0.00840    0.13520    2.41200
 1338.75000    4.98490   16.22360    8.63270    5.07970    0.00900    0.13620    2.41280
 1338.80000    4.91710   16.32050    8.63260    5.04410    0.00910    0.13360    2.41260
 1338.85000    4.84940   16.42560    8.63240    5.02860    0.00880    0.13550    2.40990
 1338.90000    4.68730   16.49200    8.63230    4.99040    0.00800    0.13770    2.40590
 1338.95000    4.47540   16.38750    8.63210    4.95010    0.00780    0.13660    2.40050
