~Version ---------------------------------------------------
VERS.   2.0 : CWLS log ASCII Standard -VERSION 2.0
WRAP.    NO : One line per depth step
DLM . SPACE : Column Data Section Delimiter
~Well ------------------------------------------------------
STRT.m 2028.00000 : START DEPTH
STOP.m 2082.00000 : STOP DEPTH
STEP.m    0.05000 : STEP
NULL.    -9999.25 : NULL VALUE
COMP.     Unknown : COMPANY
WELL.     Unknown : WELL
FLD .     Unknown : FIELD
LOC .             : LOCATION
PROV.             : PROVINCE
CNTY.             : COUNTY
STAT.             : STATE
CTRY.     Unknown : COUNTRY
SRVC.             : SERVICE COMPANY
DATE.     Unknown : DATE
UWI .     Unknown : UNIQUE WELL ID
API .             : API NUMBER
~Curve Information -----------------------------------------
DEPT.m       : depths
GRS .api     : Gamma-Ray Spectral, digitalized and interpolated data
GR  .api     : Gamma-Ray, digitalized and interpolated data
CALI.inches  : Caliper, digitalized and interpolated data
NPHI.ls-pu   : Limestone calibrated neutron porosity, digitalized and interpolated data
RHOB.gm/cc   : Bulk density, digitalized and interpolated data
DRHO.gm/cc   : Density correction, digitalized and interpolated data
~Params ----------------------------------------------------
~Other -----------------------------------------------------
~ASCII -----------------------------------------------------
 2028.00000   24.44270   68.39910    8.91430   13.36900    2.55890   -0.00230
 2028.05000   24.44550   67.87870    8.91430   13.14310    2.56030   -0.00020
 2028.10000   24.48690   67.35840    8.91430   13.01960    2.56160    0.00390
 2028.15000   24.75480   66.68480    8.91430   12.89610    2.56300    0.00800
 2028.20000   25.02270   65.14620    8.91430   12.77260    2.56430    0.01220
 2028.25000   25.29050   63.74830    8.91430   12.64970    2.56610    0.01690
 2028.30000   25.55840   62.58730    8.91430   12.62480    2.56810    0.02210
 2028.35000   25.82630   61.89430    8.91430   12.59990    2.57010    0.02730
 2028.40000   25.57720   61.50380    8.91430   12.57500    2.57220    0.03180
 2028.45000   25.31720   61.11330    8.91430   12.55010    2.57420    0.03450
 2028.50000   25.05720   60.69880    8.91430   12.52520    2.57460    0.03720
 2028.55000   24.79720   60.11370    8.91430   12.50030    2.57470    0.03990
 2028.60000   24.53720   59.52860    8.91430   12.47540    2.57470    0.04260
 2028.65000   24.17730   58.94350    8.91430   12.51020    2.57470    0.04540
 2028.70000   23.78680   57.99670    8.91430   12.54950    2.57470    0.04850
 2028.75000   23.39630   56.83560    8.91430   12.58880    2.57470    0.05150
 2028.80000   23.07960   56.00460    8.91430   12.62810    2.57470    0.05460
 2028.85000   22.95070   55.22620    8.91430   12.68020    2.57470    0.05690
 2028.90000   22.82170   54.44780    8.91430   12.73930    2.57400    0.05890
 2028.95000   22.69280   53.80720    8.91430   12.79850    2.57300    0.06090
 2029.00000   22.56390   53.41670    8.91430   12.85760    2.57200    0.06300
 2029.05000   22.42970   53.02630    8.91430   12.91680    2.57060    0.06500
 2029.10000   22.23520   52.63580    8.91430   12.97590    2.56860    0.06610
 2029.15000   22.04060   51.57380    8.91430   13.00240    2.56670    0.06650
 2029.20000   21.84610   50.41280    8.91430   13.02580    2.56480    0.06690
 2029.25000   21.61170   49.25170    8.91430   13.04910    2.56350    0.06730
 2029.30000   21.35170   48.09060    8.91430   13.07250    2.56220    0.06770
 2029.35000   21.09170   46.92950    8.91430   13.09590    2.56090    0.06810
 2029.40000   20.83170   46.21130    8.91430   13.11930    2.55960    0.06850
 2029.45000   20.57170   45.82080    8.91430   13.14260    2.55890    0.06890
 2029.50000   20.26030   45.43030    8.91430   13.14700    2.55990    0.06930
 2029.55000   19.86980   45.06660    8.91430   13.14640    2.56090    0.06820
 2029.60000   19.47930   44.97060    8.91430   13.14570    2.56200    0.06690
 2029.65000   19.08880   44.87450    8.91430   13.14500    2.56330    0.06560
 2029.70000   18.87680   44.77840    8.91430   13.14430    2.56470    0.06430
 2029.75000   18.68230   44.68240    8.91430   13.14360    2.56600    0.06300
 2029.80000   18.48770   44.58630    8.91430   13.14290    2.56740    0.05780
 2029.85000   18.37970   44.49020    8.91430   13.10050    2.56910    0.05020
 2029.90000   18.38250   44.45200    8.91430   13.03890    2.57220    0.04600
 2029.95000   18.38520   44.71990    8.91430   12.97740    2.57530    0.04280
 2030.00000   18.38790   44.98780    8.91430   12.96880    2.57820    0.03960
 2030.05000   18.39070   45.25570    8.91430   12.96810    2.57960    0.03630
 2030.10000   18.45930   45.52360    8.91430   12.96740    2.58090    0.03310
 2030.15000   18.72720   45.79150    8.91430   12.96670    2.58230    0.01610
 2030.20000   18.99510   46.19180    8.91430   12.96600    2.58360    0.01220
 2030.25000   19.26300   46.59320    8.91430   12.97660    2.58410    0.00830
 2030.30000   19.53090   46.99460    8.91430   13.03580    2.58210    0.00440
 2030.35000   19.82640   47.39600    8.91430   13.09490    2.58010    0.00250
 2030.40000   20.42910   47.79740    8.91430   13.15410    2.57820    0.00120
 2030.45000   21.03190   48.19870    8.91430   13.21320    2.57690   -0.00010
 2030.50000   21.63470   48.60010    8.91430   13.27240    2.57550   -0.00140
 2030.55000   22.91380   49.00150    8.91430   13.30410    2.57420   -0.00270
 2030.60000   24.54480   49.40290    8.91430   13.30340    2.57290   -0.00270
 2030.65000   24.97670   49.80430    8.91430   13.30270    2.57180   -0.00110
 2030.70000   25.37810   50.76210    8.91430   13.30200    2.57250    0.00040
 2030.75000   25.77940   51.97750    8.91430   13.30130    2.57310    0.00190
 2030.80000   26.18080   52.78750    8.91430   13.30060    2.57380    0.00340
 2030.85000   26.58220   53.36600    8.91430   13.30000    2.57450    0.00490
 2030.90000   26.98360   53.36880    8.91430   13.23290    2.57550    0.00640
 2030.95000   27.34410   53.37150    8.91430   13.04640    2.57760    0.00950
 2031.00000   27.34680   53.37420    8.91430   12.85990    2.57960    0.01360
 2031.05000   27.34960   53.37700    8.91430   12.55780    2.58160    0.01770
 2031.10000   27.35230   53.34330    8.91430   12.22290    2.58370    0.02180
 2031.15000   27.10240   52.95280    8.91430   12.03640    2.58540    0.02590
 2031.20000   26.71200   52.56230    8.91430   11.84990    2.58670    0.03000
 2031.25000   26.32150   52.17180    8.91430   11.69330    2.58810    0.03410
 2031.30000   25.86950   53.01240    8.91430   11.56980    2.58940    0.03700
 2031.35000   25.09110   54.64330    8.91430   11.44630    2.59080    0.03950
 2031.40000   24.62900   56.27430    8.91430   11.32280    2.59080    0.04200
 2031.45000   24.63180   51.86460    8.91430   11.19940    2.59010    0.04460
 2031.50000   24.63450   55.66460    8.91430   11.07590    2.58950    0.04710
 2031.55000   24.63730   59.46460    8.91430   11.08860    2.58880    0.04970
 2031.60000   25.39860   63.26460    8.91430   11.11790    2.58820    0.05220
 2031.65000   26.40110   67.36500    8.91430   11.14730    2.58650    0.05430
 2031.70000   28.03210   66.98570    8.91430   11.17660    2.58450    0.05630
 2031.75000   31.63570   69.68180    8.91430   11.20600    2.58260    0.05830
 2031.80000   36.81480   72.37780    8.91430   11.26250    2.57860    0.05900
 2031.85000   35.34200   75.07390    8.91430   11.43830    2.57290    0.05850
 2031.90000   39.83870   76.06530    8.91430   11.61410    2.57080    0.05800
 2031.95000   40.24010   76.87080    8.91430   11.80540    2.56950    0.05750
 2032.00000   40.64150   77.67640    8.91460   12.03810    2.56820    0.05700
 2032.05000   41.04290   78.68240    8.91490   12.27080    2.56690    0.05660
 2032.10000   41.44430   79.89770    8.91510   12.43240    2.56560    0.05610
 2032.15000   41.84560   80.62640    8.91540   12.45170    2.56610    0.05430
 2032.20000   42.24700   81.22910    8.91570   12.47110    2.56680    0.05140
 2032.25000   42.64840   81.83190    8.92780   12.49050    2.56750    0.04840
 2032.30000   43.04980   82.81520    8.94130   12.50990    2.56810    0.04550
 2032.35000   43.31220   84.44620    8.95470   12.52920    2.56900    0.03980
 2032.40000   43.51360   85.23190    8.96810   12.54860    2.57100    0.03380
 2032.45000   43.71500   85.63320    8.98150   12.56800    2.57300    0.02630
 2032.50000   43.77050   86.03460    8.99500   12.58730    2.57510    0.01930
 2032.55000   43.38000   87.06690    9.00840   12.60670    2.57520    0.01360
 2032.60000   42.98950   89.98050    9.02180   12.62610    2.57520    0.00780
 2032.65000   42.59910   90.01650    9.03520   12.64550    2.57530    0.00210
 2032.70000   41.33280   92.93020    9.04870   12.66480    2.57530   -0.00100
 2032.75000   39.79420   94.29910    9.05570   12.68420    2.57520   -0.00300
 2032.80000   31.26580   95.31070    9.05600   12.70360    2.57460   -0.00490
 2032.85000   29.44240   95.57860    9.05620   12.72300    2.57390   -0.00660
 2032.90000   28.66410   95.84650    9.05650   12.74230    2.57330   -0.00650
 2032.95000   27.88570   96.11440    9.05680   12.78550    2.57260   -0.00650
 2033.00000   27.10730   96.38230    9.05710   12.90350    2.57190   -0.00650
 2033.05000   26.11070   96.58060    9.05730   13.02140    2.57130   -0.00650
 2033.10000   24.94970   95.41950    9.05760   13.13940    2.57060   -0.00650
