~Version ---------------------------------------------------
VERS.   2.0 : CWLS log ASCII Standard -VERSION 2.0
WRAP.    NO : One line per depth step
DLM . SPACE : Column Data Section Delimiter
~Well ------------------------------------------------------
STRT.m 2028.00000 : START DEPTH
STOP.m 2082.00000 : STOP DEPTH
STEP.m    0.05000 : STEP
NULL.    -9999.25 : NULL VALUE
COMP.     Unknown : COMPANY
WELL.     Unknown : WELL
FLD .     Unknown : FIELD
LOC .             : LOCATION
PROV.             : PROVINCE
CNTY.             : COUNTY
STAT.             : STATE
CTRY.     Unknown : COUNTRY
SRVC.             : SERVICE COMPANY
DATE.     Unknown : DATE
UWI .     Unknown : UNIQUE WELL ID
API .             : API NUMBER
~Curve Information -----------------------------------------
DEPT.m       : depths
GRS .api     : Gamma-Ray Spectral, digitalized and interpolated data
GR  .api     : Gamma-Ray, digitalized and interpolated data
CALI.inches  : Caliper, digitalized and interpolated data
NPHI.ls-pu   : Limestone calibrated neutron porosity, digitalized and interpolated data
RHOB.gm/cc   : Bulk density, digitalized and interpolated data
DRHO.gm/cc   : Density correction, digitalized and interpolated data
~Params ----------------------------------------------------
~Other -----------------------------------------------------
~ASCII -----------------------------------------------------
# ...
 2069.20000    0.01210   14.12880    8.97720   11.02030    2.66990    0.03620
 2069.25000    0.19140   14.73150    8.96440   10.35940    2.67290    0.03280
 2069.30000    0.38590   15.42640    8.95150    9.71330    2.67770    0.03080
 2069.35000    0.58040   16.23190    8.93860    9.33090    2.68390    0.02890
 2069.40000    1.06530   17.96980    8.92570    8.94840    2.68710    0.02690
 2069.45000    1.87080   19.98980    8.91430    8.27430    2.69010    0.02630
 2069.50000    2.67640   21.62080    8.91460    7.40360    2.69320    0.02630
 2069.55000    2.09300   22.68820    8.91490    6.54690    2.69630    0.02630
 2069.60000    2.89860   22.88950    8.91510    6.23090    2.69930    0.02630
 2069.65000    3.70420   23.09090    8.91540    5.91500    2.70240    0.02630
 2069.70000    4.50970   23.29230    8.91570    5.68420    2.70540    0.02770
 2069.75000    4.81260   23.43090    8.91600    5.56070    2.70850    0.03080
 2069.80000    4.81530   23.56590    8.91620    5.43730    2.71160    0.03390
 2069.85000    4.81810   23.70090    8.91650    5.31380    2.71460    0.03690
 2069.90000    4.75550   23.83590    8.91680    5.19030    2.71770    0.04000
 2069.95000    4.36500   23.97090    8.91710    5.06680    2.72080    0.04300
 2070.00000    3.97460   24.20800    8.91730    5.11710    2.72320    0.04610
 2070.05000    3.58410   24.47590    8.91760    5.19590    2.72380    0.05710
 2070.10000    3.19360   24.74380    8.90840    5.27480    2.72450    0.06230
 2070.15000    2.80310   25.01160    8.89880    5.35370    2.72520    0.06580
 2070.20000    2.41270   25.27950    8.88930    5.51700    2.72590    0.07430
 2070.25000    2.02220   25.87080    8.87970    5.74970    2.72540    0.08270
 2070.30000    1.63170   26.67640    8.87010    5.98240    2.72340    0.08970
 2070.35000    1.42080   27.00060    8.86050    6.21510    2.72140    0.09590
 2070.40000    1.42360   27.26850    8.85100    6.44780    2.71910    0.10220
 2070.45000    1.42630   27.53640    8.85130    6.68050    2.71530    0.10920
 2070.50000    1.42900   27.80430    8.85160    7.06020    2.70950    0.11760
 2070.55000    1.56360   28.07220    8.85190    7.47750    2.70190    0.11930
 2070.60000    1.69860   27.93160    8.85210    7.71020    2.69580    0.11800
 2070.65000    1.83360   27.63890    8.85240    7.94290    2.69000    0.11670
 2070.70000    1.96860   27.34620    8.85270    8.19970    2.68420    0.11540
 2070.75000    2.10370   27.05350    8.85360    8.54340    2.68020    0.11410
 2070.80000    2.78750   26.76090    8.86380    8.80670    2.67820    0.11130
 2070.85000    3.82940   26.46820    8.87390    9.03940    2.67630    0.10650
 2070.90000    6.74310   26.17550    8.88400    9.27210    2.67430    0.10170
 2070.95000    6.76910   25.65670    8.89420    9.46020    2.67230    0.09690
 2071.00000    7.98450   25.07170    8.90430    9.63600    2.67250    0.09380
 2071.05000    9.19980   24.48660    8.91450    9.81180    2.67450    0.09120
 2071.10000   10.39860   23.63680    8.92340    9.90310    2.67650    0.08860
 2071.15000   11.20410   22.09820    8.92360    9.98190    2.67890    0.08600
 2071.20000   11.78560   21.13370    8.92390   10.06080    2.68200    0.08340
 2071.25000   11.92060   20.74330    8.92420   10.13970    2.68510    0.08070
 2071.30000   12.05560   20.35280    8.92450   10.17380    2.68770    0.07780
 2071.35000   12.19060   19.96230    8.92470   10.17310    2.68820    0.07480
 2071.40000   12.32560   19.57180    8.93710   10.17240    2.68870    0.07190
 2071.45000   12.40920   19.23520    8.95050   10.17170    2.68920    0.06470
 2071.50000   12.21470   19.04060    8.96390   10.14650    2.68970    0.05710
 2071.55000   12.02010   18.84610    8.97730   10.06440    2.69020    0.04960
 2071.60000   11.82560   18.65150    8.99080    9.98230    2.69070    0.04200
 2071.65000   11.49700   18.45700    8.98560    9.90030    2.68810    0.03450
 2071.70000   11.10650   18.26250    8.97270    9.82540    2.68420    0.02930
 2071.75000   10.71610   18.06790    8.95980    9.82480    2.68030    0.02730
 2071.80000   10.32560   17.98240    8.94690    9.82410    2.67720    0.02540
 2071.85000    9.93510   18.11740    8.93400    9.82340    2.67520    0.02340
 2071.90000    9.54460   18.25240    8.92770    9.82270    2.67330    0.02140
 2071.95000    9.15410   18.38740    8.92800    9.82200    2.67110    0.01990
 2072.00000    8.76370   18.52240    8.92830    9.84570    2.66720    0.02120
 2072.05000    8.37320   18.65240    8.92860    9.90490    2.66370    0.02260
 2072.10000    7.98270   18.75430    8.92880    9.96400    2.66080    0.02390
 2072.15000    7.77670   18.85620    8.92910   10.02320    2.65790    0.02530
 2072.20000    8.17810   18.95800    8.92940   10.08230    2.65560    0.02660
 2072.25000    8.57940   19.05990    8.92970   10.14150    2.65700    0.03050
 2072.30000    8.98080   19.16180    8.92990   10.29270    2.65830    0.03470
 2072.35000    9.06470   19.26370    8.93020   10.48760    2.65970    0.03880
 2072.40000    9.06740   19.36560    8.92940   10.68250    2.66100    0.04780
 2072.45000    9.07010   19.46750    8.91650   10.87740    2.66300    0.06090
 2072.50000    9.07290   19.56940    8.90360   11.06100    2.66610    0.07640
 2072.55000    9.07560   19.67120    8.89080   11.21760    2.66910    0.07450
 2072.60000    8.91900   19.77310    8.87790   11.37420    2.67240    0.09760
 2072.65000    8.65900   19.87500    8.86500   11.53090    2.67650    0.10960
 2072.70000    8.39900   19.97690    8.86360   11.68750    2.67770    0.11780
 2072.75000    8.13900   20.07880    8.86390   11.84420    2.67710    0.12400
 2072.80000    7.87900   20.18070    8.86420   12.00080    2.67640    0.13030
 2072.85000    7.41540   20.28260    8.86050   12.15750    2.67580    0.13650
 2072.90000    6.63700   20.38450    8.85090   12.31410    2.67510    0.13870
 2072.95000    6.10650   20.48630    8.84130   12.36220    2.67350    0.13970
 2073.00000    5.71610   20.58820    8.83170   12.33120    2.67150    0.14070
 2073.05000    5.32560   20.69010    8.82210   12.30020    2.66950    0.14020
 2073.10000    4.99620   20.74960    8.81250   12.26920    2.66590    0.13630
 2073.15000    4.99890   20.75230    8.80290   12.23820    2.66010    0.13140
 2073.20000    5.00160   20.75510    8.79790   12.20720    2.65730    0.12570
 2073.25000    5.00440   20.75780    8.79820   12.06210    2.65530    0.12200
 2073.30000    5.56530   20.76050    8.79840   11.90720    2.65330    0.11900
 2073.35000    6.37080   20.76330    8.79870   11.75230    2.65390    0.11610
 2073.40000    6.77670   20.76600    8.79900   11.59750    2.65690    0.10310
 2073.45000    7.17810   20.76880    8.79930   11.44260    2.66000    0.10180
 2073.50000    7.57940   20.77150    8.79950   11.28390    2.66310    0.10050
 2073.55000    7.98080   20.77420    8.79980   11.11860    2.66610    0.09920
 2073.60000    8.38220   20.77700    8.80010   10.95320    2.66920    0.09790
 2073.65000    8.78360   20.77970    8.81060   10.78780    2.67240    0.09660
 2073.70000    9.16170   20.71980    8.82400   10.62240    2.67650    0.09480
 2073.75000    9.36310   20.52530    8.83740   10.45700    2.68060    0.09280
 2073.80000    9.56450   20.33070    8.85080   10.29170    2.68480    0.09080
 2073.85000    9.76580   20.13620    8.86430   10.12630    2.68680    0.08730
 2073.90000    9.96720   19.99710    8.88140    9.96240    2.68880    0.07980
 2073.95000   10.16860   19.86820    8.90140    9.83890    2.69080    0.07220
 2074.00000   10.37000   19.73930    8.92140    9.71540    2.69290    0.06470
 2074.05000   10.52770   19.61030    8.93950    9.59190    2.69460    0.05710
 2074.10000   10.53040   19.48140    8.93980    9.46840    2.69510    0.04960
 2074.15000   10.53310   19.18410    8.94010    9.31840    2.69560    0.04210
 2074.20000   10.53590   18.79360    8.94030    9.16350    2.69610    0.03450
 2074.25000   10.53860   18.40310    8.94060    9.00860    2.69660    0.03120
 2074.30000   10.54140   18.05450    8.94090    8.85380    2.69710    0.02830
