~Version ---------------------------------------------------
VERS.   2.0 : CWLS log ASCII Standard -VERSION 2.0
WRAP.    NO : One line per depth step
DLM . SPACE : Column Data Section Delimiter
~Well ------------------------------------------------------
STRT.m 1330.00000 : START DEPTH
STOP.m 1380.00000 : STOP DEPTH
STEP.m    0.05000 : STEP
NULL.    -9999.25 : NULL VALUE
COMP.     Unknown : COMPANY
WELL.     Unknown : WELL
FLD .     Unknown : FIELD
LOC .             : LOCATION
PROV.             : PROVINCE
CNTY.             : COUNTY
STAT.             : STATE
CTRY.     Unknown : COUNTRY
SRVC.             : SERVICE COMPANY
DATE.     Unknown : DATE
UWI .     Unknown : UNIQUE WELL ID
API .             : API NUMBER
~Curve Information -----------------------------------------
DEPT            .m            : depths
GammaKT         .api          : digitalized and interpolated data
GammaTotal      .api          : digitalized and interpolated data
Bit Size        .inches       : digitalized and interpolated data
Pe              .             : digitalized and interpolated data
DensityCorr     .gram per cc  : digitalized and interpolated data
Neutron Porosity.decp         : digitalized and interpolated data
Density         .gram per cc  : digitalized and interpolated data
~Params ----------------------------------------------------
~Other -----------------------------------------------------
~ASCII -----------------------------------------------------
# ...
 1361.50000   13.89100   49.22640    8.59270    4.83080    0.00820    0.06520    2.61640
 1361.55000   13.31470   49.10970    8.59060    4.84040    0.02210    0.06140    2.61320
 1361.60000   12.80340   48.99310    8.58980    4.86840    0.03920    0.05370    2.60550
 1361.65000   12.55710   48.87710    8.58910    4.87270    0.07320    0.05740    2.59220
 1361.70000   12.31080   48.76110    8.58840    4.84220    0.08600    0.05500    2.57570
 1361.75000   12.06450   48.64510    8.58980    4.85790    0.12950    0.05120    2.55730
 1361.80000   11.81820   48.62520    8.59120    4.87430    0.17320    0.05010    2.54560
 1361.85000   11.74690   48.87570    8.59260    4.82510    0.19310    0.04620    2.54100
 1361.90000   11.70130   49.12620    8.59210    4.82330    0.20700    0.04570    2.54430
 1361.95000   11.65570   49.46400    8.59040    4.82150    0.20380    0.04390    2.54720
 1362.00000   11.70790   50.00780    8.58880    4.77440    0.18840    0.04320    2.56250
 1362.05000   11.93150   50.75480    8.58960    4.76780    0.16760    0.04320    2.57620
 1362.10000   12.15510   51.82490    8.59120    4.76470    0.15940    0.04300    2.59180
 1362.15000   12.54870   53.61140    8.59270    4.76160    0.12440    0.04240    2.60470
 1362.20000   13.01500   56.16420    8.59360    4.75880    0.10070    0.04170    2.61270
 1362.25000   13.48510   59.28070    8.59440    4.75680    0.09010    0.03910    2.61620
 1362.30000   13.96310   62.20280    8.59460    4.75480    0.08960    0.03910    2.61730
 1362.35000   14.46970   65.96650    8.59450    4.69930    0.10710    0.03610    2.61840
 1362.40000   14.97620   69.05160    8.59430    4.68990    0.12380    0.03490    2.61580
 1362.45000   15.48280   73.13410    8.59410    4.68060    0.15060    0.03350    2.61180
 1362.50000   16.04970   76.23720    8.59320    4.72840    0.16880    0.03250    2.60830
 1362.55000   16.61300   78.66180    8.59080    4.73340    0.17510    0.03390    2.60610
 1362.60000   17.17040   81.33940    8.58830    4.73850    0.18090    0.03590    2.60520
 1362.65000   17.94550   82.79860    8.58840    4.74920    0.18050    0.03820    2.60420
 1362.70000   18.86980   83.40260    8.59050    4.77850    0.17290    0.04140    2.60460
 1362.75000   19.79520   83.52400    8.59250    4.83680    0.16040    0.04520    2.60610
 1362.80000   21.46780   82.92450    8.57470    4.84970    0.15530    0.04560    2.60760
 1362.85000   23.50550   82.08430    8.54690    4.85070    0.15080    0.06030    2.60140
 1362.90000   25.30510   80.98570    8.60630    4.85380    0.14800    0.06440    2.59520
 1362.95000   26.33190   79.55910    8.60060    4.85890    0.14620    0.08350    2.59020
 1363.00000   29.40780   78.35670    8.55160    4.81640    0.14230    0.07450    2.58460
 1363.05000   31.74680   77.41280    8.57100    4.81290    0.13030    0.07830    2.57850
 1363.10000   34.20100   76.69890    8.58920    4.80940    0.12490    0.08890    2.57410
 1363.15000   36.23610   76.31210    8.58740    4.79330    0.10520    0.10240    2.57410
 1363.20000   38.00160   76.22830    8.58560    4.77540    0.08540    0.10270    2.57680
 1363.25000   39.70930   76.55260    8.58450    4.74650    0.06170    0.10130    2.58180
 1363.30000   40.45850   76.87970    8.58440    4.71710    0.04900    0.10150    2.58890
 1363.35000   41.20770   77.55910    8.58420    4.68820    0.02840    0.10190    2.59530
 1363.40000   41.61790   78.51290    8.58410    4.65950    0.01770    0.10430    2.60200
 1363.45000   41.89160   79.65550    8.58430    4.62610    0.00640    0.10590    2.60690
 1363.50000   42.05730   80.79830    8.58750    4.58650   -0.00030    0.10810    2.60970
 1363.55000   42.15880   81.80540    8.59060    4.56090   -0.00350    0.11300    2.61190
 1363.60000   42.26030   82.43930    8.59050    4.54070   -0.00620    0.11910    2.61260
 1363.65000   42.61860   82.84080    8.59040    4.51670   -0.00570    0.12860    2.61310
 1363.70000   43.04620   83.00550    8.59020    4.48260   -0.00370    0.13770    2.61120
 1363.75000   44.09030   83.17950    8.59010    4.45490   -0.00370    0.15090    2.60630
 1363.80000   44.87620   83.40760    8.59120    4.43690    0.01820    0.14470    2.59780
 1363.85000   45.75160   83.63570    8.59290    4.41900    0.01260    0.15380    2.58580
 1363.90000   46.82440   84.07090    8.59730    4.41910    0.02570    0.17120    2.55490
 1363.95000   48.36110   84.61000    8.60240    4.42790    0.04290    0.15260    2.51810
 1364.00000   49.57190   85.36470    8.55960    4.44770    0.07780    0.20010    2.49740
 1364.05000   51.06590   86.23340    8.57860    4.51460    0.11670    0.20810    2.46750
 1364.10000   52.33310   87.36800    8.58520    4.56140    0.12920    0.22670    2.44170
 1364.15000   53.35130   88.24040    8.58340    4.63140    0.15930    0.25280    2.43340
 1364.20000   54.03850   89.49540    8.58160    4.66380    0.17460    0.26510    2.42770
 1364.25000   54.61380   90.53390    8.58470    4.69090    0.19540    0.26690    2.43510
 1364.30000   55.30680   91.33290    8.58790    4.70880    0.20780    0.26280    2.44230
 1364.35000   56.01400   91.82780    8.58540    4.71880    0.22280    0.26260    2.45030
 1364.40000   56.88310   92.17410    8.58200    4.71150    0.23020    0.25810    2.45600
 1364.45000   57.78450   92.21120    8.58080    4.68620    0.23730    0.25680    2.46090
 1364.50000   58.67750   92.14490    8.58060    4.67640    0.24430    0.25990    2.45960
 1364.55000   59.59720   91.83540    8.58220    4.67340    0.24680    0.26230    2.45830
 1364.60000   60.87480   91.58660    8.58550    4.65080    0.24840    0.27000    2.46130
 1364.65000   62.49620   91.34810    8.58730    4.60630    0.24910    0.27550    2.46750
 1364.70000   64.07920   91.10970    8.58710    4.58660    0.25010    0.27770    2.47720
 1364.75000   65.26200   91.01780    8.58630    4.50690    0.25300    0.27400    2.48990
 1364.80000   66.51520   90.92650    8.58370    4.44780    0.25220    0.27450    2.50100
 1364.85000   67.32670   90.97410    8.58490    4.38780    0.25130    0.27820    2.50640
 1364.90000   67.84120   90.83280    8.59350    4.31380    0.25010    0.28010    2.51050
 1364.95000   68.28330   90.20780    8.58300    4.23820    0.24740    0.28350    2.50780
 1365.00000   68.54400   89.29060    8.56840    4.23460    0.23320    0.28280    2.50860
 1365.05000   68.80470   87.86660    8.59920    4.13920    0.22030    0.28400    2.50940
 1365.10000   69.04650   86.59840    8.59440    4.04740    0.20870    0.28480    2.51150
 1365.15000   69.28530   85.18580    8.58970    4.06680    0.20070    0.28190    2.51420
 1365.20000   69.52410   84.78250    8.58530    4.03880    0.19910    0.27790    2.52160
 1365.25000   69.76300   84.39560    8.58100    4.00860    0.19770    0.27260    2.52820
 1365.30000   70.00180   84.47810    8.57930    3.99480    0.20320    0.26400    2.53140
 1365.35000   70.23430   84.68460    8.58220    3.99840    0.21230    0.26280    2.53250
 1365.40000   69.81100   84.88580    8.58490    4.00200    0.22400    0.26430    2.52940
 1365.45000   69.29780   84.84300    8.58480    4.00690    0.23840    0.27050    2.52170
 1365.50000   68.53630   84.80030    8.58460    4.01440    0.24690    0.27020    2.51200
 1365.55000   67.47720   84.75760    8.58450    4.02190    0.24970    0.27590    2.49990
 1365.60000   67.00040   85.00420    8.58430    4.01270    0.24970    0.26960    2.48910
 1365.65000   67.06540   85.31530    8.58410    3.99960    0.25260    0.27080    2.47950
 1365.70000   67.13040   85.88280    8.58400    3.98750    0.25160    0.26610    2.46650
 1365.75000   67.19540   86.77640    8.58250    3.97650    0.25050    0.26630    2.45790
 1365.80000   67.30970   87.46810    8.57930    3.96540    0.25170    0.26920    2.44950
 1365.85000   67.74030   87.95170    8.58550    3.98230    0.25260    0.26650    2.44220
 1365.90000   67.69660   87.95330    8.59310    4.00240    0.25180    0.26350    2.43260
 1365.95000   67.65290   87.95490    8.54170    4.01730    0.24990    0.25840    2.42750
