~Version ---------------------------------------------------
VERS.   2.0 : CWLS log ASCII Standard -VERSION 2.0
WRAP.    NO : One line per depth step
DLM . SPACE : Column Data Section Delimiter
~Well ------------------------------------------------------
STRT.m 1330.00000 : START DEPTH
STOP.m 1380.00000 : STOP DEPTH
STEP.m    0.05000 : STEP
NULL.    -9999.25 : NULL VALUE
COMP.     Unknown : COMPANY
WELL.     Unknown : WELL
FLD .     Unknown : FIELD
LOC .             : LOCATION
PROV.             : PROVINCE
CNTY.             : COUNTY
STAT.             : STATE
CTRY.     Unknown : COUNTRY
SRVC.             : SERVICE COMPANY
DATE.     Unknown : DATE
UWI .     Unknown : UNIQUE WELL ID
API .             : API NUMBER
~Curve Information -----------------------------------------
DEPT            .m            : depths
GammaKT         .api          : digitalized and interpolated data
GammaTotal      .api          : digitalized and interpolated data
Bit Size        .inches       : digitalized and interpolated data
Pe              .             : digitalized and interpolated data
DensityCorr     .gram per cc  : digitalized and interpolated data
Neutron Porosity.decp         : digitalized and interpolated data
Density         .gram per cc  : digitalized and interpolated data
~Params ----------------------------------------------------
~Other -----------------------------------------------------
~ASCII -----------------------------------------------------
# ...
 1339.00000    4.29720   16.28300    8.67430    4.95930    0.00830    0.13650    2.39620
 1339.05000    4.25790   16.08350    8.65780    4.91180    0.00590    0.14070    2.39090
 1339.10000    4.21860   15.79250    8.64130    4.89460    0.00710    0.14170    2.38600
 1339.15000    4.17930   15.48280    8.62470    4.89400    0.00840    0.14520    2.38140
 1339.20000    4.17500   15.14490    8.62910    4.89350    0.00980    0.14780    2.37720
 1339.25000    4.19000   14.78110    8.63400    4.89840    0.01170    0.14690    2.37380
 1339.30000    4.20510   14.24800    8.63890    4.90490    0.01400    0.14910    2.37100
 1339.35000    4.22010   13.79080    8.63960    4.91210    0.01620    0.15550    2.36920
 1339.40000    4.26930   13.41580    8.63850    4.95100    0.02010    0.15490    2.36750
 1339.45000    4.34660   13.03170    8.63690    4.95200    0.02140    0.15430    2.36720
 1339.50000    4.36640   12.53960    8.63340    4.93390    0.02280    0.15570    2.36850
 1339.55000    4.38550   11.99040    8.63020    4.98270    0.02620    0.15550    2.36990
 1339.60000    4.40450   11.39950    8.63010    4.97070    0.02680    0.15390    2.37460
 1339.65000    4.42360   10.85890    8.62990    4.98930    0.02750    0.15190    2.38010
 1339.70000    4.44270   10.34860    8.62980    5.03270    0.02700    0.14970    2.38620
 1339.75000    4.46170    9.87180    8.62960    4.99160    0.02380    0.15030    2.39270
 1339.80000    4.53480    9.62310    8.62660    5.05570    0.02040    0.14490    2.39900
 1339.85000    4.61360    9.46410    8.62280    5.07900    0.01710    0.14590    2.40520
 1339.90000    4.66630    9.30510    8.63910    5.05520    0.01420    0.14080    2.41090
 1339.95000    4.70210    9.32430    8.65900    4.99430    0.00810    0.13610    2.41690
 1340.00000    4.73990    9.35190    8.66120    4.94050    0.00380    0.12910    2.42540
 1340.05000    4.77960    9.37960    8.62630    4.91130    0.00070    0.13820    2.43150
 1340.10000    4.81930    9.40820    8.63280    4.88390   -0.00040    0.12770    2.43670
 1340.15000    4.87940    9.46760    8.63920    4.84790   -0.00150    0.12780    2.44270
 1340.20000    4.94660    9.52710    8.63820    4.80320   -0.00170    0.12390    2.44840
 1340.25000    5.01120    9.58650    8.63310    4.76550    0.00080    0.11900    2.45180
 1340.30000    5.01270    9.66830    8.62810    4.73450    0.00100    0.11830    2.45410
 1340.35000    4.98650    9.75700    8.63060    4.71790    0.00120    0.11780    2.45550
 1340.40000    4.92170    9.85560    8.63340    4.72970   -0.00180    0.11640    2.45380
 1340.45000    4.85690    9.97480    8.63450    4.74140   -0.00270    0.11600    2.45020
 1340.50000    4.79210   10.09410    8.63440    4.76750   -0.00360    0.11590    2.44200
 1340.55000    4.72720   10.07940    8.63420    4.80270   -0.00720    0.11780    2.43330
 1340.60000    4.66240   10.05110    8.63400    4.82120   -0.00930    0.12040    2.42200
 1340.65000    4.57390   10.02280    8.63390    4.83510   -0.01130    0.12440    2.41190
 1340.70000    4.40070    9.94380    8.63370    4.83980   -0.01040    0.13020    2.40170
 1340.75000    4.22760    9.86120    8.63360    4.82400   -0.00460    0.13640    2.39300
 1340.80000    4.06550    9.77870    8.63340    4.80820   -0.01070    0.14310    2.38360
 1340.85000    3.91460    9.58170    8.63330    4.77980   -0.01670    0.14840    2.37560
 1340.90000    3.74460    9.35070    8.62830    4.74950   -0.01830    0.14880    2.36750
 1340.95000    3.52350    9.15600    8.62290    4.70390   -0.01760    0.15340    2.35830
 1341.00000    3.30240    9.01770    8.61760    4.64880   -0.01700    0.15780    2.35050
 1341.05000    3.13540    8.87940    8.66480    4.69220   -0.01060    0.15640    2.34480
 1341.10000    2.98070    8.81320    8.65320    4.68840   -0.00850    0.16070    2.34060
 1341.15000    2.90690    8.77060    8.64150    4.66340   -0.00780    0.16620    2.33730
 1341.20000    2.88010    8.72240    8.63390    4.68740   -0.00710    0.16770    2.33510
 1341.25000    2.85320    8.60920    8.63300    4.71130   -0.00550    0.17060    2.33400
 1341.30000    2.82630    8.49590    8.63210    4.72470   -0.00390    0.17000    2.33370
 1341.35000    2.79950    8.38310    8.63170    4.73670   -0.00370    0.16940    2.33330
 1341.40000    2.77260    8.27410    8.63150    4.74880   -0.00350    0.17040    2.33140
 1341.45000    2.74580    8.16500    8.63140    4.79030   -0.00640    0.16840    2.32960
 1341.50000    2.71890    8.05590    8.63120    4.78750   -0.00670    0.16990    2.32750
 1341.55000    2.75230    8.00150    8.63110    4.77670   -0.00710    0.16780    2.32540
 1341.60000    2.81920    8.08910    8.63090    4.73200   -0.00740    0.16990    2.32350
 1341.65000    2.91570    8.17670    8.63080    4.73330   -0.00770    0.17320    2.32160
 1341.70000    3.04580    8.55560    8.63060    4.73460   -0.00780    0.17730    2.32070
 1341.75000    3.16930    9.29260    8.63040    4.68900   -0.00790    0.17800    2.32050
 1341.80000    3.27380    9.99960    8.63030    4.72940   -0.00790    0.17870    2.32020
 1341.85000    3.37830   10.82520    8.63010    4.73060   -0.00790    0.17580    2.32010
 1341.90000    3.39780   11.72700    8.62530    4.70450   -0.00780    0.17430    2.32070
 1341.95000    3.41420   12.92180    8.61940    4.70320   -0.00750    0.16960    2.32050
 1342.00000    3.43070   14.11750    8.62640    4.69850   -0.00720    0.16880    2.31970
 1342.05000    3.48050   15.20870    8.65630    4.67270   -0.00690    0.16820    2.31840
 1342.10000    3.53970   16.07920    8.64550    4.67170   -0.00680    0.16840    2.31690
 1342.15000    3.59890   16.90880    8.63460    4.67550   -0.00800    0.16910    2.31540
 1342.20000    3.65800   17.63780    8.63050    4.66790   -0.00910    0.17080    2.31310
 1342.25000    3.71720   18.04410    8.62960    4.66020   -0.01020    0.17050    2.31060
 1342.30000    3.71320   18.45030    8.62840    4.66180   -0.01120    0.17480    2.30700
 1342.35000    3.69840   18.66480    8.62610    4.66930   -0.01180    0.17690    2.30250
 1342.40000    3.68370   18.87340    8.62390    4.68030   -0.01250    0.17920    2.29780
 1342.45000    3.66890   18.99880    8.63970    4.75170   -0.01310    0.18370    2.29340
 1342.50000    3.65420   19.10620    8.64640    4.77310   -0.01290    0.18560    2.28990
 1342.55000    3.63950   19.09080    8.63940    4.79900   -0.00770    0.18490    2.28720
 1342.60000    3.62470   19.07540    8.63250    4.85550    0.00160    0.18710    2.28450
 1342.65000    3.60580   19.09710    8.63560    4.88130    0.01020    0.18710    2.28180
 1342.70000    3.58630   19.13610    8.64010    4.92650    0.01940    0.18610    2.27880
 1342.75000    3.56690   19.17520    8.64020    4.97230    0.02700    0.18870    2.27550
 1342.80000    3.58000   19.21010    8.63800    4.99160    0.03220    0.19330    2.27240
 1342.85000    3.59870   19.24330    8.64390    5.03450    0.03410    0.19710    2.27060
 1342.90000    3.61510   19.27110    8.65570    5.03960    0.02980    0.20000    2.26940
 1342.95000    3.63100   19.29280    8.66750    5.01470    0.02510    0.20090    2.27170
 1343.00000    3.64680   19.31440    8.64380    5.05660    0.02100    0.20950    2.27610
 1343.05000    3.66270   19.39350    8.62690    5.03330    0.01850    0.19860    2.28430
 1343.10000    3.67860   19.50530    8.63250    5.00890    0.01320    0.20150    2.29590
 1343.15000    3.87300   19.49620    8.63820    4.99040    0.01200    0.19520    2.30960
 1343.20000    4.10730   19.39840    8.66930    4.99960    0.01080    0.18010    2.32370
 1343.25000    4.48430   19.30070    8.65940    5.02520    0.01410    0.16340    2.34320
 1343.30000    4.89740   19.22020    8.64150    5.05060    0.01530    0.16360    2.36330
 1343.35000    5.34810   19.14640    8.67260    5.07610    0.01720    0.15330    2.38910
 1343.40000    5.79180   19.07270    8.63230    5.15280    0.02150    0.14050    2.41700
 1343.45000    6.21650   18.94200    8.63040    5.17490    0.02510    0.13430    2.45190
