~Version ---------------------------------------------------
VERS.   2.0 : CWLS log ASCII Standard -VERSION 2.0
WRAP.    NO : One line per depth step
DLM . SPACE : Column Data Section Delimiter
~Well ------------------------------------------------------
STRT.m 1330.00000 : START DEPTH
STOP.m 1380.00000 : STOP DEPTH
STEP.m    0.05000 : STEP
NULL.    -9999.25 : NULL VALUE
COMP.     Unknown : COMPANY
WELL.     Unknown : WELL
FLD .     Unknown : FIELD
LOC .             : LOCATION
PROV.             : PROVINCE
CNTY.             : COUNTY
STAT.             : STATE
CTRY.     Unknown : COUNTRY
SRVC.             : SERVICE COMPANY
DATE.     Unknown : DATE
UWI .     Unknown : UNIQUE WELL ID
API .             : API NUMBER
~Curve Information -----------------------------------------
DEPT            .m            : depths
GammaKT         .api          : digitalized and interpolated data
GammaTotal      .api          : digitalized and interpolated data
Bit Size        .inches       : digitalized and interpolated data
Pe              .             : digitalized and interpolated data
DensityCorr     .gram per cc  : digitalized and interpolated data
Neutron Porosity.decp         : digitalized and interpolated data
Density         .gram per cc  : digitalized and interpolated data
~Params ----------------------------------------------------
~Other -----------------------------------------------------
~ASCII -----------------------------------------------------
# ...
 1366.00000   67.87240   87.89230    8.58090    4.03080    0.24110    0.26200    2.42430
 1366.05000   68.22400   87.76300    8.59140    4.05940    0.24070    0.25860    2.42660
 1366.10000   68.73130   87.59260    8.58160    4.08760    0.23550    0.25830    2.43180
 1366.15000   69.47510   87.17130    8.57730    4.08180    0.23240    0.26470    2.44490
 1366.20000   70.12870   86.68230    8.57630    4.07590    0.22690    0.26360    2.46080
 1366.25000   70.18860   86.06760    8.57530    4.05390    0.22480    0.27110    2.47670
 1366.30000   70.24850   85.67320    8.57500    4.03030    0.22380    0.26830    2.48630
 1366.35000   70.30840   85.34200    8.57490    4.00780    0.22040    0.26970    2.48950
 1366.40000   70.36830   85.17590    8.57470    3.98620    0.21570    0.26080    2.49310
 1366.45000   70.28180   85.00980    8.57450    3.96460    0.21000    0.25970    2.48360
 1366.50000   70.06850   84.84370    8.57440    3.94950    0.20210    0.26390    2.47040
 1366.55000   69.72100   84.96670    8.57420    3.93500    0.19460    0.26260    2.45520
 1366.60000   69.26530   85.14060    8.57540    3.92360    0.18620    0.26080    2.44350
 1366.65000   68.74880   85.47860    8.57840    3.93150    0.18010    0.25790    2.43410
 1366.70000   68.20080   85.96430    8.58020    3.93940    0.17300    0.25390    2.42990
 1366.75000   67.62380   86.28130    8.57670    3.94730    0.16830    0.25370    2.42760
 1366.80000   67.28900   86.58820    8.57450    3.96130    0.16420    0.24860    2.42850
 1366.85000   67.07980   86.53240    8.58590    3.97570    0.15770    0.24500    2.42950
 1366.90000   66.87060   86.41370    8.58050    4.01160    0.15560    0.23590    2.43220
 1366.95000   66.66130   86.28670    8.54370    4.04520    0.14060    0.23720    2.43720
 1367.00000   66.72410   86.15420    8.59140    3.98560    0.11830    0.23200    2.44390
 1367.05000   66.95420   86.02180    8.58240    3.97900    0.10300    0.22130    2.45120
 1367.10000   67.09740   86.06120    8.57470    3.97230    0.08950    0.21880    2.45970
 1367.15000   67.18300   86.24780    8.57370    3.92420    0.07270    0.21110    2.47010
 1367.20000   67.21040   86.43440    8.57270    3.89340    0.06240    0.21110    2.47630
 1367.25000   67.17730   86.60470    8.57200    3.86980    0.05780    0.20570    2.47950
 1367.30000   67.15350   86.72370    8.57190    3.85230    0.05700    0.20430    2.47530
 1367.35000   67.14140   86.84270    8.57270    3.86960    0.05780    0.20400    2.46680
 1367.40000   67.12920   86.95700    8.57590    3.88690    0.06980    0.20370    2.45460
 1367.45000   67.37970   87.06500    8.57850    3.91850    0.08000    0.20420    2.44150
 1367.50000   67.67390   87.17290    8.57840    3.96110    0.09470    0.20310    2.42940
 1367.55000   67.98570   87.67860    8.57820    4.02040    0.10610    0.20390    2.42590
 1367.60000   68.33610   88.48340    8.57520    4.03190    0.11970    0.20030    2.42370
 1367.65000   68.68650   89.17550    8.57150    4.05510    0.12770    0.19880    2.42550
 1367.70000   69.03690   89.67650    8.57310    4.08270    0.13180    0.19720    2.42730
 1367.75000   69.38720   89.59490    8.57600    4.05010    0.13600    0.19500    2.43110
 1367.80000   69.82840   89.51280    8.58060    4.02650    0.13790    0.20460    2.43470
 1367.85000   70.28720   89.37930    8.58670    4.01170    0.13850    0.20350    2.43780
 1367.90000   70.97430   89.23880    8.57870    3.99180    0.13910    0.21430    2.44100
 1367.95000   71.73870   89.09820    8.54770    3.96690    0.14400    0.21340    2.45070
 1368.00000   72.17540   89.64550    8.57760    3.93820    0.15430    0.21780    2.45700
 1368.05000   72.43240   90.31170    8.57850    3.90360    0.16470    0.22460    2.46200
 1368.10000   72.48010   90.88050    8.57840    3.87830    0.17940    0.23720    2.46460
 1368.15000   72.26110   91.17810    8.57740    3.85850    0.19980    0.24120    2.45970
 1368.20000   72.04220   91.37230    8.57640    3.83870    0.21140    0.24230    2.44530
 1368.25000   71.82320   89.75450    8.57600    3.84680    0.22730    0.23910    2.41800
 1368.30000   71.60430   88.46860    8.57590    3.86840    0.22950    0.23590    2.38430
 1368.35000   72.07340   86.99230    8.57570    3.91570    0.23070    0.23450    2.35250
 1368.40000   72.49560   85.29210    8.57550    3.96370    0.22530    0.23550    2.33820
 1368.45000   72.67760   84.05360    8.57380    3.97460    0.22160    0.23880    2.32960
 1368.50000   72.08790   83.09930    8.57000    3.98630    0.21390    0.24420    2.33100
 1368.55000   70.86700   81.40080    8.57070    3.99930    0.20810    0.23760    2.33830
 1368.60000   69.69070   79.93370    8.57620    4.02040    0.20450    0.23820    2.34750
 1368.65000   68.42670   77.52220    8.57750    4.06680    0.20680    0.22680    2.38390
 1368.70000   67.36940   75.56920    8.57230    4.07400    0.20970    0.19060    2.39800
 1368.75000   66.31800   73.88860    8.56700    4.09230    0.20700    0.17150    2.42290
 1368.80000   65.45980   72.60220    8.56650    4.11740    0.20390    0.15840    2.44120
 1368.85000   64.14310   72.12980    8.57400    4.15540    0.19610    0.18480    2.45790
 1368.90000   62.29280   72.04380    8.58140    4.20440    0.17840    0.17430    2.47300
 1368.95000   60.30760   72.62550    8.57160    4.17910    0.15930    0.16040    2.52240
 1369.00000   58.85370   73.81130    8.55050    4.21440    0.12700    0.15070    2.54340
 1369.05000   57.73750   75.48820    8.57320    4.23980    0.09660    0.13340    2.56040
 1369.10000   57.45550   77.98710    8.57070    4.23510    0.06800    0.13550    2.56980
 1369.15000   57.50290   80.48520    8.56840    4.21760    0.04410    0.13210    2.57140
 1369.20000   57.55040   83.09140    8.56740    4.16380    0.04240    0.14260    2.56400
 1369.25000   58.14260   86.43700    8.56640    4.12390    0.02110    0.14810    2.54280
 1369.30000   59.55280   89.92410    8.56560    4.09090    0.01990    0.15830    2.50660
 1369.35000   61.60500   93.60030    8.56550    4.07290    0.03390    0.17550    2.46470
 1369.40000   63.45260   96.90850    8.56600    4.05490    0.05290    0.18270    2.39570
 1369.45000   65.49970   99.69970    8.56920    4.07700    0.07550    0.21960    2.36350
 1369.50000   68.11500   99.94290    8.57180    4.12490    0.10510    0.21910    2.27550
 1369.55000   71.08280   99.97540    8.56850    4.23010    0.13340    0.19660    2.22590
 1369.60000   74.99080   99.78700    8.56510    4.21900    0.15420    0.24260    2.17150
 1369.65000   77.05680   99.41650    8.56450    4.27330    0.17030    0.23500    2.14090
 1369.70000   79.25090   98.68530    8.56440    4.35680    0.17870    0.26000    2.11400
 1369.75000   79.79460   97.68220    8.56510    4.36510    0.18410    0.27880    2.12950
 1369.80000   79.96400   97.09430    8.56630    4.43640    0.18840    0.29010    2.15760
 1369.85000   79.67640   96.61990    8.57280    4.43280    0.18790    0.29250    2.17140
 1369.90000   79.12200   96.18410    8.58020    4.39670    0.18730    0.29440    2.23920
 1369.95000   78.72200   95.86920    8.54230    4.37370    0.18530    0.29360    2.34200
 1370.00000   78.44360   95.58480    8.53800    4.28730    0.18280    0.29060    2.39290
 1370.05000   78.16520   95.29010    8.54920    4.26050    0.18070    0.27040    2.42670
 1370.10000   77.88670   94.97340    8.56030    4.23320    0.17950    0.26570    2.45400
 1370.15000   77.66450   94.64810    8.56170    4.20490    0.17840    0.26500    2.47350
 1370.20000   77.49730   94.23250    8.56220    4.17860    0.17480    0.26300    2.48450
 1370.25000   77.28810   93.80830    8.56260    4.16110    0.16690    0.26210    2.49170
 1370.30000   77.01650   93.20740    8.56250    4.14370    0.15850    0.26030    2.49560
 1370.35000   76.71100   92.45140    8.56240    4.14070    0.14880    0.25820    2.49770
 1370.40000   76.33490   91.58860    8.56220    4.15140    0.13870    0.25820    2.49770
 1370.45000   75.92070   90.80840    8.56200    4.16200    0.13350    0.26020    2.49750
