~Version ---------------------------------------------------
VERS.   2.0 : CWLS log ASCII Standard -VERSION 2.0
WRAP.    NO : One line per depth step
DLM . SPACE : Column Data Section Delimiter
~Well ------------------------------------------------------
STRT.m 1330.00000 : START DEPTH
STOP.m 1380.00000 : STOP DEPTH
STEP.m    0.05000 : STEP
NULL.    -9999.25 : NULL VALUE
COMP.     Unknown : COMPANY
WELL.     Unknown : WELL
FLD .     Unknown : FIELD
LOC .             : LOCATION
PROV.             : PROVINCE
CNTY.             : COUNTY
STAT.             : STATE
CTRY.     Unknown : COUNTRY
SRVC.             : SERVICE COMPANY
DATE.     Unknown : DATE
UWI .     Unknown : UNIQUE WELL ID
API .             : API NUMBER
~Curve Information -----------------------------------------
DEPT            .m            : depths
GammaKT         .api          : digitalized and interpolated data
GammaTotal      .api          : digitalized and interpolated data
Bit Size        .inches       : digitalized and interpolated data
Pe              .             : digitalized and interpolated data
DensityCorr     .gram per cc  : digitalized and interpolated data
Neutron Porosity.decp         : digitalized and interpolated data
Density         .gram per cc  : digitalized and interpolated data
~Params ----------------------------------------------------
~Other -----------------------------------------------------
~ASCII -----------------------------------------------------
# ...
 1375.00000   67.96850   94.94050    8.53550    3.99920    0.06730    0.23750    2.46140
 1375.05000   68.43630   95.03360    8.56470    4.01050    0.06750    0.23350    2.46110
 1375.10000   68.93470   95.42240    8.55430    4.01710    0.06810    0.22960    2.46240
 1375.15000   69.53950   95.91060    8.54390    3.96190    0.06910    0.23160    2.46290
 1375.20000   70.22600   96.68680    8.54010    3.96190    0.07100    0.23330    2.46680
 1375.25000   70.84870   97.29090    8.53990    3.97220    0.07220    0.23500    2.47480
 1375.30000   71.40320   97.80110    8.53980    3.99400    0.07340    0.23300    2.48230
 1375.35000   71.89190   98.24490    8.53800    3.97860    0.07730    0.23350    2.48990
 1375.40000   72.40670   98.64040    8.53570    3.95520    0.07940    0.23500    2.49870
 1375.45000   72.94010   99.02550    8.54060    3.98810    0.08140    0.24120    2.50600
 1375.50000   73.47350   99.48980    8.55070    3.98590    0.08510    0.24320    2.51140
 1375.55000   73.96840   99.97280    8.54880    3.97130    0.08960    0.24640    2.51400
 1375.60000   74.17040  100.36400    8.54290    3.97680    0.09710    0.25340    2.51420
 1375.65000   74.37240  100.66610    8.53920    3.97830    0.10030    0.25210    2.51420
 1375.70000   74.38240  100.62580    8.54060    3.95830    0.10470    0.24980    2.51200
 1375.75000   74.28360  100.53780    8.54200    3.93830    0.10080    0.24680    2.50910
 1375.80000   74.18490  100.40390    8.54110    3.91050    0.10940    0.24170    2.50560
 1375.85000   74.12270  100.29830    8.53410    3.88470    0.11480    0.24420    2.50100
 1375.90000   74.06920  100.40970    8.54290    3.86460    0.11630    0.24250    2.49610
 1375.95000   74.01570  100.52110    8.56530    3.84440    0.11770    0.24370    2.49090
 1376.00000   73.64070  100.63260    8.51780    3.83340    0.11830    0.24810    2.48300
 1376.05000   73.23850  100.57800    8.53100    3.83760    0.11640    0.24810    2.47270
 1376.10000   72.86800  100.46280    8.53990    3.84190    0.11450    0.24780    2.46610
 1376.15000   72.49750  100.34750    8.54070    3.84680    0.11270    0.25120    2.45880
 1376.20000   72.12700   99.96860    8.54140    3.87090    0.11170    0.25430    2.45080
 1376.25000   71.69610   99.33280    8.53800    3.89490    0.11210    0.25620    2.44320
 1376.30000   71.25130   98.64170    8.53220    3.92830    0.11250    0.25590    2.44100
 1376.35000   70.84550   98.01270    8.53110    3.97410    0.11300    0.25460    2.43980
 1376.40000   70.42440   97.36910    8.53410    4.02600    0.11120    0.25080    2.44220
 1376.45000   69.98700   96.66740    8.53620    4.04730    0.11200    0.24080    2.44640
 1376.50000   69.39400   95.97190    8.53600    4.07420    0.11290    0.23870    2.45200
 1376.55000   68.66390   95.22250    8.53580    4.10440    0.11370    0.23950    2.46320
 1376.60000   68.14480   94.05130    8.53210    4.10560    0.11580    0.23720    2.47540
 1376.65000   68.10820   92.95240    8.52860    4.10780    0.12050    0.23920    2.48510
 1376.70000   68.07170   92.23740    8.53190    4.12040    0.12330    0.24330    2.49190
 1376.75000   68.03510   91.64140    8.53520    4.13300    0.13170    0.24490    2.49440
 1376.80000   68.84930   91.47050    8.53200    4.14480    0.13500    0.24610    2.49490
 1376.85000   70.33780   92.07980    8.52870    4.15340    0.14330    0.26210    2.48960
 1376.90000   71.77770   93.53440    8.52840    4.16200    0.15030    0.26800    2.47520
 1376.95000   72.77190   95.39370    8.52930    4.18220    0.15690    0.27000    2.46060
 1377.00000   73.59720   97.50080    8.53070    4.20780    0.16940    0.26990    2.43120
 1377.05000   74.63240   99.17050    8.53300    4.17560    0.17510    0.27250    2.40070
 1377.10000   75.18800  100.68400    8.53520    4.16400    0.18470    0.26930    2.38210
 1377.15000   75.01840  101.71340    8.53700    4.18900    0.19570    0.26780    2.36570
 1377.20000   74.65890  102.09150    8.53580    4.21890    0.19930    0.26680    2.35730
 1377.25000   74.01000  102.17250    8.53460    4.26640    0.20260    0.25780    2.35150
 1377.30000   73.28240  102.01160    8.53350    4.29170    0.20040    0.25780    2.36030
 1377.35000   72.35200  101.44520    8.53340    4.31490    0.20150    0.25510    2.37210
 1377.40000   71.82410  100.79470    8.53320    4.36860    0.19860    0.24990    2.38240
 1377.45000   71.29610  100.04900    8.53310    4.38750    0.19500    0.24760    2.38460
 1377.50000   70.76810   99.09960    8.53290    4.40800    0.19000    0.24540    2.37940
 1377.55000   71.12520   98.35720    8.53050    4.43280    0.18760    0.25360    2.34260
 1377.60000   72.15970   97.95580    8.52690    4.46560    0.18440    0.25250    2.28470
 1377.65000   73.37640   98.18490    8.52540    4.51070    0.18120    0.30790    2.20220
 1377.70000   75.07610   98.80410    8.52520    4.59100    0.17880    0.26200    2.13030
 1377.75000   76.69510  100.13160    8.52640    4.59960    0.17630    0.30490    2.04660
 1377.80000   78.35070  102.29110    8.52940    4.64500    0.17310    0.33080    1.96280
 1377.85000   79.61210  104.41010    8.53370    4.68610    0.16730    0.33220    1.95390
 1377.90000   80.89390  106.61510    8.54360    4.70600    0.16290    0.33500    1.95120
 1377.95000   80.05140  108.59710    8.55360    4.73290    0.15790    0.33680    1.95310
 1378.00000   79.11070  109.98770    8.50340    4.76020    0.15190    0.33750    1.95500
 1378.05000   77.78490  110.83040    8.51560    4.74480    0.15040    0.31090    1.98620
 1378.10000   76.93740  109.93420    8.52790    4.73530    0.14900    0.31070    2.06480
 1378.15000   76.14730  108.71130    8.53570    4.73530    0.14900    0.29760    2.12480
 1378.20000   75.46410  106.74810    8.53060    4.73530    0.15030    0.30410    2.20880
 1378.25000   74.93070  105.40130    8.52540    4.65970    0.15240    0.27870    2.26550
 1378.30000   74.41920  104.36630    8.52330    4.61450    0.15480    0.28400    2.31090
 1378.35000   73.91000  103.76540    8.52320    4.57670    0.15970    0.26310    2.35620
 1378.40000   73.40070  103.19160    8.51650    4.54210    0.16460    0.25900    2.39700
 1378.45000   72.89150  102.60770    8.50160    4.52220    0.17120    0.25840    2.42420
 1378.50000   72.60750  101.94800    8.50830    4.50740    0.17790    0.25350    2.44550
 1378.55000   72.58590  101.30290    8.51510    4.49280    0.18330    0.25300    2.46660
 1378.60000   72.56430  100.92620    8.52020    4.47930    0.18770    0.24700    2.48590
 1378.65000   72.55190  100.72260    8.52480    4.46580    0.19130    0.24580    2.50260
 1378.70000   72.55350  100.51910    8.52910    4.45140    0.19170    0.24460    2.51980
 1378.75000   72.31060  100.38870    8.52570    4.43660    0.18950    0.24420    2.53540
 1378.80000   72.03950  100.43230    8.52240    4.42170    0.18740    0.23770    2.54540
 1378.85000   71.74650  100.44820    8.52160    4.43640    0.18760    0.23300    2.55240
 1378.90000   71.43570  100.35690    8.52140    4.45730    0.18820    0.23270    2.55690
 1378.95000   71.14700  100.26560    8.52590    4.48070    0.18880    0.23190    2.55650
 1379.00000   71.23390   99.73510    8.53300    4.51160    0.19550    0.23190    2.55330
 1379.05000   71.32080   99.17510    8.53110    4.55270    0.20010    0.23380    2.54390
 1379.10000   71.40770   98.62920    8.52500    4.60380    0.21020    0.23490    2.53580
 1379.15000   71.49460   98.18430    8.52070    4.62200    0.23160    0.23370    2.52980
 1379.20000   71.58150   97.77400    8.52050    4.64260    0.24230    0.23410    2.52350
 1379.25000   71.77870   97.53150    8.52040    4.66460    0.24640    0.23620    2.51890
 1379.30000   72.33440   97.28900    8.52020    4.67220    0.24980    0.23710    2.51300
 1379.35000   73.07770   97.04650    8.52000    4.66810    0.25110    0.23770    2.50550
 1379.40000   73.77630   97.32860    8.50540    4.66080    0.25150    0.23940    2.49580
 1379.45000   74.06390   97.68660    8.50360    4.61740    0.24760    0.23980    2.48490
