~Version ---------------------------------------------------
VERS.   2.0 : CWLS log ASCII Standard -VERSION 2.0
WRAP.    NO : One line per depth step
DLM . SPACE : Column Data Section Delimiter
~Well ------------------------------------------------------
STRT.m 2028.00000 : START DEPTH
STOP.m 2082.00000 : STOP DEPTH
STEP.m    0.05000 : STEP
NULL.    -9999.25 : NULL VALUE
COMP.     Unknown : COMPANY
WELL.     Unknown : WELL
FLD .     Unknown : FIELD
LOC .             : LOCATION
PROV.             : PROVINCE
CNTY.             : COUNTY
STAT.             : STATE
CTRY.     Unknown : COUNTRY
SRVC.             : SERVICE COMPANY
DATE.     Unknown : DATE
UWI .     Unknown : UNIQUE WELL ID
API .             : API NUMBER
~Curve Information -----------------------------------------
DEPT.m       : depths
GRS .api     : Gamma-Ray Spectral, digitalized and interpolated data
GR  .api     : Gamma-Ray, digitalized and interpolated data
CALI.inches  : Caliper, digitalized and interpolated data
NPHI.ls-pu   : Limestone calibrated neutron porosity, digitalized and interpolated data
RHOB.gm/cc   : Bulk density, digitalized and interpolated data
DRHO.gm/cc   : Density correction, digitalized and interpolated data
~Params ----------------------------------------------------
~Other -----------------------------------------------------
~ASCII -----------------------------------------------------
# ...
 2043.45000   14.18400   49.36260    9.80680    6.05740    2.60070    0.04780
 2043.50000   13.98940   48.54700    9.82380    6.11410    2.59930    0.03620
 2043.55000   13.79490   47.38590    9.84080    6.14350    2.59630    0.02890
 2043.60000   13.54730   46.55050    9.85780    6.17280    2.59340    0.02320
 2043.65000   13.15690   45.77220    9.87480    6.20220    2.59050    0.01950
 2043.70000   12.76640   44.99380    9.89180    6.23150    2.58400    0.02010
 2043.75000   12.37590   44.21540    9.90880    6.26090    2.57650    0.02080
 2043.80000   11.98540   43.43700    9.92580    6.16280    2.57070    0.02150
 2043.85000   11.60080   41.77340    9.94540    6.03940    2.56570    0.02220
 2043.90000   11.34080   39.49450    9.97190    5.91590    2.56180    0.01310
 2043.95000   11.08080   38.70520    9.99850    5.79240    2.55790    0.03100
 2044.00000   10.82080   38.31470   10.02510    5.62820    2.55420    0.04900
 2044.05000   10.56080   37.92420   10.05170    5.44170    2.55220    0.06690
 2044.10000   10.30080   37.53370   10.28880    5.25520    2.55020    0.05060
 2044.15000   10.09520   37.14330   10.40750    5.06870    2.54830    0.06990
 2044.20000    9.90070   37.42640   10.51350    4.88220    2.54630    0.08910
 2044.25000    9.70610   38.23190   10.59270    4.69330    2.54420    0.09950
 2044.30000    9.51160   39.03750   10.67190    4.48550    2.54120    0.11000
 2044.35000    9.31710   39.84300   10.75100    4.27780    2.53830    0.14770
 2044.40000    9.12250   40.64860   10.86360    4.07000    2.53540    0.15210
 2044.45000    8.92800   40.06530   10.97570    3.86220    2.53000    0.17530
 2044.50000    8.55960   40.87080   11.03510    3.77660    2.52480    0.18390
 2044.55000    8.16910   41.67640   11.09460    3.69450    2.52180    0.19160
 2044.60000    7.77860   42.48190   11.15400    3.61240    2.51890    0.19790
 2044.65000    7.38820   43.28750   11.20090    3.53030    2.51600    0.20410
 2044.70000    6.99770   43.64450   11.24060    3.44820    2.50890    0.21040
 2044.75000    6.60720   42.96260   11.28030    3.36610    2.50170    0.21090
 2044.80000    6.21670   42.28070   11.30030    3.28410    2.49590    0.21140
 2044.85000    5.82630   41.59880   11.22170    3.20200    2.49010    0.21190
 2044.90000    5.43580   40.91690   11.15160    3.15710    2.48440    0.21240
 2044.95000    5.04530   40.23500   11.09270    3.14290    2.48170    0.21290
 2045.00000    4.74030   39.55310   11.03380    3.12880    2.47970    0.21340
 2045.05000    4.54570   38.88090   10.97490    3.11470    2.47780    0.21440
 2045.10000    4.35120   38.23120   10.89710    3.10060    2.47740    0.22280
 2045.15000    4.15670   37.58150   10.81840    3.08650    2.47840    0.22900
 2045.20000    3.96210   36.93190   10.73980    3.07230    2.47940    0.23210
 2045.25000    3.76760   36.28220   10.67400    3.05820    2.48290    0.23520
 2045.30000    3.57300   35.64530   10.62160    3.04410    2.49130    0.23820
 2045.35000    3.18620   35.25480   10.56930    3.03000    2.49970    0.23800
 2045.40000    2.60120   34.86440   10.51700    3.01580    2.50940    0.23780
 2045.45000    2.01610   34.47390   10.46460    3.00170    2.52240    0.23760
 2045.50000    1.43100   34.08340   10.41230    2.98760    2.53910    0.23740
 2045.55000    1.16990   33.69290   10.36000    2.96820    2.55540    0.23720
 2045.60000    0.90990   33.30240   10.30770    2.94730    2.56840    0.23690
 2045.65000    0.64990   32.94410   10.25530    2.92640    2.58140    0.23670
 2045.70000    0.38990   32.94680   10.20300    2.90560    2.59360    0.23650
 2045.75000    0.12990   32.94960   10.15230    2.88470    2.60430    0.23630
 2045.80000    0.15320   32.95230   10.12290    2.86390    2.61500    0.23610
 2045.85000    0.25510   32.95510   10.09360    2.84300    2.62570    0.23590
 2045.90000    0.35700   32.95780   10.06430    2.82220    2.63640    0.23570
 2045.95000    0.45890   32.96050   10.03500    2.82110    2.64710    0.23540
 2046.00000    0.56080   32.96330   10.00570    2.86840    2.65540    0.23520
 2046.05000    0.66270   32.96600    9.97640    2.91560    2.65740    0.23500
 2046.10000    0.76460   33.02590    9.94750    2.96290    2.65940    0.20980
 2046.15000    1.01160   33.16090    9.92140    3.01020    2.66150    0.20410
 2046.20000    1.27950   33.29590    9.89540    3.05740    2.66350    0.19720
 2046.25000    1.54740   33.43090    9.86940    3.10470    2.66310    0.18790
 2046.30000    1.81530   33.56590    9.84340    3.15360    2.66020    0.12020
 2046.35000    2.08320   33.56780    9.81730    3.21280    2.65720    0.11270
 2046.40000    2.44560   33.17730    9.82750    3.27190    2.65310    0.10540
 2046.45000    2.84700   32.78680    9.84090    3.33110    2.64370    0.09970
 2046.50000    3.24840   32.39630    9.85430    3.39020    2.63600    0.05060
 2046.55000    3.87120   32.00590    9.86770    3.44940    2.63020    0.04490
 2046.60000    5.08650   31.58350    9.88120    3.46400    2.62160    0.03960
 2046.65000    6.30190   30.04480    9.91320    3.41470    2.61250    0.03570
 2046.70000    7.51730   28.79360    9.95290    3.36540    2.60770    0.03100
 2046.75000    8.01390   28.40310    9.99270    3.31610    2.60290    0.02530
 2046.80000    8.41530   28.01270   10.05100    3.26680    2.59810    0.03280
 2046.85000    8.81670   27.62220   10.16970    3.21750    2.59390    0.04830
 2046.90000    9.21810   27.23170   10.30800    3.16820    2.59000    0.06380
 2046.95000    9.61940   26.85750   10.46610    3.12550    2.58610    0.04240
 2047.00000   10.02080   27.12540   10.56390    3.09450    2.58000    0.08340
 2047.05000   10.42640   27.39330   10.64310    3.06350    2.57060    0.09740
 2047.10000   11.23190   27.66120   10.72230    3.03250    2.56250    0.10700
 2047.15000   12.03750   27.92910   10.81290    3.00150    2.55490    0.11650
 2047.20000   12.84300   28.19700   10.93160    2.97050    2.54730    0.11800
 2047.25000   13.40700   29.27820   11.09400    3.04390    2.52780    0.14120
 2047.30000   13.80840   30.49350   11.29160    3.16190    2.52200    0.16170
 2047.35000   14.20980   31.70890   11.42450    3.27990    2.50690    0.16450
 2047.40000   14.80950   32.92430   11.53980    3.39780    2.50110    0.17990
 2047.45000   16.44050   34.13970   11.61900    3.51580    2.47670    0.20370
 2047.50000   17.87260   37.21770   11.69820    3.63380    2.47090    0.20750
 2047.55000   19.08790   38.00500   11.77730    3.85760    2.44960    0.22540
 2047.60000   20.62930   47.18280   11.88060    4.09030    2.43790    0.23340
 2047.65000   22.21800   48.45030   11.99930    4.32300    2.43400    0.23610
 2047.70000   23.43340   56.07050   12.11790    4.55570    2.42920    0.23880
 2047.75000   24.81800   56.67880   12.22560    5.05670    2.42340    0.24150
 2047.80000   26.44900   60.67940   12.26530    5.81040    2.41770    0.24420
 2047.85000   27.92890   66.33200   12.30500    6.65170    2.41340    0.24480
 2047.90000   29.35130   67.64960   12.34470    9.41450    2.41960    0.24350
 2047.95000   30.77380   70.85960   12.33730   10.07440    2.42590    0.24220
 2048.00000   30.83250   76.03870   12.30620   10.52550    2.43220    0.24090
 2048.05000   34.63250   82.06080   12.27520   10.97660    2.44520    0.23960
 2048.10000   35.38080   89.17770   12.24420   11.42770    2.45350    0.23760
 2048.15000   37.86080   89.46750   12.21310   13.77710    2.46620    0.23380
 2048.20000   38.67640   93.71850   12.18210   14.00980    2.49240    0.20090
 2048.25000   39.25100  102.36890   12.15110   14.24250    2.49990    0.18990
 2048.30000   39.25370  103.20870   12.12000   14.40940    2.51690    0.12830
 2048.35000   39.25640  107.02130   12.08900   14.28590    2.52530    0.12180
 2048.40000   39.25920  107.99260   12.05790   14.16240    2.53760    0.11610
 2048.45000   38.93650  109.62360   12.02690   14.03890    2.54220    0.11040
 2048.50000   38.51270  111.25460   11.99590   13.91540    2.54950    0.10570
 2048.55000   37.73430  111.38300   11.96480   13.79190    2.55680    0.10270
