~Version ---------------------------------------------------
VERS.   2.0 : CWLS log ASCII Standard -VERSION 2.0
WRAP.    NO : One line per depth step
DLM . SPACE : Column Data Section Delimiter
~Well ------------------------------------------------------
STRT.m 2028.00000 : START DEPTH
STOP.m 2082.00000 : STOP DEPTH
STEP.m    0.05000 : STEP
NULL.    -9999.25 : NULL VALUE
COMP.     Unknown : COMPANY
WELL.     Unknown : WELL
FLD .     Unknown : FIELD
LOC .             : LOCATION
PROV.             : PROVINCE
CNTY.             : COUNTY
STAT.             : STATE
CTRY.     Unknown : COUNTRY
SRVC.             : SERVICE COMPANY
DATE.     Unknown : DATE
UWI .     Unknown : UNIQUE WELL ID
API .             : API NUMBER
~Curve Information -----------------------------------------
DEPT.m       : depths
GRS .api     : Gamma-Ray Spectral, digitalized and interpolated data
GR  .api     : Gamma-Ray, digitalized and interpolated data
CALI.inches  : Caliper, digitalized and interpolated data
NPHI.ls-pu   : Limestone calibrated neutron porosity, digitalized and interpolated data
RHOB.gm/cc   : Bulk density, digitalized and interpolated data
DRHO.gm/cc   : Density correction, digitalized and interpolated data
~Params ----------------------------------------------------
~Other -----------------------------------------------------
~ASCII -----------------------------------------------------
# ...
 2064.05000    1.63230   13.83180    8.88470   16.31520    2.58440    0.03430
 2064.10000    1.76330   13.99330    8.88010   15.99930    2.58710    0.03390
 2064.15000    1.76600   14.15490    8.87380   15.69870    2.58980    0.03350
 2064.20000    1.88840   14.31640    8.86750   15.44810    2.59260    0.03310
 2064.25000    2.28980   14.47800    8.86120   15.19740    2.59400    0.03270
 2064.30000    2.69120   14.63950    8.85490   15.03380    2.59540    0.03220
 2064.35000    3.09250   14.79930    8.84860   14.95990    2.59670    0.03150
 2064.40000    3.84300   14.93430    8.84230   14.88610    2.59810    0.03090
 2064.45000    4.58500   15.06930    8.83600   14.81220    2.59930    0.03020
 2064.50000    4.98630   15.20430    8.82970   14.73840    2.59880    0.02960
 2064.55000    5.38770   15.33940    8.82340   14.66450    2.59830    0.02950
 2064.60000    5.78910   15.47440    8.81930   14.59060    2.59780    0.03080
 2064.65000    6.19050   15.40440    8.81950   14.62360    2.59730    0.03220
 2064.70000    6.59190   15.30830    8.81980   14.78030    2.59680    0.03350
 2064.75000    6.99320   15.21230    8.82010   14.93690    2.59630    0.03480
 2064.80000    7.28110   15.11620    8.82030   15.09360    2.59440    0.03680
 2064.85000    7.28380   15.02010    8.82060   15.28120    2.59140    0.04530
 2064.90000    7.28660   14.92410    8.82090   15.73230    2.58850    0.05270
 2064.95000    7.28930   14.82800    8.82120   16.24460    2.58470    0.05900
 2065.00000    7.62080   15.07950    8.82140   16.78250    2.57890    0.06280
 2065.05000    8.02220   15.34740    8.82170   16.95830    2.57490    0.06580
 2065.10000    8.42360   15.61530    8.82200   17.13410    2.57200    0.06890
 2065.15000    8.67010   15.88320    8.82230   17.31750    2.56910    0.07120
 2065.20000    8.67290   16.15110    8.82250   17.55020    2.56650    0.07220
 2065.25000    8.67560   16.52430    8.82280   17.78290    2.56450    0.07320
 2065.30000    8.67840   16.92560    8.82310   17.96250    2.56250    0.07420
 2065.35000    8.19550   17.32700    8.82340   17.92140    2.56060    0.07260
 2065.40000    7.67510   17.58790    8.82360   17.88020    2.55930    0.07060
 2065.45000    7.15470   17.59070    8.82390   17.83910    2.55800    0.06870
 2065.50000    6.63440   17.59340    8.82420   17.79790    2.55670    0.06600
 2065.55000    6.11400   17.59620    8.82450   17.49380    2.55530    0.06210
 2065.60000    5.86410   17.59890    8.82470   17.17780    2.55440    0.05820
 2065.65000    5.73520   17.60160    8.82500   16.86190    2.55540    0.05440
 2065.70000    5.60620   17.60440    8.82530   16.54590    2.55640    0.05280
 2065.75000    5.47730   17.60710    8.82560   16.23000    2.55740    0.05180
 2065.80000    5.34840   17.60990    8.82580   15.32120    2.56440    0.05080
 2065.85000    5.34850   17.61260    8.82610   14.89830    2.57170    0.05070
 2065.90000    5.48350   17.61530    8.82870   13.46280    2.57910    0.05270
 2065.95000    5.61850   17.61810    8.83680   12.50200    2.57620    0.05470
 2066.00000    5.75350   17.62080    8.84500   11.54120    2.58360    0.05680
 2066.05000    5.88860   17.62360    8.85320   10.74370    2.59090    0.05650
 2066.10000    6.10630   17.62630    8.86130   10.00930    2.59900    0.05590
 2066.15000    6.50770   17.62900    8.86950    9.04850    2.60750    0.05520
 2066.20000    6.90910   17.63180    8.87770    8.38650    2.61590    0.05460
 2066.25000    7.31050   17.63450    8.88580    7.62310    2.62580    0.05390
 2066.30000    7.71190   17.63730    8.89400    6.87750    2.63580    0.05250
 2066.35000    8.11320   17.70400    8.89730    6.21670    2.64100    0.05050
 2066.40000    8.51460   17.90540    8.89760    5.55600    2.64610    0.04780
 2066.45000    8.79930   18.10670    8.89790    5.01230    2.65130    0.04480
 2066.50000    8.93430   18.30810    8.89820    4.49320    2.65650    0.04190
 2066.55000    9.06930   18.50950    8.89840    3.99880    2.66160    0.03160
 2066.60000    9.20430   18.71090    8.89870    3.61640    2.66680    0.02580
 2066.65000    9.33940   18.91220    8.89900    3.51810    2.66990    0.02120
 2066.70000    9.38870   18.91720    8.89930    3.47700    2.67260    0.01830
 2066.75000    9.19420   18.65720    8.89950    3.43590    2.67530    0.01540
 2066.80000    8.99970   18.39720    8.89980    3.39470    2.67800    0.01250
 2066.85000    8.80510   18.13720    8.90010    3.44840    2.68070    0.01040
 2066.90000    8.45620   17.87720    8.90030    3.56640    2.68270    0.00840
 2066.95000    8.06570   17.63110    8.90060    3.68440    2.68470    0.00650
 2067.00000    7.67520   17.43650    8.90090    3.96190    2.68680    0.00550
 2067.05000    7.28480   17.24200    8.90120    4.32850    2.68880    0.00650
 2067.10000    6.89430   17.04740    8.90140    4.77960    2.69000    0.00750
 2067.15000    6.72490   16.85290    8.90170    5.23070    2.68940    0.00850
 2067.20000    6.72770   16.65840    8.90200    5.70040    2.68870    0.01400
 2067.25000    6.73040   16.46380    8.90230    6.25550    2.68810    0.01980
 2067.30000    6.69290   16.24300    8.89240    7.98060    2.68740    0.02390
 2067.35000    6.30250   15.95030    8.87290    8.32430    2.68580    0.02800
 2067.40000    5.91200   15.65760    8.85350    8.76980    2.68280    0.03220
 2067.45000    5.52150   15.36490    8.83540    9.98990    2.67990    0.03970
 2067.50000    5.13100   15.07230    8.84880   10.33360    2.67640    0.04730
 2067.55000    4.74050   14.77960    8.86230   11.16640    2.66880    0.05040
 2067.60000    4.35010   14.48690    8.87570   11.99930    2.66200    0.05350
 2067.65000    4.03040   14.22490    8.88910   12.34290    2.65620    0.05650
 2067.70000    4.16540   14.03040    8.90250   13.40160    2.63680    0.05880
 2067.75000    4.30050   13.83580    8.90500   13.85280    2.62920    0.06080
 2067.80000    4.43550   13.64130    8.90530   14.30390    2.61240    0.06290
 2067.85000    4.57050   13.44680    8.90560   14.75500    2.59580    0.06450
 2067.90000    4.70550   13.25220    8.90580   15.20610    2.59000    0.06520
 2067.95000    5.09530   13.05770    8.90610   15.65730    2.57420    0.06580
 2068.00000    5.49670   12.93590    8.90640   15.93720    2.56660    0.06650
 2068.05000    5.89810   12.93860    8.90660   16.05510    2.56030    0.06720
 2068.10000    6.09210   12.94140    8.90690   16.17310    2.55460    0.06810
 2068.15000    6.09480   12.94410    8.90720   16.29110    2.55460    0.07120
 2068.20000    6.09750   12.94680    8.90750   16.36560    2.55460    0.07420
 2068.25000    6.10030   12.94960    8.90770   16.24210    2.55460    0.07730
 2068.30000    6.10300   12.95230    8.90800   16.11870    2.55950    0.08260
 2068.35000    6.10570   12.89600    8.90830   15.99520    2.56570    0.08870
 2068.40000    6.10850   12.76710    8.90860   15.87170    2.57200    0.09070
 2068.45000    5.99280   12.63810    8.90880   15.66460    2.57970    0.09280
 2068.50000    5.79830   12.50920    8.90910   15.45680    2.58780    0.09480
 2068.55000    5.60380   12.38030    8.90940   15.24910    2.59410    0.09450
 2068.60000    5.28520   12.25130    8.90970   15.04130    2.60160    0.09250
 2068.65000    4.12420   12.12240    8.90990   14.79700    2.61010    0.09050
 2068.70000    3.24260   11.99350    8.91020   14.54630    2.62080    0.08850
 2068.75000    2.85210   11.86460    8.91050   14.29570    2.63030    0.08560
 2068.80000    2.46160   11.73560    8.91080   14.04500    2.63870    0.08270
 2068.85000    2.07120   11.62450    8.91620   13.64720    2.64290    0.07980
 2068.90000    1.02930   11.89240    8.93620   13.19710    2.64700    0.07540
 2068.95000    0.02580   12.16030    8.95620   12.75610    2.65110    0.06970
 2069.00000    0.02300   12.42820    8.97620   12.44010    2.65520    0.06520
 2069.05000    0.02030   12.69600    8.98060   12.12420    2.65930    0.06140
 2069.10000    0.01750   12.96390    8.98090   11.78510    2.66340    0.04580
 2069.15000    0.01480   13.52600    8.98120   11.40270    2.66680    0.04010
