~Version ---------------------------------------------------
VERS.   2.0 : CWLS log ASCII Standard -VERSION 2.0
WRAP.    NO : One line per depth step
DLM . SPACE : Column Data Section Delimiter
~Well ------------------------------------------------------
STRT.m 1330.00000 : START DEPTH
STOP.m 1380.00000 : STOP DEPTH
STEP.m    0.05000 : STEP
NULL.    -9999.25 : NULL VALUE
COMP.     Unknown : COMPANY
WELL.     Unknown : WELL
FLD .     Unknown : FIELD
LOC .             : LOCATION
PROV.             : PROVINCE
CNTY.             : COUNTY
STAT.             : STATE
CTRY.     Unknown : COUNTRY
SRVC.             : SERVICE COMPANY
DATE.     Unknown : DATE
UWI .     Unknown : UNIQUE WELL ID
API .             : API NUMBER
~Curve Information -----------------------------------------
DEPT            .m            : depths
GammaKT         .api          : digitalized and interpolated data
GammaTotal      .api          : digitalized and interpolated data
Bit Size        .inches       : digitalized and interpolated data
Pe              .             : digitalized and interpolated data
DensityCorr     .gram per cc  : digitalized and interpolated data
Neutron Porosity.decp         : digitalized and interpolated data
Density         .gram per cc  : digitalized and interpolated data
~Params ----------------------------------------------------
~Other -----------------------------------------------------
~ASCII -----------------------------------------------------
# ...
 1343.50000    6.71280   18.80460    8.62850    5.18010    0.02710    0.11220    2.47820
 1343.55000    7.17820   18.52810    8.62760    5.15350    0.02890    0.10670    2.50600
 1343.60000    7.35230   18.22740    8.62850    5.14340    0.03050    0.09810    2.53010
 1343.65000    7.52640   18.00220    8.62920    5.14500    0.03030    0.08970    2.54920
 1343.70000    7.70050   17.77910    8.62860    5.14650    0.02710    0.08020    2.56020
 1343.75000    7.87460   17.55600    8.62800    5.08070    0.02270    0.07380    2.57000
 1343.80000    8.03120   17.59850    8.62760    5.04640    0.01730    0.06840    2.57660
 1343.85000    8.03270   17.70110    8.62740    5.07260    0.01190    0.07420    2.58320
 1343.90000    8.03430   17.80360    8.62730    5.07320    0.00670    0.07080    2.58890
 1343.95000    7.97560   17.98160    8.64350    5.01890    0.00480    0.06740    2.59260
 1344.00000    7.90870   18.19120    8.66020    4.99290    0.00310    0.06440    2.59560
 1344.05000    7.89710   18.40070    8.60870    4.97270    0.00220    0.06350    2.59930
 1344.10000    7.89860   18.62130    8.61590    4.94710    0.00150    0.06260    2.60200
 1344.15000    7.90020   18.84350    8.62310    4.91860    0.00090    0.06220    2.60420
 1344.20000    7.87490   19.05920    8.63030    4.89650    0.00220    0.06550    2.60560
 1344.25000    7.81720   19.20580    8.63370    4.88350    0.00470    0.06790    2.60590
 1344.30000    7.69440   19.35240    8.63470    4.87040    0.00720    0.07150    2.60600
 1344.35000    7.61270   19.97410    8.63570    4.85960    0.00930    0.07400    2.60220
 1344.40000    7.59020   20.06780    8.63560    4.86860    0.00990    0.07780    2.59780
 1344.45000    7.56760   19.92610    8.63280    4.87750    0.00910    0.07920    2.59160
 1344.50000    7.54510   19.84460    8.63000    4.89140    0.00920    0.08140    2.58320
 1344.55000    7.52260   19.49110    8.63080    4.92100    0.00930    0.08400    2.57430
 1344.60000    7.50000   19.10070    8.63380    5.01480    0.00710    0.08490    2.56450
 1344.65000    7.45670   18.84640    8.63420    5.03500    0.00500    0.08820    2.55610
 1344.70000    7.39440   18.59200    8.63070    5.00360    0.00300    0.08990    2.55070
 1344.75000    7.33000   18.42620    8.62910    4.96280    0.00470    0.08710    2.54680
 1344.80000    7.26090   18.27250    8.63190    5.02350    0.00500    0.08820    2.54360
 1344.85000    7.19180   18.11880    8.63480    4.92600    0.00650    0.09210    2.54090
 1344.90000    7.09920   18.10140    8.64530    5.04260    0.00830    0.09310    2.53840
 1344.95000    6.98210   18.10020    8.65620    4.96640    0.01020    0.09520    2.53610
 1345.00000    6.86500   18.09890    8.61560    5.05040    0.01230    0.09390    2.53400
 1345.05000    6.82480   18.19460    8.63860    5.05990    0.01430    0.09480    2.53220
 1345.10000    6.79720   18.37050    8.64930    5.09730    0.01620    0.09580    2.53070
 1345.15000    6.76960   18.54650    8.63770    5.13980    0.01730    0.09490    2.52940
 1345.20000    6.83070   18.79030    8.62620    5.20480    0.01800    0.09610    2.52780
 1345.25000    6.93040   19.08650    8.62570    5.22540    0.01860    0.09610    2.52590
 1345.30000    7.03020   19.34380    8.63040    5.25720    0.01920    0.09420    2.52380
 1345.35000    7.12990   19.54190    8.63520    5.29140    0.01720    0.09490    2.52160
 1345.40000    7.22960   19.73990    8.63640    5.27750    0.01640    0.09380    2.52000
 1345.45000    7.32940   20.08140    8.63470    5.26360    0.01570    0.09070    2.51860
 1345.50000    7.37470   20.48780    8.63300    5.19130    0.01480    0.08890    2.51720
 1345.55000    7.37630   20.91770    8.63280    5.20160    0.01130    0.08980    2.51880
 1345.60000    7.35860   21.37110    8.63260    5.13890    0.00950    0.08610    2.52050
 1345.65000    7.32830   21.79710    8.62810    5.08640    0.00780    0.08580    2.52450
 1345.70000    7.28280   22.20570    8.62310    5.04560    0.00620    0.08520    2.52980
 1345.75000    7.21280   22.22800    8.62690    5.01290    0.00500    0.08380    2.53390
 1345.80000    7.09040   22.19280    8.63060    5.00800    0.00390    0.08120    2.53550
 1345.85000    6.88890   22.20790    8.62370    5.04850    0.00280    0.08140    2.53580
 1345.90000    6.67730   22.02600    8.61120    5.00430    0.00180    0.08230    2.53330
 1345.95000    6.36480   21.66390    8.59880    5.05160    0.00080    0.08660    2.52550
 1346.00000    6.13910   21.27170    8.64580    5.05820   -0.00070    0.08570    2.51280
 1346.05000    6.27440   20.85060    8.64790    5.04720   -0.00240    0.09420    2.49950
 1346.10000    6.40970   20.41980    8.64270    4.99270   -0.00330    0.09180    2.49360
 1346.15000    6.54170   19.98410    8.63750    4.99570   -0.00370    0.09250    2.48910
 1346.20000    6.35800   19.79690    8.63240    5.01110   -0.00410    0.09440    2.48720
 1346.25000    6.17430   19.70810    8.62720    5.01510   -0.00540    0.09160    2.48690
 1346.30000    5.99050   19.61930    8.62310    4.97720   -0.00660    0.08990    2.49010
 1346.35000    5.99180   19.53040    8.62650    4.93550   -0.00730    0.08750    2.49690
 1346.40000    6.13620   19.44360    8.62990    4.89140   -0.00790    0.08440    2.50650
 1346.45000    6.28050   19.68810    8.63330    4.85170   -0.00860    0.08330    2.51580
 1346.50000    6.46150   19.93260    8.62990    4.81270   -0.00910    0.08150    2.52650
 1346.55000    6.64610   20.19770    8.62480    4.79250   -0.00840    0.07780    2.53960
 1346.60000    6.83060   20.68340    8.62420    4.77620   -0.00770    0.07140    2.55270
 1346.65000    6.86790   21.14320    8.62730    4.75980   -0.00700    0.06930    2.56340
 1346.70000    6.90870   21.54950    8.62920    4.78950   -0.00430    0.06450    2.57710
 1346.75000    7.02220   21.84350    8.62900    4.77130   -0.00370    0.05740    2.59070
 1346.80000    7.13580   21.96780    8.62890    4.75320   -0.00310    0.05550    2.60230
 1346.85000    7.25520   22.06170    8.62870    4.76130   -0.00240    0.05410    2.61370
 1346.90000    7.37460   21.83670    8.63150    4.77220   -0.00170    0.04780    2.62260
 1346.95000    7.49390   21.61170    8.64370    4.79070   -0.00080    0.04780    2.62700
 1347.00000    7.65340   21.29720    8.65600    4.81090    0.00000    0.04340    2.62920
 1347.05000    7.82030   20.97230    8.61340    4.78030    0.00010    0.03960    2.63070
 1347.10000    7.81480   20.55680    8.64170    4.78010    0.00000    0.04240    2.63130
 1347.15000    7.80930   20.10650    8.63650    4.79680   -0.00060    0.04040    2.62970
 1347.20000    7.80630   19.58930    8.63150    4.80130   -0.00150    0.04060    2.62790
 1347.25000    7.80320   19.03590    8.62990    4.79920   -0.00260    0.04150    2.62560
 1347.30000    7.78240   18.40690    8.62820    4.78900   -0.00400    0.04520    2.62250
 1347.35000    7.76160   18.18870    8.62710    4.77010   -0.00540    0.04530    2.61950
 1347.40000    7.72670   18.02340    8.62700    4.75720   -0.00670    0.04420    2.61800
 1347.45000    7.66940   17.85800    8.62680    4.74920   -0.00700    0.04400    2.61650
 1347.50000    7.61210   17.86370    8.62670    4.74200   -0.00710    0.04480    2.61700
 1347.55000    7.64750   18.12570    8.62650    4.73940   -0.00720    0.04300    2.61880
 1347.60000    7.80070   18.38760    8.62640    4.73690   -0.00830    0.03800    2.62090
 1347.65000    7.95390   18.69570    8.62620    4.74270   -0.00990    0.03620    2.62410
 1347.70000    8.10710   19.03200    8.62600    4.76300   -0.01030    0.03780    2.62920
 1347.75000    8.26040   19.38670    8.62590    4.78320   -0.01090    0.03380    2.63450
 1347.80000    8.41360   19.75960    8.62570    4.80240   -0.01210    0.03410    2.63930
 1347.85000    8.60580   20.15990    8.62560    4.82170   -0.01290    0.03160    2.64320
 1347.90000    8.86780   20.66350    8.62720    4.84540   -0.01270    0.02910    2.64610
 1347.95000    9.06100   21.18230    8.63010    4.87170   -0.01250    0.02780    2.64810
