~Version ---------------------------------------------------
VERS.   2.0 : CWLS log ASCII Standard -VERSION 2.0
WRAP.    NO : One line per depth step
DLM . SPACE : Column Data Section Delimiter
~Well ------------------------------------------------------
STRT.m 1330.00000 : START DEPTH
STOP.m 1380.00000 : STOP DEPTH
STEP.m    0.05000 : STEP
NULL.    -9999.25 : NULL VALUE
COMP.     Unknown : COMPANY
WELL.     Unknown : WELL
FLD .     Unknown : FIELD
LOC .             : LOCATION
PROV.             : PROVINCE
CNTY.             : COUNTY
STAT.             : STATE
CTRY.     Unknown : COUNTRY
SRVC.             : SERVICE COMPANY
DATE.     Unknown : DATE
UWI .     Unknown : UNIQUE WELL ID
API .             : API NUMBER
~Curve Information -----------------------------------------
DEPT            .m            : depths
GammaKT         .api          : digitalized and interpolated data
GammaTotal      .api          : digitalized and interpolated data
Bit Size        .inches       : digitalized and interpolated data
Pe              .             : digitalized and interpolated data
DensityCorr     .gram per cc  : digitalized and interpolated data
Neutron Porosity.decp         : digitalized and interpolated data
Density         .gram per cc  : digitalized and interpolated data
~Params ----------------------------------------------------
~Other -----------------------------------------------------
~ASCII -----------------------------------------------------
# ...
 1348.00000    9.17060   21.71550    8.63480    4.87700   -0.01230    0.02560    2.64950
 1348.05000    9.28020   22.47020    8.64410    4.84600   -0.01210    0.02290    2.65010
 1348.10000    9.66610   23.51670    8.64850    4.85370   -0.01160    0.02440    2.65080
 1348.15000    9.48490   24.34390    8.61650    4.81640   -0.01100    0.02150    2.65240
 1348.20000    9.31240   25.42330    8.63630    4.80690   -0.01050    0.02100    2.65450
 1348.25000    9.17590   27.37390    8.63110    4.80000   -0.01200    0.01970    2.65730
 1348.30000    9.03940   29.44610    8.62750    4.79710   -0.01280    0.01920    2.66040
 1348.35000    8.86580   31.74220    8.62590    4.80320   -0.01310    0.01840    2.66310
 1348.40000    8.68730   34.25850    8.62420    4.80940   -0.01340    0.01720    2.66550
 1348.45000    8.50880   36.85220    8.62370    4.93750   -0.01370    0.01460    2.66660
 1348.50000    8.33030   39.48880    8.62350    4.87840   -0.01400    0.01600    2.66520
 1348.55000    8.15180   43.13000    8.62340    4.85890   -0.01430    0.01480    2.66380
 1348.60000    7.97330   46.75370    8.62320    4.89830   -0.01470    0.01240    2.66250
 1348.65000    7.89280   49.03970    8.62310    4.85980   -0.01500    0.01320    2.66150
 1348.70000    7.99190   52.20260    8.62290    4.84890   -0.01530    0.01320    2.66280
 1348.75000    8.09090   54.58090    8.62280    4.83790   -0.01570    0.01290    2.66420
 1348.80000    8.19960   56.08680    8.62260    4.82370   -0.01620    0.01370    2.66560
 1348.85000    8.31460   56.78730    8.62410    4.80800   -0.01660    0.01440    2.66740
 1348.90000    8.41330   57.01630    8.63620    4.79230   -0.01690    0.01500    2.66920
 1348.95000    8.45790   56.86580    8.64840    4.77140   -0.01640    0.01420    2.67100
 1349.00000    8.50260   56.13350    8.62690    4.74590   -0.01590    0.01520    2.67070
 1349.05000    8.66420   54.92480    8.61300    4.72050   -0.01520    0.01620    2.66930
 1349.10000    8.83550   53.14500    8.62100    4.75780   -0.01430    0.01420    2.66900
 1349.15000    9.08020   51.44400    8.62440    4.73710   -0.01260    0.01430    2.66850
 1349.20000    9.33150   49.34500    8.61160    4.71640   -0.00990    0.01460    2.66780
 1349.25000    9.58280   47.18430    8.59870    4.72370   -0.00790    0.01570    2.66670
 1349.30000    9.83410   44.98150    8.64720    4.74670   -0.00790    0.01620    2.66460
 1349.35000   10.08530   43.48140    8.63800    4.76810   -0.00530    0.01580    2.66280
 1349.40000   10.60950   42.63520    8.63220    4.78810   -0.00170    0.01850    2.66170
 1349.45000   11.27360   42.30830    8.62810    4.81120   -0.00230    0.01780    2.66060
 1349.50000   12.10100   42.05540    8.62510    4.83810   -0.00090    0.02110    2.66000
 1349.55000   12.91940   42.41350    8.62260    4.85150    0.00050    0.02410    2.66020
 1349.60000   13.81370   42.77170    8.62010    4.80360    0.00190    0.02540    2.66030
 1349.65000   14.85870   43.63850    8.62290    4.78450   -0.00200    0.02500    2.66020
 1349.70000   15.89210   45.02520    8.62580    4.76880   -0.00230    0.03260    2.65780
 1349.75000   16.93520   46.63450    8.62450    4.77120    0.00190    0.03510    2.65410
 1349.80000   18.21980   48.28610    8.62070    4.77360    0.00190    0.04060    2.65040
 1349.85000   18.88070   49.85540    8.62140    4.79410   -0.00130    0.04540    2.64600
 1349.90000   19.18760   51.91870    8.62430    4.81620   -0.00050    0.04700    2.64150
 1349.95000   19.46330   54.24060    8.62480    4.77270    0.00120    0.05450    2.63820
 1350.00000   19.92040   55.99490    8.62120    4.77500    0.00200    0.06040    2.63630
 1350.05000   19.99920   57.95720    8.61980    4.77740    0.00240    0.06330    2.63500
 1350.10000   19.64110   60.56120    8.62290    4.69850   -0.00070    0.06230    2.63590
 1350.15000   19.28300   63.68490    8.62700    4.66450    0.00200    0.06180    2.63670
 1350.20000   19.20260   66.92780    8.63650    4.64870    0.00110    0.06450    2.64020
 1350.25000   18.06140   69.71520    8.64610    4.63590   -0.00020    0.06280    2.64480
 1350.30000   17.24580   72.20860    8.63830    4.57470    0.00150    0.05620    2.64980
 1350.35000   16.28440   75.02340    8.62980    4.59150   -0.00090    0.04580    2.65330
 1350.40000   15.06070   77.66060    8.62470    4.60840   -0.00090    0.04030    2.65720
 1350.45000   14.45000   80.54100    8.62450    4.62640    0.00200    0.04300    2.66170
 1350.50000   13.88030   83.32260    8.62440    4.70020    0.00400    0.04310    2.66600
 1350.55000   13.31070   86.87950    8.62340    4.74870    0.00080    0.03430    2.67020
 1350.60000   13.00190   89.18030    8.62100    4.80590   -0.01610    0.03000    2.67430
 1350.65000   12.74980   91.73900    8.61910    4.90300    0.01110    0.02870    2.67730
 1350.70000   12.68870   92.64160    8.62040    4.93360    0.01280    0.02480    2.67930
 1350.75000   12.82580   93.18770    8.62170    4.95650    0.01490    0.02390    2.67900
 1350.80000   12.96280   93.49860    8.62310    4.91220    0.01700    0.02400    2.67850
 1350.85000   13.35020   93.38400    8.62110    4.89540    0.02050    0.02460    2.67430
 1350.90000   13.84710   92.77150    8.61800    4.87850    0.02040    0.02720    2.67160
 1350.95000   14.35430   91.71010    8.61650    4.86000    0.02030    0.02800    2.67000
 1351.00000   15.17220   90.50550    8.61830    4.84090    0.02020    0.02900    2.66950
 1351.05000   15.69870   88.73110    8.61960    4.82510    0.01990    0.03200    2.66900
 1351.10000   16.22530   86.86080    8.61750    4.82080    0.01950    0.03250    2.67020
 1351.15000   16.77770   85.60840    8.61530    4.81660    0.01890    0.03500    2.67260
 1351.20000   17.59120   84.61060    8.61890    4.81570    0.01810    0.03710    2.67550
 1351.25000   18.44740   83.81020    8.62250    4.82640    0.01740    0.03950    2.67840
 1351.30000   19.21520   83.73660    8.62240    4.83710    0.01710    0.04020    2.67910
 1351.35000   20.26060   83.73810    8.62200    4.84950    0.01680    0.03930    2.67770
 1351.40000   21.03630   83.73970    8.62160    4.86310    0.01550    0.04090    2.67570
 1351.45000   21.81050   83.88480    8.62630    4.87330    0.01430    0.04130    2.67340
 1351.50000   22.58470   84.19170    8.63150    4.87390    0.01420    0.04170    2.66870
 1351.55000   23.48410   84.39160    8.60510    4.87450    0.01400    0.04370    2.66290
 1351.60000   24.20440   84.41600    8.59740    4.86850    0.01320    0.04610    2.65670
 1351.65000   24.75650   84.44040    8.61150    4.85420    0.01150    0.04880    2.64880
 1351.70000   25.59000   84.11350    8.62560    4.89100    0.01080    0.05110    2.64020
 1351.75000   25.94870   83.54200    8.62620    4.84820    0.01000    0.05370    2.62830
 1351.80000   26.26130   82.65560    8.62440    4.80990    0.00930    0.05740    2.61550
 1351.85000   26.31130   81.67070    8.62260    4.78870    0.00590    0.05830    2.60990
 1351.90000   26.10540   80.68580    8.62950    4.76750    0.00370    0.06060    2.60780
 1351.95000   25.84450   79.66790    8.63680    4.75210    0.00150    0.06060    2.60690
 1352.00000   25.58360   79.17080    8.58980    4.73800   -0.00040    0.06050    2.61130
 1352.05000   25.24320   78.89510    8.61260    4.72390   -0.00220    0.05840    2.61640
 1352.10000   24.66620   78.61930    8.63320    4.72790   -0.00510    0.05940    2.62340
 1352.15000   24.50680   78.54950    8.62850    4.73630   -0.00530    0.05670    2.62690
 1352.20000   24.46540   78.49310    8.62390    4.74480   -0.00470    0.05600    2.62570
 1352.25000   24.42400   78.43670    8.61920    4.77900   -0.00340    0.05580    2.62350
 1352.30000   24.40300   78.10450    8.61880    4.79450    0.00360    0.05720    2.62020
 1352.35000   24.40460   77.69880    8.61860    4.79820    0.00930    0.06000    2.61810
 1352.40000   24.40620   77.02730    8.61840    4.80120    0.02600    0.06230    2.61570
 1352.45000   24.39830   76.41630    8.62120    4.80370    0.04960    0.06210    2.61310
