~Version ---------------------------------------------------
VERS.   2.0 : CWLS log ASCII Standard -VERSION 2.0
WRAP.    NO : One line per depth step
DLM . SPACE : Column Data Section Delimiter
~Well ------------------------------------------------------
STRT.m 2028.00000 : START DEPTH
STOP.m 2082.00000 : STOP DEPTH
STEP.m    0.05000 : STEP
NULL.    -9999.25 : NULL VALUE
COMP.     Unknown : COMPANY
WELL.     Unknown : WELL
FLD .     Unknown : FIELD
LOC .             : LOCATION
PROV.             : PROVINCE
CNTY.             : COUNTY
STAT.             : STATE
CTRY.     Unknown : COUNTRY
SRVC.             : SERVICE COMPANY
DATE.     Unknown : DATE
UWI .     Unknown : UNIQUE WELL ID
API .             : API NUMBER
~Curve Information -----------------------------------------
DEPT.m       : depths
GRS .api     : Gamma-Ray Spectral, digitalized and interpolated data
GR  .api     : Gamma-Ray, digitalized and interpolated data
CALI.inches  : Caliper, digitalized and interpolated data
NPHI.ls-pu   : Limestone calibrated neutron porosity, digitalized and interpolated data
RHOB.gm/cc   : Bulk density, digitalized and interpolated data
DRHO.gm/cc   : Density correction, digitalized and interpolated data
~Params ----------------------------------------------------
~Other -----------------------------------------------------
~ASCII -----------------------------------------------------
# ...
 2074.35000   10.54410   17.92560    8.92950    8.69890    2.69760    0.02540
 2074.40000   10.54680   17.79670    8.91660    8.54100    2.69930    0.02140
 2074.45000   10.54960   17.66770    8.90370    8.37560    2.70130    0.01570
 2074.50000   10.55230   17.53880    8.89080    8.21030    2.70340    0.01370
 2074.55000   10.55510   17.40990    8.87800    8.04490    2.70660    0.01470
 2074.60000   10.39210   17.40710    8.87400    7.90290    2.71070    0.01570
 2074.65000   10.19760   17.40990    8.87430    7.92630    2.71480    0.01680
 2074.70000   10.00310   17.41260    8.87460    7.94970    2.71760    0.01880
 2074.75000    9.80850   17.41530    8.87490    7.97310    2.71860    0.02240
 2074.80000    9.61400   17.41810    8.87510    7.99640    2.71970    0.02870
 2074.85000    9.41950   17.42080    8.87540    8.01980    2.72070    0.03340
 2074.90000    9.22490   17.42360    8.87570    8.04320    2.72170    0.03750
 2074.95000    9.03040   17.42630    8.87600    8.06650    2.72270    0.04160
 2075.00000    8.83580   17.42900    8.87620    8.22300    2.72370    0.04640
 2075.05000    8.64130   17.43180    8.87650    8.37960    2.72180    0.05260
 2075.10000    8.61460   17.66500    8.87680    8.53630    2.71980    0.05680
 2075.15000    8.81600   18.06630    8.87710    8.69290    2.71780    0.05990
 2075.20000    9.01740   18.46770    8.87730    8.84960    2.71630    0.06300
 2075.25000    9.21880   18.89760    8.87760    9.00620    2.71500    0.06600
 2075.30000    9.61530   19.50040    8.87790    9.16290    2.71370    0.06910
 2075.35000   10.01670   20.10320    8.87820    9.31950    2.71240    0.07210
 2075.40000   10.41810   20.70590    8.87840    9.45700    2.71110    0.07520
 2075.45000   10.92810   22.65510    8.87870    9.54570    2.70840    0.07910
 2075.50000   11.53080   22.98250    8.87900    9.63440    2.70550    0.08350
 2075.55000   12.13360   25.03500    8.87930    9.72310    2.70260    0.08970
 2075.60000   12.66740   26.79280    8.87950    9.81180    2.70150    0.09410
 2075.65000   12.67010   28.00820    8.87980    9.90050    2.70220    0.09610
 2075.70000   12.67290   29.22360    8.88010    9.85520    2.70290    0.09810
 2075.75000   12.67560   30.43900    8.88030    9.68980    2.70360    0.10010
 2075.80000   12.67840   30.23350    8.88060    9.52440    2.70420    0.10010
 2075.85000   12.68110   29.97350    8.88090    9.35900    2.70660    0.10010
 2075.90000   11.60740   29.71350    8.88120    9.19370    2.70960    0.10010
 2075.95000   10.44630   29.45350    8.88140    9.02830    2.71270    0.10010
 2076.00000    9.28520   29.19350    8.88170    8.86290    2.71520    0.10010
 2076.05000    8.42760   28.25840    8.88200    8.69750    2.71720    0.10010
 2076.10000    8.03710   27.09730    8.88230    8.54050    2.71930    0.10010
 2076.15000    7.64670   25.93630    8.88250    8.41700    2.72130    0.10020
 2076.20000    7.25620   24.61160    8.88280    8.29350    2.72330    0.10020
 2076.25000    7.10370   22.70030    8.88310    8.17010    2.72540    0.10020
 2076.30000    6.97480   21.11070    8.88340    8.04660    2.72740    0.09850
 2076.35000    6.84590   19.94970    8.88360    7.92310    2.72940    0.09560
 2076.40000    6.71690   18.78860    8.88390    7.84530    2.73070    0.09270
 2076.45000    6.58800   17.62750    8.88420    7.79600    2.73140    0.08970
 2076.50000    6.69300   16.98350    8.88450    7.74670    2.73210    0.08210
 2076.55000    6.89440   16.39840    8.88470    7.69740    2.73280    0.07490
 2076.60000    7.09570   15.81340    8.88500    7.64810    2.73350    0.06920
 2076.65000    7.21130   15.30650    8.88530    7.59880    2.73320    0.06340
 2076.70000    7.08230   14.91610    8.88560    7.54950    2.73250    0.05770
 2076.75000    6.95340   14.52560    8.88580    7.52760    2.73190    0.05000
 2076.80000    6.82450   14.13510    8.88610    7.52690    2.73120    0.04070
 2076.85000    6.69550   13.98480    8.88640    7.52620    2.73060    0.03260
 2076.90000    6.55140   13.85590    8.88660    7.52560    2.72880    0.02500
 2076.95000    6.16100   13.72700    8.88690    7.52490    2.72690    0.02280
 2077.00000    5.77050   13.59800    8.88720    7.52420    2.72490    0.02150
 2077.05000    5.38000   13.46910    8.88750    7.52350    2.72290    0.02010
 2077.10000    5.10200   13.52930    8.88770    7.54500    2.72100    0.01880
 2077.15000    4.90750   13.66430    8.88800    7.59220    2.72020    0.01750
 2077.20000    4.71300   13.79930    8.88830    7.63950    2.71950    0.02050
 2077.25000    4.55900   13.93430    8.88860    7.68680    2.71890    0.02680
 2077.30000    4.76030   14.06930    8.88880    7.73400    2.71820    0.03010
 2077.35000    4.96170   14.13310    8.88910    7.78130    2.71750    0.03320
 2077.40000    5.16310   14.13590    8.88940    7.82850    2.71620    0.03630
 2077.45000    5.75970   14.13860    8.88970    7.88870    2.71490    0.03980
 2077.50000    6.56530   14.14140    8.88990    7.97740    2.71360    0.04390
 2077.55000    6.98770   14.14410    8.89020    8.06610    2.71230    0.04800
 2077.60000    7.38910   14.14680    8.89050    8.15480    2.71110    0.05240
 2077.65000    7.79050   14.14960    8.89080    8.24350    2.71040    0.05860
 2077.70000    7.98790   14.15230    8.89100    8.33220    2.70980    0.06390
 2077.75000    7.99070   14.15510    8.89130    8.42410    2.70910    0.06800
 2077.80000    7.99340   14.15780    8.89160    8.51870    2.70840    0.07220
 2077.85000    7.99620   14.16050    8.89190    8.61330    2.70800    0.07650
 2077.90000    7.99890   14.16330    8.89210    8.70780    2.70800    0.08490
 2077.95000    7.87520   14.27950    8.89240    8.80240    2.70800    0.09430
 2078.00000    7.48480   14.54740    8.89270    8.89700    2.70800    0.10500
 2078.05000    7.09430   14.81530    8.89290    8.99150    2.70800    0.11220
 2078.10000    6.70380   15.08320    8.89320    9.06630    2.70800    0.11820
 2078.15000    6.31330   15.35110    8.89350    9.10560    2.70800    0.12160
 2078.20000    5.92290   15.58420    8.89380    9.14490    2.70750    0.12500
 2078.25000    5.53240   15.71920    8.89400    9.18420    2.70680    0.12840
 2078.30000    5.18810   15.85420    8.89430    9.22360    2.70620    0.13180
 2078.35000    4.92810   15.98920    8.89460    9.26290    2.70550    0.13520
 2078.40000    4.66810   16.12430    8.89200    9.30220    2.70490    0.13620
 2078.45000    4.40810   16.24820    8.88240    9.34150    2.70420    0.13720
 2078.50000    4.14810   16.25100    8.87280    9.38080    2.70360    0.13820
 2078.55000    3.92490   16.25370    8.86320    9.42910    2.70290    0.13760
 2078.60000    3.92770   16.25640    8.85360    9.47980    2.70220    0.13570
 2078.65000    3.93040   16.25920    8.84400    9.53040    2.70160    0.13370
 2078.70000    3.93310   16.26190    8.83450    9.58110    2.70160    0.13170
 2078.75000    3.93590   16.17640    8.82830    9.63170    2.70160    0.12780
 2078.80000    3.93860   16.08030    8.82860    9.68240    2.70160    0.12400
 2078.85000    3.19920   15.98420    8.82880    9.73310    2.70170    0.12010
 2078.90000    2.57420   15.88820    8.82910    9.78370    2.70170    0.11540
 2078.95000    2.57700   15.79210    8.82940    9.83440    2.70170    0.10970
 2079.00000    2.57970   15.69600    8.83100    9.88510    2.70130    0.10400
 2079.05000    2.58250   15.60000    8.84120    9.88050    2.70060    0.09820
 2079.10000    2.68260   15.40920    8.85130    9.85960    2.70000    0.08960
 2079.15000    2.81760   15.21470    8.86140    9.83880    2.69930    0.08030
 2079.20000    2.95260   15.02010    8.87160    9.81790    2.69870    0.07270
 2079.25000    3.08760   14.82560    8.88170    9.79710    2.69640    0.06540
 2079.30000    3.22260   14.63110    8.89190    9.77620    2.69350    0.06060
 2079.35000    3.50630   14.43650    8.90010    9.75530    2.69050    0.05580
 2079.40000    3.90770   14.24370    8.90030    9.73450    2.68640    0.05100
 2079.45000    4.14110   14.14770    8.90060    9.72580    2.68070    0.04480
