~Version ---------------------------------------------------
VERS.   2.0 : CWLS log ASCII Standard -VERSION 2.0
WRAP.    NO : One line per depth step
DLM . SPACE : Column Data Section Delimiter
~Well ------------------------------------------------------
STRT.m 1330.00000 : START DEPTH
STOP.m 1380.00000 : STOP DEPTH
STEP.m    0.05000 : STEP
NULL.    -9999.25 : NULL VALUE
COMP.     Unknown : COMPANY
WELL.     Unknown : WELL
FLD .     Unknown : FIELD
LOC .             : LOCATION
PROV.             : PROVINCE
CNTY.             : COUNTY
STAT.             : STATE
CTRY.     Unknown : COUNTRY
SRVC.             : SERVICE COMPANY
DATE.     Unknown : DATE
UWI .     Unknown : UNIQUE WELL ID
API .             : API NUMBER
~Curve Information -----------------------------------------
DEPT            .m            : depths
GammaKT         .api          : digitalized and interpolated data
GammaTotal      .api          : digitalized and interpolated data
Bit Size        .inches       : digitalized and interpolated data
Pe              .             : digitalized and interpolated data
DensityCorr     .gram per cc  : digitalized and interpolated data
Neutron Porosity.decp         : digitalized and interpolated data
Density         .gram per cc  : digitalized and interpolated data
~Params ----------------------------------------------------
~Other -----------------------------------------------------
~ASCII -----------------------------------------------------
# ...
 1352.50000   24.37070   75.82220    8.62440    4.80610    0.07220    0.06840    2.61620
 1352.55000   24.34310   75.16250    8.62510    4.74970    0.09190    0.07270    2.61960
 1352.60000   24.36950   74.23280    8.62490    4.72060    0.09910    0.07720    2.62320
 1352.65000   24.40260   73.57310    8.62480    4.69150    0.10380    0.08480    2.62670
 1352.70000   24.41170   72.93700    8.62460    4.66310    0.09970    0.08720    2.63140
 1352.75000   24.40710   72.45700    8.62530    4.63490    0.08270    0.08790    2.63540
 1352.80000   24.33020   72.18490    8.62670    4.61740    0.05610    0.08730    2.63880
 1352.85000   24.09430   71.91270    8.62130    4.60230    0.03550    0.08340    2.64020
 1352.90000   23.85840   71.92310    8.59120    4.58720    0.01130    0.07960    2.64130
 1352.95000   23.59500   72.15000    8.59470    4.63370    0.00210    0.07570    2.64070
 1353.00000   23.33110   72.45850    8.61930    4.62680   -0.00610    0.07190    2.63780
 1353.05000   23.14930   73.15210    8.62650    4.61990   -0.02120    0.06920    2.63410
 1353.10000   23.15090   73.48980    8.62250    4.62040   -0.02300    0.06720    2.62960
 1353.15000   23.15250   73.80690    8.61850    4.63280   -0.02160    0.06300    2.62560
 1353.20000   23.15400   74.03930    8.61800    4.64520   -0.02010    0.06030    2.62440
 1353.25000   23.18130   74.27170    8.61750    4.65800   -0.01860    0.05830    2.62310
 1353.30000   23.21100   74.41690    8.61650    4.67080   -0.01890    0.05560    2.62240
 1353.35000   23.15360   74.53880    8.61310    4.69960   -0.01440    0.05480    2.62360
 1353.40000   22.96150   74.66070    8.60970    4.73470   -0.00980    0.05580    2.62550
 1353.45000   22.76940   75.00750    8.61140    4.75750   -0.00800    0.05450    2.62980
 1353.50000   22.57730   75.57390    8.61770    4.77870   -0.00610    0.05310    2.63420
 1353.55000   22.38520   76.53110    8.62390    4.83360   -0.00340    0.05180    2.63960
 1353.60000   22.19320   78.30480    8.62450    4.83130   -0.00270    0.05220    2.64550
 1353.65000   21.93930   81.03470    8.62310    4.83140   -0.00230    0.04970    2.65040
 1353.70000   21.67900   83.91680    8.62180    4.85030   -0.00160    0.05120    2.65410
 1353.75000   21.54930   87.15790    8.62130    4.85760   -0.00070    0.05010    2.65630
 1353.80000   21.41580   92.50730    8.62120    4.85650    0.00000    0.04860    2.65640
 1353.85000   21.27200   95.43150    8.61980    4.86260    0.00050    0.04910    2.65540
 1353.90000   21.12820   98.29410    8.61740    4.87800    0.00090    0.04960    2.65250
 1353.95000   20.98450  100.08990    8.61500    4.88190    0.00150    0.04990    2.64840
 1354.00000   20.94780  103.37970    8.61510    4.85000    0.00230    0.05160    2.64640
 1354.05000   20.96250  105.54990    8.61610    4.86210    0.00310    0.05200    2.64580
 1354.10000   20.97710  106.74060    8.61720    4.86330    0.00680    0.05370    2.64520
 1354.15000   20.89710  105.89890    8.61810    4.84370    0.00740    0.05430    2.64520
 1354.20000   20.74860  105.10490    8.61900    4.82420    0.00580    0.05500    2.64730
 1354.25000   20.60020  103.11850    8.61980    4.81800    0.00790    0.05300    2.65030
 1354.30000   20.45180   99.17230    8.61960    4.82850    0.01000    0.05320    2.65370
 1354.35000   20.30330   94.08550    8.61950    4.83900    0.01070    0.05210    2.65640
 1354.40000   19.95310   90.82840    8.61930    4.87580    0.01140    0.05050    2.65740
 1354.45000   19.84620   86.81710    8.61910    4.89080    0.01020    0.04540    2.65840
 1354.50000   19.90380   83.66530    8.61900    4.89010    0.00840    0.04470    2.65550
 1354.55000   20.25090   80.93420    8.61880    4.90040    0.00750    0.04620    2.64880
 1354.60000   20.90160   79.89720    8.61870    4.91860    0.00330    0.04740    2.64310
 1354.65000   21.73800   79.52660    8.61850    4.91310    0.00260    0.04690    2.63530
 1354.70000   22.43110   79.29310    8.61840    4.90100    0.00310    0.05100    2.62480
 1354.75000   23.57260   79.76320    8.61820    4.88920    0.00610    0.05020    2.61680
 1354.80000   24.52820   80.61760    8.61830    4.88390    0.01560    0.05160    2.60850
 1354.85000   25.11330   81.95530    8.61990    4.87860    0.02310    0.05440    2.60550
 1354.90000   25.65950   83.45760    8.61870    4.87340    0.03320    0.06310    2.60450
 1354.95000   26.20860   85.45010    8.59860    4.88880    0.04260    0.06830    2.60430
 1355.00000   26.68920   87.96040    8.57850    4.90420    0.05290    0.06010    2.60570
 1355.05000   26.52060   90.14930    8.62900    4.92370    0.05780    0.06420    2.61070
 1355.10000   25.98380   91.98590    8.62560    4.95760    0.06090    0.06940    2.61830
 1355.15000   25.27200   93.18800    8.62220    4.99140    0.06350    0.07150    2.62860
 1355.20000   24.23700   94.01940    8.61960    4.95890    0.06360    0.06530    2.64040
 1355.25000   23.22290   94.59400    8.61840    4.98460    0.06380    0.06540    2.64660
 1355.30000   22.00000   94.84860    8.61720    5.01020    0.06460    0.06070    2.64910
 1355.35000   20.86490   94.83610    8.61630    4.93080    0.06260    0.05730    2.65140
 1355.40000   19.69120   94.41840    8.61620    5.00120    0.05830    0.05460    2.65360
 1355.45000   18.80500   93.60260    8.61600    4.96010    0.05030    0.05500    2.65310
 1355.50000   18.47200   92.28650    8.61590    4.95970    0.04340    0.05240    2.65210
 1355.55000   18.36520   90.20280    8.61570    4.98080    0.03300    0.05230    2.65160
 1355.60000   18.25850   87.62740    8.61550    4.95280    0.02520    0.05180    2.65240
 1355.65000   18.15170   85.25570    8.61540    4.92630    0.01700    0.05160    2.65330
 1355.70000   18.04500   82.81640    8.61300    4.90960    0.01120    0.05210    2.65290
 1355.75000   18.13300   81.14990    8.61030    4.89610    0.00910    0.05260    2.65190
 1355.80000   18.49530   80.49700    8.60950    4.88270    0.00690    0.05120    2.65080
 1355.85000   18.92280   80.08210    8.60860    4.88300    0.00810    0.05120    2.65020
 1355.90000   19.43060   80.21240    8.61020    4.88420    0.00770    0.05220    2.64960
 1355.95000   19.78480   80.63220    8.61260    4.89850    0.00730    0.05230    2.65110
 1356.00000   20.09230   81.61920    8.61500    4.94910    0.00690    0.05600    2.64970
 1356.05000   20.22770   83.37580    8.61710    4.94190    0.01000    0.05490    2.64820
 1356.10000   20.24160   85.43710    8.61390    5.01630    0.01060    0.05400    2.64700
 1356.15000   20.13500   87.62780    8.61080    4.96080    0.01190    0.05610    2.64580
 1356.20000   19.71800   90.82070    8.60860    5.00630    0.01310    0.05580    2.64460
 1356.25000   19.30090   92.32050    8.60780    5.05180    0.01700    0.05500    2.64440
 1356.30000   18.88380   93.65710    8.60710    4.98850    0.01860    0.05290    2.64410
 1356.35000   18.46680   94.46030    8.60830    5.03800    0.02020    0.05370    2.64390
 1356.40000   17.84510   94.87360    8.60950    4.95510    0.02400    0.05430    2.64450
 1356.45000   17.19350   94.61330    8.61070    5.01830    0.02470    0.05170    2.64560
 1356.50000   16.53120   94.18360    8.61150    4.96020    0.02550    0.05040    2.64520
 1356.55000   15.87230   93.66380    8.61180    4.91630    0.02620    0.04900    2.64430
 1356.60000   15.64860   93.33100    8.61210    4.97620    0.02060    0.04910    2.64230
 1356.65000   15.42500   93.17810    8.61100    4.97410    0.01460    0.04750    2.63890
 1356.70000   15.35200   93.02510    8.60740    4.93710    0.01150    0.04790    2.63330
 1356.75000   15.59450   92.97270    8.60380    4.99670    0.00850    0.04630    2.62470
 1356.80000   15.83690   93.31290    8.60580    5.01740    0.00840    0.04900    2.61490
 1356.85000   16.07940   93.65310    8.61380    5.02400    0.00830    0.05610    2.60330
 1356.90000   16.32190   93.88110    8.61610    4.96350    0.01240    0.06230    2.59490
 1356.95000   16.69190   93.94220    8.60970    4.94860    0.01790    0.04990    2.58930
