~Version ---------------------------------------------------
VERS.   2.0 : CWLS log ASCII Standard -VERSION 2.0
WRAP.    NO : One line per depth step
DLM . SPACE : Column Data Section Delimiter
~Well ------------------------------------------------------
STRT.m 1330.00000 : START DEPTH
STOP.m 1380.00000 : STOP DEPTH
STEP.m    0.05000 : STEP
NULL.    -9999.25 : NULL VALUE
COMP.     Unknown : COMPANY
WELL.     Unknown : WELL
FLD .     Unknown : FIELD
LOC .             : LOCATION
PROV.             : PROVINCE
CNTY.             : COUNTY
STAT.             : STATE
CTRY.     Unknown : COUNTRY
SRVC.             : SERVICE COMPANY
DATE.     Unknown : DATE
UWI .     Unknown : UNIQUE WELL ID
API .             : API NUMBER
~Curve Information -----------------------------------------
DEPT            .m            : depths
GammaKT         .api          : digitalized and interpolated data
GammaTotal      .api          : digitalized and interpolated data
Bit Size        .inches       : digitalized and interpolated data
Pe              .             : digitalized and interpolated data
DensityCorr     .gram per cc  : digitalized and interpolated data
Neutron Porosity.decp         : digitalized and interpolated data
Density         .gram per cc  : digitalized and interpolated data
~Params ----------------------------------------------------
~Other -----------------------------------------------------
~ASCII -----------------------------------------------------
# ...
 1370.50000   75.39720   90.28970    8.56190    4.14540    0.13160    0.25990    2.49460
 1370.55000   74.73400   89.98940    8.56170    4.12380    0.12960    0.25910    2.48930
 1370.60000   73.99090   89.68910    8.56160    4.12930    0.12900    0.25930    2.48350
 1370.65000   73.24770   89.83800    8.56140    4.13470    0.12900    0.25930    2.47720
 1370.70000   72.54440   90.03270    8.56130    4.16310    0.12890    0.25050    2.47210
 1370.75000   72.23200   90.22750    8.56110    4.16120    0.12980    0.24580    2.46970
 1370.80000   71.91960   90.37190    8.56170    4.13180    0.12590    0.24360    2.46880
 1370.85000   72.29500   90.50260    8.57020    4.14220    0.11950    0.24310    2.47070
 1370.90000   72.14790   90.62240    8.57880    4.15260    0.11550    0.24250    2.47630
 1370.95000   72.00090   90.71850    8.52710    4.10800    0.11240    0.24420    2.48770
 1371.00000   72.03470   90.81220    8.56690    4.10780    0.11160    0.24090    2.49520
 1371.05000   72.14540   90.86900    8.56450    4.10790    0.11260    0.24150    2.50450
 1371.10000   72.25610   90.92580    8.56220    4.10780    0.11370    0.24170    2.51340
 1371.15000   72.20040   90.94620    8.56120    4.09680    0.11530    0.23920    2.52220
 1371.20000   72.25140   90.92900    8.56020    4.08580    0.12010    0.24030    2.52940
 1371.25000   72.37630   90.91180    8.55950    4.07560    0.12150    0.23590    2.53570
 1371.30000   72.50110   90.94850    8.55940    4.06560    0.12530    0.23220    2.53960
 1371.35000   72.62590   91.14520    8.55920    4.05560    0.13120    0.22690    2.54070
 1371.40000   72.75070   91.43610    8.55910    4.04450    0.13640    0.22380    2.53890
 1371.45000   72.94370   92.43410    8.55890    4.03280    0.14070    0.22740    2.53280
 1371.50000   73.23020   93.52020    8.55880    4.02120    0.14500    0.22610    2.52280
 1371.55000   73.51670   94.66960    8.55860    4.01270    0.14810    0.22710    2.50830
 1371.60000   74.02610   95.93290    8.55450    4.00440    0.14940    0.22640    2.49380
 1371.65000   74.80840   97.17850    8.55240    3.99550    0.14990    0.22920    2.48060
 1371.70000   75.64000   98.28400    8.55720    3.98220    0.14890    0.23410    2.47150
 1371.75000   76.48660   99.23740    8.56110    3.96900    0.14800    0.24470    2.46470
 1371.80000   77.12350  100.13550    8.56390    3.96250    0.14380    0.24090    2.46250
 1371.85000   77.76040  100.96290    8.56670    3.96210    0.13970    0.24240    2.46080
 1371.90000   78.47140  102.03380    8.56720    3.95350    0.13570    0.24410    2.46130
 1371.95000   79.19100  102.84090    8.56500    3.92320    0.13100    0.24790    2.46190
 1372.00000   79.80500  103.31210    8.53630    3.91800    0.12800    0.24160    2.46240
 1372.05000   80.25770  103.56470    8.56210    3.92710    0.12650    0.24300    2.46320
 1372.10000   80.62290  103.80270    8.56700    3.93620    0.12790    0.24810    2.46400
 1372.15000   80.77790  103.99480    8.56230    3.95480    0.13410    0.25140    2.46130
 1372.20000   80.88640  104.18690    8.55790    3.97380    0.14840    0.25650    2.45990
 1372.25000   80.93680  104.49270    8.55410    3.99300    0.15560    0.25960    2.45860
 1372.30000   80.98710  104.86400    8.55030    4.01220    0.15830    0.26010    2.45720
 1372.35000   81.01130  104.81770    8.55100    4.03140    0.16100    0.26070    2.44900
 1372.40000   81.01290  104.72890    8.55370    4.08680    0.16460    0.26230    2.44030
 1372.45000   80.89040  104.56760    8.55580    4.13290    0.18510    0.26050    2.42550
 1372.50000   80.70920  104.34770    8.55560    4.16500    0.20440    0.26130    2.40950
 1372.55000   80.27680  104.00650    8.55550    4.21400    0.21850    0.26180    2.38950
 1372.60000   79.82200  103.37200    8.55530    4.27160    0.23000    0.26320    2.37550
 1372.65000   79.35110  102.03140    8.55520    4.32150    0.23230    0.27160    2.37240
 1372.70000   78.63470  100.84080    8.55500    4.36500    0.22860    0.27140    2.37100
 1372.75000   77.48850   99.95070    8.55490    4.39830    0.21930    0.27340    2.38150
 1372.80000   76.18660   99.58210    8.55230    4.40970    0.20730    0.26810    2.40170
 1372.85000   75.23770   99.21340    8.54880    4.38270    0.18310    0.26290    2.43700
 1372.90000   74.74600   98.55810    8.54530    4.32550    0.15320    0.26000    2.47640
 1372.95000   74.15490   99.44490    8.58270    4.27800    0.13530    0.26210    2.49950
 1373.00000   74.07420  101.43100    8.57440    4.17430    0.12450    0.26550    2.53060
 1373.05000   75.02970  103.73440    8.55780    4.10850    0.11520    0.26180    2.53920
 1373.10000   76.43120  107.23080    8.54670    4.05910    0.11130    0.26440    2.54500
 1373.15000   77.96640  110.34540    8.54650    4.01370    0.11460    0.27170    2.52910
 1373.20000   80.44920  113.88570    8.54640    3.97940    0.12070    0.27530    2.50750
 1373.25000   82.58550  115.84790    8.54730    3.94510    0.13130    0.27830    2.47320
 1373.30000   84.73130  118.67320    8.54810    3.91130    0.14110    0.28390    2.44260
 1373.35000   86.76350  120.28120    8.54890    3.87760    0.15460    0.29000    2.41240
 1373.40000   88.24810  121.29470    8.54800    3.87120    0.17060    0.29810    2.38470
 1373.45000   88.95840  120.69100    8.54680    3.87970    0.18700    0.31660    2.36700
 1373.50000   89.59810  119.56120    8.54570    3.88810    0.20530    0.30980    2.35560
 1373.55000   88.92460  117.86830    8.54530    3.91000    0.22470    0.30900    2.35360
 1373.60000   87.49140  115.89650    8.54510    3.94320    0.24380    0.31480    2.35160
 1373.65000   85.73430  113.71820    8.54490    3.97470    0.25080    0.29460    2.35480
 1373.70000   83.88660  111.58720    8.54770    3.99170    0.25220    0.28350    2.36490
 1373.75000   82.01000  109.78730    8.55080    4.01480    0.25180    0.27320    2.38050
 1373.80000   80.52020  107.96790    8.55390    4.05680    0.25080    0.27560    2.39650
 1373.85000   78.99460  105.85920    8.54800    3.99780    0.25060    0.27130    2.41320
 1373.90000   77.41000  104.21260    8.52870    4.01080    0.24980    0.26680    2.43200
 1373.95000   76.01300  102.70790    8.57230    4.01040    0.24700    0.26660    2.44940
 1374.00000   74.34700  101.24740    8.56290    3.95300    0.23750    0.26180    2.47850
 1374.05000   73.28100  100.28560    8.55350    3.97750    0.22700    0.26350    2.49590
 1374.10000   72.51220  100.17420    8.54410    3.98030    0.20880    0.26310    2.50540
 1374.15000   72.18020  100.06280    8.54580    3.95300    0.19580    0.25870    2.51070
 1374.20000   71.97300   99.98430    8.54820    3.95650    0.18390    0.25470    2.51100
 1374.25000   71.76590   99.84320    8.55000    3.95990    0.16420    0.25140    2.50340
 1374.30000   71.55880   99.42640    8.54870    3.96040    0.14900    0.24910    2.49280
 1374.35000   71.35160   99.06510    8.54740    3.95710    0.13220    0.24810    2.48070
 1374.40000   71.06740   98.76130    8.54590    3.97070    0.11590    0.24710    2.47000
 1374.45000   70.74500   98.44760    8.54420    3.99990    0.10310    0.24930    2.46170
 1374.50000   70.42540   98.11880    8.54250    3.96310    0.09350    0.25070    2.45840
 1374.55000   70.11400   97.75950    8.53880    3.95110    0.08890    0.25250    2.45610
 1374.60000   69.80270   97.30910    8.53490    3.93910    0.08590    0.25190    2.45730
 1374.65000   69.29780   96.70080    8.53790    3.93110    0.08470    0.25300    2.45860
 1374.70000   68.78120   96.03220    8.54090    3.92490    0.08360    0.24990    2.46010
 1374.75000   68.25770   95.49110    8.54150    3.91860    0.08240    0.25070    2.46270
 1374.80000   68.19000   95.28080    8.54140    3.93150    0.08290    0.24860    2.46520
 1374.85000   68.13460   95.08580    8.54910    3.95160    0.07890    0.24250    2.46570
 1374.90000   68.07930   94.89080    8.56080    3.94190    0.07260    0.23860    2.46470
 1374.95000   68.02390   94.84740    8.54570    3.93100    0.07000    0.23480    2.46350
