~Version ---------------------------------------------------
VERS.   2.0 : CWLS log ASCII Standard -VERSION 2.0
WRAP.    NO : One line per depth step
DLM . SPACE : Column Data Section Delimiter
~Well ------------------------------------------------------
STRT.m 2028.00000 : START DEPTH
STOP.m 2082.00000 : STOP DEPTH
STEP.m    0.05000 : STEP
NULL.    -9999.25 : NULL VALUE
COMP.     Unknown : COMPANY
WELL.     Unknown : WELL
FLD .     Unknown : FIELD
LOC .             : LOCATION
PROV.             : PROVINCE
CNTY.             : COUNTY
STAT.             : STATE
CTRY.     Unknown : COUNTRY
SRVC.             : SERVICE COMPANY
DATE.     Unknown : DATE
UWI .     Unknown : UNIQUE WELL ID
API .             : API NUMBER
~Curve Information -----------------------------------------
DEPT.m       : depths
GRS .api     : Gamma-Ray Spectral, digitalized and interpolated data
GR  .api     : Gamma-Ray, digitalized and interpolated data
CALI.inches  : Caliper, digitalized and interpolated data
NPHI.ls-pu   : Limestone calibrated neutron porosity, digitalized and interpolated data
RHOB.gm/cc   : Bulk density, digitalized and interpolated data
DRHO.gm/cc   : Density correction, digitalized and interpolated data
~Params ----------------------------------------------------
~Other -----------------------------------------------------
~ASCII -----------------------------------------------------
# ...
 2038.30000   43.22080   78.11190    9.09350   18.33550    2.59530    0.00930
 2038.35000   43.42220   78.51320    9.11350   18.28430    2.59700    0.01040
 2038.40000   43.04240   78.91460    9.13350   18.22280    2.59980    0.01140
 2038.45000   42.26410   79.31600    9.15350   18.16120    2.60250    0.01240
 2038.50000   40.13430   79.71740    9.15570   18.09970    2.60520    0.01340
 2038.55000   39.33220   79.51610    9.15600   18.03810    2.60790    0.01440
 2038.60000   38.17120   79.12560    9.15620   17.92330    2.61010    0.01510
 2038.65000   37.12350   78.73510    9.15650   17.67270    2.61210    0.01510
 2038.70000   36.34510   78.34460    9.15680   17.42200    2.61410    0.01510
 2038.75000   33.34560   77.95410    9.15160   17.13630    2.61620    0.01510
 2038.80000   32.18460   77.56370    9.14400   16.82030    2.61820    0.01510
 2038.85000   31.02350   77.17320    9.13630   16.50440    2.61820    0.01500
 2038.90000   29.86240   76.78270    9.12870   16.24190    2.61820    0.01370
 2038.95000   29.64470   76.45420    9.12110   15.99130    2.61820    0.01240
 2039.00000   29.45020   77.25970    9.11350   15.74060    2.61820    0.01100
 2039.05000   29.25560   78.06530    9.10590   15.49000    2.61820    0.00970
 2039.10000   29.66820   78.87080    9.09830   15.26950    2.61820    0.00840
 2039.15000   30.67800   79.67640    9.09060   15.06180    2.61720    0.00990
 2039.20000   31.68770   80.48190    9.07770   14.85400    2.61520    0.01190
 2039.25000   32.63460   79.57190    9.06480   14.64620    2.61320    0.01390
 2039.30000   33.03600   80.78730    9.05190   14.50950    2.61130    0.01600
 2039.35000   33.43740   82.00260    9.03910   14.42740    2.60930    0.01800
 2039.40000   33.83870   82.73640    9.02620   14.34530    2.60770    0.02440
 2039.45000   34.24010   83.00430    9.02390   14.26330    2.60640    0.03270
 2039.50000   34.64150   83.27220    9.02420   14.27220    2.60510    0.03790
 2039.55000   34.10690   83.54010    9.02450   14.44800    2.60380    0.04310
 2039.60000   33.52180   83.80800    9.02470   14.62380    2.60250    0.04820
 2039.65000   32.93670   83.94020    9.02500   14.80800    2.60140    0.05200
 2039.70000   31.91950   83.81130    9.02330   15.00290    2.60040    0.05510
 2039.75000   30.38080   83.68230    9.02030   15.19780    2.59940    0.05810
 2039.80000   29.09730   83.55340    9.01730   15.39270    2.59940    0.06120
 2039.85000   27.93630   83.42450    9.01430   15.58540    2.60040    0.06420
 2039.90000   27.71470   83.20460    9.01130   15.74210    2.60140    0.06730
 2039.95000   27.58570   82.42620    9.00820   15.89870    2.60200    0.07040
 2040.00000   27.45680   82.20740    9.00520   16.05540    2.60140    0.07080
 2040.05000   27.32790   82.87760    9.00220   16.21200    2.60070    0.07080
 2040.10000   27.19890   83.54780    8.99920   16.29230    2.60000    0.07080
 2040.15000   27.16330   84.21800    8.99620   16.33960    2.59940    0.07080
 2040.20000   27.16600   84.88830    8.99320   16.38680    2.59850    0.07090
 2040.25000   27.16880   83.97330    8.99020   16.43410    2.59720    0.07090
 2040.30000   27.57570   86.88700    8.98710   16.48130    2.59590    0.07090
 2040.35000   29.20670   88.82780    8.98410   16.52860    2.59450    0.07000
 2040.40000   31.07610   90.04320    8.98110   16.57590    2.59320    0.06900
 2040.45000   33.12860   91.99390    8.97810   16.48340    2.59260    0.06800
 2040.50000   33.70360   92.07220    8.97510   16.27560    2.59260    0.06710
 2040.55000   34.10500   95.01670    8.97210   16.06790    2.59260    0.06610
 2040.60000   34.50630   97.96120    8.96910   15.86010    2.59260    0.06510
 2040.65000   34.72490  100.90570    8.96610   15.40710    2.59260    0.06410
 2040.70000   34.72770   96.06710    8.96300   14.64730    2.59300    0.05590
 2040.75000   34.73040   97.45140    8.96250   14.19720    2.59370    0.04660
 2040.80000   34.73310   98.83560    8.96280   13.74710    2.59440    0.03730
 2040.85000   34.73590  100.21990    8.96310   13.16540    2.59510    0.02830
 2040.90000   34.42620  101.60410    8.96340   12.43180    2.59570    0.02070
 2040.95000   33.26510  101.55210    8.96360   11.69810    2.59750    0.01450
 2041.00000   31.91410  100.77370    8.97320   11.09320    2.59950    0.01160
 2041.05000   30.37550   98.82160    8.99020   10.50400    2.60160    0.00870
 2041.10000   26.42620   88.02050    9.00720    9.81450    2.60270    0.00580
 2041.15000   25.26510   81.09950    9.02420    8.86400    2.60320    0.00460
 2041.20000   21.91780   72.42110    9.04130    8.41390    2.60370    0.00420
 2041.25000   21.33270   62.02820    9.05830    7.96380    2.60420    0.00370
 2041.30000   20.74760   61.05790    9.07530    7.38850    2.60470    0.00320
 2041.35000   15.41680   60.08750    9.09230    6.58060    2.60520    0.00270
 2041.40000   14.83170   47.04860    9.10930    5.77270    2.60560    0.00220
 2041.45000   14.24660   54.16540    9.12630    5.35910    2.60510    0.00170
 2041.50000   13.66150   43.86080    9.14330    5.04310    2.60460    0.00230
 2041.55000    9.93630   42.32220    9.16030    4.72720    2.60410    0.00340
 2041.60000    8.77520   41.19920    9.17730    4.41120    2.60360    0.00440
 2041.65000    4.28610   40.42080    9.19440    4.09530    2.60310    0.00540
 2041.70000    3.89560   39.64240    9.21140    3.87510    2.60260    0.00640
 2041.75000    3.50520   38.91050    9.22840    3.82230    2.60290    0.00740
 2041.80000    3.62080   39.31190    9.24540    3.76950    2.60360    0.00840
 2041.85000    4.42640   39.71320    9.26240    3.71670    2.60430    0.01080
 2041.90000    4.94220   40.11460    9.27940    3.66390    2.60490    0.01350
 2041.95000    5.34360   40.51600    9.29640    3.61110    2.60560    0.01630
 2042.00000    5.74500   40.91740    9.31340    3.55830    2.60920    0.01900
 2042.05000    6.14630   42.03900    9.33040    3.50550    2.61330    0.02170
 2042.10000    6.54770   43.25440    9.34750    3.45270    2.61740    0.02360
 2042.15000    7.10030   44.46980    9.36450    3.39990    2.62010    0.02510
 2042.20000    7.77050   45.48190    9.38150    3.39830    2.62210    0.02660
 2042.25000    8.44070   46.28750    9.39850    3.44890    2.62410    0.02810
 2042.30000    9.11090   47.09300    9.41550    3.49960    2.62620    0.02960
 2042.35000    9.78110   47.93270    9.43250    3.55030    2.62820    0.03110
 2042.40000   10.33530   49.14810    9.44950    3.60090    2.62750    0.03270
 2042.45000   10.73670   50.36350    9.46650    3.65160    2.62650    0.03510
 2042.50000   11.13810   51.57890    9.48350    3.70230    2.62550    0.03790
 2042.55000   11.53940   52.09020    9.50060    3.75290    2.62390    0.04060
 2042.60000   11.74180   52.29160    9.51760    3.80360    2.62200    0.04330
 2042.65000   11.94320   52.49300    9.53460    3.85420    2.62000    0.04600
 2042.70000   12.14450   52.54870    9.55160    3.93720    2.61660    0.05110
 2042.75000   12.45530   52.15820    9.56860    4.05510    2.61090    0.05730
 2042.80000   12.85670   51.76780    9.58560    4.17310    2.60860    0.05780
 2042.85000   13.25810   51.37730    9.60260    4.29110    2.60800    0.05830
 2042.90000   13.64840   50.98680    9.61960    4.40910    2.60730    0.05880
 2042.95000   13.94960   50.60440    9.63660    4.52710    2.60660    0.05930
 2043.00000   14.25080   50.60710    9.65370    4.64500    2.60600    0.05990
 2043.05000   14.55200   50.60990    9.67070    4.80670    2.60590    0.06040
 2043.10000   14.85320   50.61260    9.68770    5.09530    2.60590    0.06080
 2043.15000   15.15440   50.61530    9.70470    5.38400    2.60590    0.05930
 2043.20000   15.45560   50.61810    9.72170    5.61400    2.60590    0.05780
 2043.25000   15.60040   50.40260    9.73870    5.70270    2.60590    0.05630
 2043.30000   15.20990   50.14260    9.75570    5.79130    2.60460    0.05490
 2043.35000   14.81950   49.88260    9.77270    5.88000    2.60330    0.05340
 2043.40000   14.42900   49.62260    9.78970    5.96870    2.60200    0.05190
