~Version ---------------------------------------------------
VERS.   2.0 : CWLS log ASCII Standard -VERSION 2.0
WRAP.    NO : One line per depth step
DLM . SPACE : Column Data Section Delimiter
~Well ------------------------------------------------------
STRT.m 1786.00000 : START DEPTH
STOP.m 1840.00000 : STOP DEPTH
STEP.m    0.05000 : STEP
NULL.    -9999.25 : NULL VALUE
COMP.     Unknown : COMPANY
WELL.     Unknown : WELL
FLD .     Unknown : FIELD
LOC .             : LOCATION
PROV.             : PROVINCE
CNTY.             : COUNTY
STAT.             : STATE
CTRY.     Unknown : COUNTRY
SRVC.             : SERVICE COMPANY
DATE.     Unknown : DATE
UWI .     Unknown : UNIQUE WELL ID
API .             : API NUMBER
~Curve Information -----------------------------------------
DEPT      .m              : depths
GammaKT   .api            : digitalized and interpolated data
GammaTotal.api            : digitalized and interpolated data
Thorium   .parts-per-mil  : digitalized and interpolated data
Uranium   .parts-per-mil  : digitalized and interpolated data
Potassium .percent        : digitalized and interpolated data
~Params ----------------------------------------------------
~Other -----------------------------------------------------
~ASCII -----------------------------------------------------
# ...
 1804.00000   12.76880   81.43320   10.99300    9.31980    0.33610
 1804.05000   13.38340   83.31760   11.03470    9.53640    0.38680
 1804.10000   14.10370   85.05650   11.07650    9.77560    0.41610
 1804.15000   14.64580   87.17560   11.08440   10.02880    0.43290
 1804.20000   15.03380   88.64040   11.09020   10.26640    0.44970
 1804.25000   15.39590   91.73240   11.09590   10.44030    0.47340
 1804.30000   15.76670   93.83500   11.10160   10.60000    0.50130
 1804.35000   16.13950   95.92370   11.10310   10.75530    0.53170
 1804.40000   16.29980   96.99890   11.10180   10.86990    0.56250
 1804.45000   16.34940   97.81590   11.10050   11.02350    0.54430
 1804.50000   16.37030   98.77440   11.11450   11.03700    0.53680
 1804.55000   16.33770   99.46500   11.13260   11.01710    0.56630
 1804.60000   16.11590   99.40310   11.15070   11.11710    0.55010
 1804.65000   15.85490   99.05770   11.03960   11.11460    0.53390
 1804.70000   15.59390   99.09170   11.01700   11.05380    0.53370
 1804.75000   15.34470   97.51160   10.99740   10.98360    0.53570
 1804.80000   15.14320   95.99990   10.97770   10.82140    0.53760
 1804.85000   14.93200   94.83650   10.94810   10.66940    0.48920
 1804.90000   14.68960   93.52230   10.91850   10.43930    0.47790
 1804.95000   14.44720   91.17930   10.90370   10.32930    0.46670
 1805.00000   14.12300   88.45170   10.89220   10.06750    0.45540
 1805.05000   13.72340   86.15810   10.88360    9.75750    0.44420
 1805.10000   13.43670   84.52960   10.88690    9.46960    0.43150
 1805.15000   13.30390   82.45230   10.89020    9.05990    0.41680
 1805.20000   13.17110   79.89830   10.89320    8.89390    0.40210
 1805.25000   13.09180   78.44170   10.89610    8.73240    0.40230
 1805.30000   13.21100   77.70400   10.89890    8.69770    0.40680
 1805.35000   13.33010   77.17500   10.90850    8.66310    0.41130
 1805.40000   13.44920   77.17540   10.92580    8.63290    0.41410
 1805.45000   13.56830   77.27100   10.91820    8.64400    0.41500
 1805.50000   13.68740   77.36660   10.87560    8.65500    0.41590
 1805.55000   13.85400   77.60300   10.92590    8.69640    0.41680
 1805.60000   14.14430   78.20420   10.97620    8.75280    0.42160
 1805.65000   14.48600   78.80180   11.02650    8.82070    0.43670
 1805.70000   14.97210   80.10480   11.07650    8.88870    0.45180
 1805.75000   15.38510   81.08900   11.12120    8.97580    0.46650
 1805.80000   15.70820   81.57970   11.16580    9.05020    0.48040
 1805.85000   16.01820   82.36310   11.19340    9.00350    0.49430
 1805.90000   16.22270   82.42280   11.21850    8.95690    0.51140
 1805.95000   16.42720   82.31260   11.24350    8.90210    0.52940
 1806.00000   16.70060   82.20240   11.27410    8.83460    0.54830
 1806.05000   17.21660   82.61800   11.30560    8.90560    0.56940
 1806.10000   17.98610   83.57610   11.33720    8.95170    0.59030
 1806.15000   18.76330   85.06340   11.37060    8.98220    0.60690
 1806.20000   19.53730   86.80630   11.40410    8.99810    0.62350
 1806.25000   20.22950   88.86400   11.43950    9.27070    0.65190
 1806.30000   21.03890   90.92610   11.47680    9.45650    0.68360
 1806.35000   22.50850   92.87920   11.51420    9.63520    0.72110
 1806.40000   23.35360   95.65080   11.57550    9.86390    0.80300
 1806.45000   24.53660   98.99550   11.63880   10.15240    0.89890
 1806.50000   25.59880  102.04860   11.70120   10.33820    0.93180
 1806.55000   26.85160  105.13810   11.76060   10.49940    0.96480
 1806.60000   27.94730  107.91300   11.81990   10.69400    1.00230
 1806.65000   28.53120  109.66270   11.84910   10.76300    1.04060
 1806.70000   29.11500  111.32900   11.87750   10.83210    1.07900
 1806.75000   29.57380  112.41150   11.90310   10.84430    1.10280
 1806.80000   29.94260  113.06950   11.92140   10.84010    1.12170
 1806.85000   30.18160  113.59230   11.93980   10.83600    1.14050
 1806.90000   30.31870  113.57890   11.95810   10.81090    1.15930
 1806.95000   30.45580  113.22120   11.97640   10.73900    1.16530
 1807.00000   30.35190  112.69700   11.98770   10.54560    1.16510
 1807.05000   30.22110  111.78780   11.99840   10.41420    1.16170
 1807.10000   30.07860  109.37050   11.98670   10.30270    1.14290
 1807.15000   29.81520  108.15810   11.96030   10.20160    1.12320
 1807.20000   29.55180  106.65370   11.93400   10.04210    1.09580
 1807.25000   28.90320  104.99280   11.90610    9.81240    1.06840
 1807.30000   28.11510  102.16320   11.86480    9.65450    1.04100
 1807.35000   27.06960  100.03110   11.82340    9.32270    1.00370
 1807.40000   25.95660   95.39540   11.77670    9.07890    0.94640
 1807.45000   24.77520   92.49790   11.72440    8.68270    0.88960
 1807.50000   23.74970   89.78890   11.67360    8.34900    0.83810
 1807.55000   22.81730   86.93700   11.63050    8.05240    0.78800
 1807.60000   21.78340   81.50990   11.58750    7.74900    0.73900
 1807.65000   20.71460   75.86830   11.52750    7.42020    0.70060
 1807.70000   19.74020   72.72360   11.46590    7.00680    0.66450
 1807.75000   19.00180   68.59560   11.36810    6.64780    0.62830
 1807.80000   18.39350   64.70000   11.32070    6.36760    0.60780
 1807.85000   18.07090   62.83620   11.31830    6.16290    0.59600
 1807.90000   17.75930   61.32250   11.31600    5.97700    0.58430
 1807.95000   17.48180   60.14100   11.31360    5.85790    0.57250
 1808.00000   17.35650   59.12030   11.31120    5.73890    0.56070
 1808.05000   17.23130   58.07830   11.30890    5.61980    0.54890
 1808.10000   17.10610   57.20610   11.29990    5.54160    0.53700
 1808.15000   16.98090   56.57410   11.28930    5.46840    0.52500
 1808.20000   16.85160   56.03260   11.27860    5.40980    0.51290
 1808.25000   16.66730   55.49970   11.26800    5.35550    0.50250
 1808.30000   16.49650   54.97790   11.25770    5.29930    0.49610
 1808.35000   16.38980   54.46110   11.24760    5.24110    0.48960
 1808.40000   16.28310   53.94620   11.23750    5.18710    0.48310
 1808.45000   16.17630   53.55890   11.22740    5.17050    0.48240
 1808.50000   16.10410   53.20880   11.21250    5.15400    0.48520
 1808.55000   16.04610   53.15790   11.19720    5.14560    0.48800
 1808.60000   15.98810   53.39490   11.18220    5.15330    0.49680
 1808.65000   15.93010   53.63190   11.17680    5.17040    0.50560
 1808.70000   16.03210   54.01690   11.17150    5.22090    0.51430
 1808.75000   16.13420   54.44200   11.16610    5.27650    0.52000
 1808.80000   16.19210   54.76510   11.16080    5.33480    0.52560
 1808.85000   16.22470   55.03900   11.15550    5.39100    0.53120
 1808.90000   16.25740   55.61860   11.15010    5.44550    0.53530
 1808.95000   16.29000   55.97420   11.11380    5.48870    0.53850
 1809.00000   16.32270   56.11690   11.07480    5.49030    0.54170
 1809.05000   16.35540   56.28310   11.03580    5.49180    0.54490
 1809.10000   16.38800   56.51680   10.99690    5.49330    0.54880
 1809.15000   16.40580   56.59860   11.08530    5.48400    0.55300
 1809.20000   16.38720   56.52340   11.08040    5.47400    0.55720
 1809.25000   16.36850   56.44810   11.07550    5.46400    0.56140
 1809.30000   16.39550   56.55120   11.07070    5.47740    0.56990
 1809.35000   16.58310   56.78580   11.07830    5.50940    0.58050
 1809.40000   16.77080   57.21590   11.10420    5.55540    0.59110
 1809.45000   16.94920   58.18670   11.13010    5.62740    0.59820
 1809.50000   17.11930   58.77530   11.14390    5.69940    0.60430
 1809.55000   17.28250   59.44800   11.15640    5.78280    0.61050
 1809.60000   17.33920   60.14220   11.16890    5.86820    0.61580
 1809.65000   17.39600   60.74480   11.18140    5.92890    0.61560
 1809.70000   17.45270   61.06200   11.19390    5.97630    0.61540
 1809.75000   17.50950   61.37910   11.20400    6.02370    0.61530
 1809.80000   17.56630   61.47950   11.21390    6.05820    0.61230
 1809.85000   17.62300   61.55610   11.22380    6.06760    0.60570
 1809.90000   17.67980   61.63270   11.23820    6.07700    0.59900
 1809.95000   17.70730   61.71580   11.25500    6.08650    0.59240
