~Version ---------------------------------------------------
VERS.   2.0 : CWLS log ASCII Standard -VERSION 2.0
WRAP.    NO : One line per depth step
DLM . SPACE : Column Data Section Delimiter
~Well ------------------------------------------------------
STRT.m 1786.00000 : START DEPTH
STOP.m 1840.00000 : STOP DEPTH
STEP.m    0.05000 : STEP
NULL.    -9999.25 : NULL VALUE
COMP.     Unknown : COMPANY
WELL.     Unknown : WELL
FLD .     Unknown : FIELD
LOC .             : LOCATION
PROV.             : PROVINCE
CNTY.             : COUNTY
STAT.             : STATE
CTRY.     Unknown : COUNTRY
SRVC.             : SERVICE COMPANY
DATE.     Unknown : DATE
UWI .     Unknown : UNIQUE WELL ID
API .             : API NUMBER
~Curve Information -----------------------------------------
DEPT      .m              : depths
GammaKT   .api            : digitalized and interpolated data
GammaTotal.api            : digitalized and interpolated data
Thorium   .parts-per-mil  : digitalized and interpolated data
Uranium   .parts-per-mil  : digitalized and interpolated data
Potassium .percent        : digitalized and interpolated data
~Params ----------------------------------------------------
~Other -----------------------------------------------------
~ASCII -----------------------------------------------------
# ...
 1822.00000   36.42410   55.91960   12.48910    2.86090    1.41620
 1822.05000   37.07030   56.39680   12.53000    2.88080    1.42750
 1822.10000   37.41630   56.69420   12.52270    2.89970    1.43390
 1822.15000   37.62150   57.03120   12.51540    2.91920    1.43790
 1822.20000   37.78770   57.41780   12.50810    2.94070    1.44190
 1822.25000   37.79530   57.25100   12.49330    2.96210    1.46450
 1822.30000   37.80300   56.92290   12.45610    2.97700    1.49900
 1822.35000   37.72130   56.68130   12.41880    2.97530    1.50220
 1822.40000   37.49120   56.35680   12.37460    2.97350    1.49520
 1822.45000   37.26110   55.57270   12.32900    2.96770    1.48810
 1822.50000   37.03090   55.04500   12.27890    2.95010    1.48100
 1822.55000   36.80080   54.52780   12.16910    2.93260    1.47850
 1822.60000   36.37850   53.91400   12.15130    2.91200    1.47970
 1822.65000   35.86560   53.52620   12.13350    2.88630    1.48090
 1822.70000   35.62070   53.32930   12.11570    2.86070    1.48210
 1822.75000   35.37580   53.13240   12.10160    2.85030    1.46360
 1822.80000   35.13090   52.95530   12.08990    2.84370    1.43900
 1822.85000   35.11500   52.91430   12.07830    2.84110    1.44620
 1822.90000   35.11820   52.87340   12.07210    2.84150    1.45340
 1822.95000   35.12150   52.83250   12.06600    2.83700    1.46370
 1823.00000   35.12470   52.79150   12.06390    2.81570    1.48660
 1823.05000   35.12800   52.47320   12.06430    2.79440    1.50340
 1823.10000   35.13800   52.13660   12.01580    2.76880    1.49490
 1823.15000   35.14880   51.69660   11.95860    2.73500    1.48630
 1823.20000   35.15960   51.18890   12.02270    2.70120    1.47700
 1823.25000   35.15960   50.37710   12.00260    2.65740    1.46750
 1823.30000   35.15630   49.66040   11.95950    2.58770    1.45790
 1823.35000   34.55340   49.05360   11.92330    2.51800    1.44830
 1823.40000   34.21160   48.58580   11.91100    2.45860    1.44000
 1823.45000   33.86970   48.18030   11.89870    2.39940    1.43400
 1823.50000   33.64610   47.86550   11.88640    2.35450    1.42800
 1823.55000   33.60070   47.60280   11.88700    2.31770    1.42190
 1823.60000   33.55530   47.55800   11.89930    2.28300    1.42100
 1823.65000   33.50990   47.51320   11.91160    2.25170    1.42770
 1823.70000   33.50060   47.46840   11.91840    2.22040    1.43320
 1823.75000   33.50750   47.46420   11.92320    2.19810    1.43220
 1823.80000   33.56620   47.52170   11.92800    2.18150    1.43120
 1823.85000   33.87570   47.57920   11.95940    2.16480    1.43090
 1823.90000   34.21330   47.63670   12.00040    2.15180    1.43660
 1823.95000   34.55990   48.48870   12.04130    2.14930    1.44230
 1824.00000   34.90650   48.62140   12.08200    2.14690    1.44800
 1824.05000   35.30400   49.55070   12.12250    2.14450    1.45880
 1824.10000   35.90550   50.25880   12.14960    2.16290    1.47800
 1824.15000   36.59030   51.47100   12.17680    2.18830    1.50280
 1824.20000   37.31200   52.73400   12.20400    2.21370    1.53160
 1824.25000   38.01380   53.83500   12.23150    2.24320    1.56040
 1824.30000   38.60240   54.48660   12.25900    2.27560    1.58390
 1824.35000   39.27940   54.97480   12.28640    2.30770    1.59860
 1824.40000   39.58810   55.20370   12.31390    2.33420    1.61340
 1824.45000   39.56590   55.40730   12.34140    2.36060    1.62820
 1824.50000   39.54370   55.61080   12.35010    2.38710    1.63580
 1824.55000   39.52140   55.96050   12.34200    2.38340    1.63910
 1824.60000   39.43400   55.43320   12.33390    2.37850    1.64230
 1824.65000   39.26700   54.77180   12.32280    2.37360    1.63650
 1824.70000   38.90030   54.01050   12.27760    2.35640    1.62930
 1824.75000   38.31550   53.18270   12.23240    2.31940    1.60940
 1824.80000   37.94290   52.37270   12.20340    2.28230    1.58810
 1824.85000   37.59650   52.05050   12.17680    2.24550    1.56680
 1824.90000   37.28410   51.72830   12.16460    2.20890    1.55400
 1824.95000   37.05990   51.37740   12.16390    2.17230    1.55700
 1825.00000   36.83570   51.00780   12.16330    2.15900    1.56000
 1825.05000   36.95310   50.87500   12.14500    2.14720    1.55640
 1825.10000   37.15140   51.46220   12.12610    2.13550    1.55210
 1825.15000   37.34960   52.18440   12.15130    2.13700    1.60580
 1825.20000   37.54780   52.77060   12.17650    2.13950    1.63050
 1825.25000   38.29230   55.87950   12.28330    2.21650    1.65510
 1825.30000   40.33550   58.59830   12.40170    2.34540    1.70680
 1825.35000   41.88340   60.23990   12.49580    2.46940    1.78280
 1825.40000   43.51710   63.89590   12.57920    2.60110    1.84820
 1825.45000   45.60220   65.90960   12.64960    2.72850    1.91380
 1825.50000   47.10580   68.42160   12.72000    2.85550    2.00430
 1825.55000   48.68600   71.04780   12.73050    2.98710    2.06340
 1825.60000   49.72850   72.53200   12.89190    3.10590    2.11900
 1825.65000   50.01080   73.66940   12.84980    3.21600    2.15630
 1825.70000   50.50040   74.45740   12.80770    3.29860    2.18440
 1825.75000   51.12840   75.02230   12.81250    3.37620    2.21260
 1825.80000   51.16050   74.73120   12.88130    3.39460    2.16410
 1825.85000   51.19270   74.22590   12.95010    3.41300    2.12560
 1825.90000   50.47360   73.24680   12.93500    3.43140    2.11250
 1825.95000   50.04030   72.11310   12.90180    3.43640    2.10260
 1826.00000   49.58270   71.10340   12.86390    3.39960    2.08120
 1826.05000   48.34730   70.22900   12.82260    3.36280    2.04810
 1826.10000   47.70190   69.45760   12.78130    3.32600    2.01500
 1826.15000   47.05210   68.64740   12.75450    3.29070    1.98180
 1826.20000   46.38730   67.56290   12.73290    3.25570    1.95260
 1826.25000   45.75150   66.50360   12.71130    3.22070    1.92340
 1826.30000   45.13960   65.63300   12.68740    3.18180    1.89420
 1826.35000   44.54660   64.94090   12.66190    3.14090    1.86930
 1826.40000   44.10430   64.43260   12.64510    3.10000    1.85670
 1826.45000   43.68310   64.25300   12.63940    3.08360    1.84420
 1826.50000   43.62430   64.24450   12.63380    3.08390    1.83170
 1826.55000   43.59620   64.23590   12.62810    3.08430    1.82500
 1826.60000   43.56810   64.21980   12.62240    3.08460    1.82410
 1826.65000   43.54010   64.16410   12.61830    3.08500    1.82320
 1826.70000   43.51200   64.10840   12.61870    3.08530    1.82230
 1826.75000   43.48390   64.05280   12.61900    3.08560    1.82210
 1826.80000   43.46690   63.98240   12.60900    3.08600    1.82350
 1826.85000   43.47100   63.90950   12.59720    3.08630    1.82480
 1826.90000   43.47520   63.83660   12.58540    3.08670    1.82620
 1826.95000   43.36490   63.56610   12.57060    3.08700    1.82750
 1827.00000   43.08200   63.20620   12.55530    3.08730    1.82880
 1827.05000   42.87390   62.84550   12.52440    3.08770    1.82490
 1827.10000   42.74440   62.47850   12.48300    3.08380    1.82020
 1827.15000   42.61490   62.10680   12.44140    3.06770    1.81550
 1827.20000   42.45220   61.56650   12.39900    3.05160    1.81080
 1827.25000   42.14620   60.98720   12.35770    3.02750    1.80390
 1827.30000   41.84030   60.16220   12.31670    2.99210    1.79250
 1827.35000   41.42760   59.20000   12.27580    2.95430    1.78120
 1827.40000   41.01040   58.42120   12.23480    2.86960    1.76990
 1827.45000   40.58000   57.53170   12.20480    2.79070    1.75630
 1827.50000   40.04150   56.79620   12.18200    2.75820    1.73320
 1827.55000   39.56570   55.83160   12.15920    2.72570    1.71000
 1827.60000   39.00910   54.81320   12.13590    2.67050    1.68780
 1827.65000   38.25390   53.70560   12.11250    2.60420    1.66740
 1827.70000   37.66420   52.66370   12.08840    2.55660    1.64030
 1827.75000   36.94610   51.76210   12.06250    2.51730    1.59060
 1827.80000   36.12810   51.17420   12.03650    2.47940    1.54660
 1827.85000   35.55720   50.52000   12.00460    2.44830    1.52550
 1827.90000   34.98630   49.74650   11.97250    2.41720    1.50430
 1827.95000   34.45560   49.35250   11.94720    2.39820    1.48030
