~Version ---------------------------------------------------
VERS.   2.0 : CWLS log ASCII Standard -VERSION 2.0
WRAP.    NO : One line per depth step
DLM . SPACE : Column Data Section Delimiter
~Well ------------------------------------------------------
STRT.m 1682.00000 : START DEPTH
STOP.m 1742.00000 : STOP DEPTH
STEP.m    0.05000 : STEP
NULL.    -9999.25 : NULL VALUE
COMP.     Unknown : COMPANY
WELL.     Unknown : WELL
FLD .     Unknown : FIELD
LOC .             : LOCATION
PROV.             : PROVINCE
CNTY.             : COUNTY
STAT.             : STATE
CTRY.     Unknown : COUNTRY
SRVC.             : SERVICE COMPANY
DATE.     Unknown : DATE
UWI .     Unknown : UNIQUE WELL ID
API .             : API NUMBER
~Curve Information -----------------------------------------
DEPT    .m           : depths
Gamma   .api         : digitalized and interpolated data
SP      .millivolts  : digitalized and interpolated data
Caliper .inches      : digitalized and interpolated data
Bit Size.inches      : digitalized and interpolated data
Tens    .pounds      : digitalized and interpolated data
MSFL    .Ohm-m       : digitalized and interpolated data
LLD     .Ohm-m       : digitalized and interpolated data
LLS     .Ohm-m       : digitalized and interpolated data
~Params ----------------------------------------------------
~Other -----------------------------------------------------
~ASCII -----------------------------------------------------
# ...
 1706.00000   12.76440   21.54540    5.68600    5.94180 3276.98440   61.04071  108.82543  109.60142
 1706.05000   12.88460   21.43810    5.69860    5.95210 3286.43260   62.60687  110.07340  111.26916
 1706.10000   13.49260   21.30590    5.64660    5.91770 3290.86450   64.21191  113.61639  113.12646
 1706.15000   14.17220   21.16490    5.66510    5.95420 3291.50960   66.75162  114.30131  118.79660
 1706.20000   14.54660   21.02390    5.68360    5.92740 3292.15480   71.68739  114.99035  120.07439
 1706.25000   14.92080   20.87560    5.69030    5.92540 3302.92190   80.49313  118.88411  122.16837
 1706.30000   15.27250   20.72620    5.66640    5.95920 3323.70360   85.69056  123.87064  125.10020
 1706.35000   15.62420   20.57680    5.64240    5.90350 3337.28990   90.52651  126.00750  127.82647
 1706.40000   16.00720   20.42740    5.69820    5.93240 3333.56160   94.29433  121.44023  130.40439
 1706.45000   16.41380   20.27770    5.69940    5.96130 3329.83320   96.87979  133.49500  132.79453
 1706.50000   16.89140   20.12750    5.70060    5.91460 3326.10490   98.85331  137.43388  134.77291
 1706.55000   17.58790   19.97730    5.67310    5.89360 3322.83590   98.86136  139.41156  136.78176
 1706.60000   18.24000   19.82710    5.63130    5.87710 3319.61610   98.86942  141.36451  138.87203
 1706.65000   18.56800   19.80470    5.66270    5.96630 3316.39640   89.32080  142.11633  140.47990
 1706.70000   18.14750   19.86980    5.68170    5.93780 3313.43420   84.30932  142.87209  139.85313
 1706.75000   17.91920   19.93490    5.68190    5.90930 3314.07940   77.72186  143.63193  139.22909
 1706.80000   17.69080   20.00000    5.68210    5.93370 3314.72460   72.48204  144.39574  138.60784
 1706.85000   17.44160   20.04120    5.64360    5.94760 3319.41810   68.75233  145.16369  137.76205
 1706.90000   17.06340   20.06380    5.66170    5.93230 3330.44780   65.70984  144.65558  136.82763
 1706.95000   16.68510   20.08630    5.67980    5.94110 3341.47750   64.51481  142.87262  135.89948
 1707.00000   16.38010   20.10880    5.64870    5.95000 3355.02770   63.47674  142.21048  134.97489
 1707.05000   16.09090   20.02770    5.63250    5.95880 3370.77660   62.81613  141.75637  134.00191
 1707.10000   15.81020   19.85840    5.62970    5.96770 3386.52540   63.92642  141.30372  133.03594
 1707.15000   15.56180   19.68920    5.62700    5.91580 3395.75700   65.13554  140.25333  132.10486
 1707.20000   15.31330   19.51990    5.62430    5.94330 3400.43870   68.25625  137.82919  131.90893
 1707.25000   14.98550   19.35070    5.62410    5.96970 3385.80190   70.26108  136.21671  131.28533
 1707.30000   14.55690   19.12160    5.62430    5.91330 3364.79990   74.35041  135.49566  130.30161
 1707.35000   14.12650   18.62190    5.62510    5.94830 3345.01310   78.55308  134.77843  129.32521
 1707.40000   13.64620   18.12230    5.62820    5.94200 3339.05980   82.34545  133.65955  128.30051
 1707.45000   13.16590   18.13960    5.63120    5.89070 3333.10650   84.93842  132.44806  126.94535
 1707.50000   12.66230   18.27540    5.63310    5.89720 3327.15320   84.02904  131.24749  125.60450
 1707.55000   12.15580   16.95010    5.63110    5.92820 3329.38950   82.47874  130.05786  124.27781
 1707.60000   11.63290   17.02300    5.62920    5.95150 3340.31220   81.36900  128.87895  123.56646
 1707.65000   11.10730   17.09580    5.62720    5.91760 3348.30060   80.27416  127.67327  122.92958
 1707.70000   10.66730   17.16870    5.62540    5.93700 3353.99870   79.19409  126.39852  122.29593
 1707.75000   10.23780   17.24160    5.62420    5.95100 3359.69680   78.51181  125.13656  120.30354
 1707.80000    9.84930   17.52430    5.62290    5.90870 3368.73190   77.89913  123.82536  121.44750
 1707.85000    9.53750   17.82040    5.62160    5.95180 3382.16380   77.29119  122.10313  118.88723
 1707.90000    9.22570   18.11660    5.62030    5.92210 3395.59580   76.68803  120.40491  116.47470
 1707.95000    9.06920   18.39340    5.61910    5.90140 3403.70260   74.16770  118.70008  115.80892
 1708.00000    9.18430   18.65680    5.61940    5.90230 3404.34770   73.17427  116.98560  115.14699
 1708.05000    9.29950   18.92020    5.62180    5.90330 3404.99290   72.90891  115.29583  114.42813
 1708.10000    9.41470   19.18370    5.62430    5.97180 3387.42110   72.64451  113.74031  113.47981
 1708.15000    9.96950   19.68880    5.62680    5.94230 3363.43700   71.60798  112.21667  112.53930
 1708.20000   10.48860   20.31850    5.62870    5.91090 3377.84170   69.35309  110.00135  112.20970
 1708.25000   10.89830   20.86860    5.63040    5.95610 3394.98030   67.70984  107.30694  112.54189
 1708.30000   11.30800   21.33390    5.63210    5.93800 3393.00800   66.86505  106.34684  110.34163
 1708.35000   11.75480   21.79910    5.63380    5.91070 3388.39570   67.13862  105.72342  106.06307
 1708.40000   12.21150   22.38190    5.64140    5.97050 3383.78340   67.41330  105.10360  103.51040
 1708.45000   12.50650   23.13330    5.65200    5.97050 3380.49850   67.68914  104.05233  102.22619
 1708.50000   12.65970   23.91760    5.66250    5.97050 3381.14360   65.04300  101.97112  100.39147
 1708.55000   12.84240   24.97930    5.67300    5.90820 3381.78880   63.22470   99.94825  101.39118
 1708.60000   13.06920   25.82090    5.68030    5.91380 3385.50320   60.03822   98.13737   97.78355
 1708.65000   12.97090   26.48020    5.68530    5.91940 3391.47990   57.78948   96.35925   97.01105
 1708.70000   12.72200   27.13960    5.69040    5.92500 3397.45660   55.91558   94.33560   94.45723
 1708.75000   12.42320   27.79900    5.69550    5.97680 3395.93700   53.99110   92.18359   90.34439
 1708.80000   12.03540   28.36250    5.72340    5.97360 3392.47860   50.91712   89.81548   88.16654
 1708.85000   11.64760   28.79890    5.76320    5.96910 3389.02030   49.32045   87.41195   88.36519
 1708.90000   11.43110   29.29390    5.72670    5.92810 3387.34940   48.64498   85.07274   85.02307
 1708.95000   11.23360   30.45170    5.75970    5.91350 3393.76310   47.97874   84.02935   83.08239
 1709.00000   11.03610   30.51960    5.74540    5.92150 3400.17670   47.70976   83.16489   81.64590
 1709.05000   11.02760   30.58760    5.71390    5.92940 3406.59040   47.80397   82.27218   84.75095
 1709.10000   11.30280   32.06310    5.72230    5.93740 3408.15760   47.89838   80.27221   84.37877
 1709.15000   11.53510   31.92700    5.73080    5.94050 3399.67480   47.99297   78.07698   82.82633
 1709.20000   11.62510   31.79080    5.73650    5.93910 3391.19190   48.87289   75.53186   78.74602
 1709.25000   11.71500   31.65470    5.73720    5.93770 3382.70910   48.51929   75.53798   78.74602
 1709.30000   11.76940   31.68790    5.73790    5.93650 3375.09640   47.41743   72.70987   78.74602
 1709.35000   11.75440   31.78850    5.74560    5.93650 3369.90640   46.65577   73.00029   76.34525
 1709.40000   11.73950   31.88910    5.76270    5.93650 3364.71630   45.96887   73.29187   76.44674
 1709.45000   10.88350   31.98960    5.77970    5.93650 3359.52630   45.29122   70.93419   76.54841
 1709.50000   10.53080   32.09020    5.72220    5.93650 3358.44750   44.57108   70.55984   75.85108
 1709.55000   10.17810   31.91250    5.72720    5.93650 3373.97090   43.86240   70.18744   74.58862
 1709.60000    9.90670   31.38390    5.73230    5.93650 3389.49440   43.48661   69.82031   75.09863
 1709.65000    9.67260   31.19380    5.73730    5.93650 3395.98230   44.02304   69.50819   75.61212
 1709.70000    9.43850   31.06670    5.74210    5.93680 3396.62750   44.56610   69.19750   75.64862
 1709.75000    9.38900   30.94980    5.74600    5.93900 3394.10660   45.19103   68.88842   74.34613
 1709.80000    9.45350   30.86500    5.75000    5.94120 3386.34530   46.17782   68.84950   75.15118
 1709.85000    9.51800   30.78020    5.75290    5.92870 3378.72170   47.24525   68.81061   75.96490
 1709.90000    9.58240   30.66720    5.75310    5.91270 3376.51180   48.63673   68.77389   76.78748
 1709.95000    9.66630   30.45240    5.75330    5.89680 3374.30190   51.10580   69.22714   74.86761
