~Version ---------------------------------------------------
VERS.   2.0 : CWLS log ASCII Standard -VERSION 2.0
WRAP.    NO : One line per depth step
DLM . SPACE : Column Data Section Delimiter
~Well ------------------------------------------------------
STRT.m 1682.00000 : START DEPTH
STOP.m 1742.00000 : STOP DEPTH
STEP.m    0.05000 : STEP
NULL.    -9999.25 : NULL VALUE
COMP.     Unknown : COMPANY
WELL.     Unknown : WELL
FLD .     Unknown : FIELD
LOC .             : LOCATION
PROV.             : PROVINCE
CNTY.             : COUNTY
STAT.             : STATE
CTRY.     Unknown : COUNTRY
SRVC.             : SERVICE COMPANY
DATE.     Unknown : DATE
UWI .     Unknown : UNIQUE WELL ID
API .             : API NUMBER
~Curve Information -----------------------------------------
DEPT            .m            : depths
Bit Size        .inches       : digitalized and interpolated data
Caliper         .inches       : digitalized and interpolated data
GammaKUT        .api          : digitalized and interpolated data
GammaKT         .api          : digitalized and interpolated data
Density         .gram per cc  : digitalized and interpolated data
Neutron Porosity.pu           : digitalized and interpolated data
Pe              .unknown      : digitalized and interpolated data
DensityCorr     .gm per cc    : digitalized and interpolated data
Tension         .pounds       : digitalized and interpolated data
~Params ----------------------------------------------------
~Other -----------------------------------------------------
~ASCII -----------------------------------------------------
# ...
 1711.20000    6.00000    6.01180   16.91010    5.52000    2.59040   14.06600    3.36520    0.05760 2887.88840
 1711.25000    6.00000    6.01410   17.08860    5.41810    2.59330   13.99910    3.35160    0.05790 2878.61410
 1711.30000    6.00000    6.01640   17.26710    5.31610    2.59720   13.93220    3.34890    0.05820 2869.33990
 1711.35000    6.00000    6.01870   17.44550    5.21410    2.60190   13.80030    3.35280    0.05850 2860.06560
 1711.40000    6.00000    6.02100   17.64460    5.11210    2.60720   13.60930    3.35670    0.05880 2850.79140
 1711.45000    6.00000    6.02330   17.86260    4.94320    2.61400   13.41830    3.36060    0.05910 2841.51710
 1711.50000    6.00000    6.02550   18.08060    4.76360    2.62530   13.22730    3.36460    0.05940 2832.24280
 1711.55000    6.00000    6.01710   18.29860    4.58400    2.63650   13.09010    3.36850    0.05980 2822.96860
 1711.60000    6.00000    6.00810   18.51660    4.40440    2.64290   12.95580    3.37240    0.06010 2813.69430
 1711.65000    6.00000    5.99910   18.73450    4.22480    2.64940   12.82150    3.37640    0.06040 2804.42000
 1711.70000    6.00000    5.99020   19.32210    4.04520    2.65730   12.68720    3.38050    0.06070 2795.14580
 1711.75000    6.00000    5.98120   19.95130    3.86560    2.65640   12.58210    3.41260    0.06100 2785.87150
 1711.80000    6.00000    5.97230   20.06290    3.68600    2.64400   12.48100    3.44480    0.06130 2776.59730
 1711.85000    6.00000    5.96330   19.92230    3.55170    2.63790   12.37990    3.47690    0.06160 2767.32300
 1711.90000    6.00000    5.95720   19.78170    3.89160    2.63010   12.41940    3.50900    0.06090 2758.04870
 1711.95000    6.00000    5.95150   19.64110    4.23150    2.62030   12.46320    3.53720    0.06010 2748.77450
 1712.00000    6.00000    5.94590   19.50050    4.57150    2.61410   12.50710    3.56200    0.05940 2739.50020
 1712.05000    6.00000    5.94020   19.33380    4.91140    2.60620   12.55090    3.58680    0.05860 2730.22590
 1712.10000    6.00000    5.93460   19.15530    5.12560    2.60200   12.59920    3.61170    0.05780 2720.95170
 1712.15000    6.00000    5.92890   18.97680    5.33540    2.60230   12.66770    3.63650    0.05700 2713.54270
 1712.20000    6.00000    5.92320   18.79840    5.54520    2.60260   12.73630    3.65000    0.05630 2708.14890
 1712.25000    6.00000    5.91760   18.61990    5.75510    2.60290   12.80490    3.65010    0.05550 2702.75500
 1712.30000    6.00000    5.91450   18.49370    5.96490    2.60320   12.87350    3.65030    0.05490 2697.36120
 1712.35000    6.00000    5.91140   18.38190    6.13300    2.60350   12.94200    3.65050    0.05440 2691.96740
 1712.40000    6.00000    5.90830   18.27010    6.00670    2.60340   13.01060    3.65070    0.05390 2686.57350
 1712.45000    6.00000    5.90510   18.15830    5.88050    2.60300   13.07920    3.65090    0.05340 2681.17970
 1712.50000    6.00000    5.90200   18.04650    5.75420    2.60260   13.14770    3.65110    0.05290 2675.78580
 1712.55000    6.00000    5.89890   17.93470    5.62800    2.60210   13.20520    3.65130    0.05240 2670.39200
 1712.60000    6.00000    5.89580   17.85480    5.50170    2.60170   13.25530    3.65150    0.05190 2664.99820
 1712.65000    6.00000    5.89260   17.80440    5.34720    2.60130   13.30530    3.65170    0.05140 2659.60430
 1712.70000    6.00000    5.89010   17.75390    5.17190    2.60110   13.35540    3.64740    0.05090 2654.21050
 1712.75000    6.00000    5.88750   17.70350    4.99670    2.60120   13.40540    3.63230    0.05090 2648.81670
 1712.80000    6.00000    5.88500   17.65310    4.82140    2.60120   13.45540    3.61730    0.05170 2644.98510
 1712.85000    6.00000    5.88250   17.60260    4.64620    2.60130   13.50550    3.60220    0.05240 2649.05770
 1712.90000    6.00000    5.87990   17.55220    4.47090    2.60130   13.55550    3.58720    0.05320 2653.13030
 1712.95000    6.00000    5.87740   17.39820    4.29560    2.60140   13.60560    3.56480    0.05400 2657.20290
 1713.00000    6.00000    5.87580   17.16780    4.12040    2.60150   13.59080    3.53780    0.05480 2661.27540
 1713.05000    6.00000    5.87870   16.93740    4.23370    2.60150   13.57320    3.51080    0.05560 2665.34800
 1713.10000    6.00000    5.88160   16.70710    4.55330    2.60160   13.55570    3.48370    0.05640 2669.42060
 1713.15000    6.00000    5.88450   16.47670    4.87290    2.60160   13.53810    3.45670    0.05730 2673.49320
 1713.20000    6.00000    5.88740   16.21690    5.19240    2.60380   13.52060    3.43190    0.05820 2677.56580
 1713.25000    6.00000    5.89030   15.87060    5.51200    2.60720   13.50300    3.41100    0.05910 2681.63830
 1713.30000    6.00000    5.89220   15.52430    5.79840    2.61060   13.48550    3.39010    0.06000 2685.71090
 1713.35000    6.00000    5.88990   15.17810    5.79840    2.61600   13.33000    3.36920    0.05990 2689.78350
 1713.40000    6.00000    5.88760   14.83180    5.79840    2.62500   13.11300    3.34820    0.05880 2693.85610
 1713.45000    6.00000    5.88530   14.64690    5.79840    2.63670   12.89600    3.32730    0.05760 2697.92870
 1713.50000    6.00000    5.88310   14.53000    5.79840    2.64600   12.67600    3.30640    0.05650 2702.00120
 1713.55000    6.00000    5.88080   14.41320    5.79840    2.65640   12.44900    3.29670    0.05530 2706.07380
 1713.60000    6.00000    5.87850   14.29630    5.59600    2.66200   12.22210    3.31090    0.05420 2710.14640
 1713.65000    6.00000    5.87620   14.17950    5.29340    2.66670   12.03110    3.32520    0.05300 2714.21900
 1713.70000    6.00000    5.87740   14.06260    4.99080    2.66990   11.92680    3.33940    0.05190 2718.29160
 1713.75000    6.00000    5.88070   13.94580    4.62310    2.67310   11.82240    3.35370    0.05130 2722.36410
 1713.80000    6.00000    5.88410   13.82890    3.99040    2.67040   11.71810    3.36790    0.05090 2726.43670
 1713.85000    6.00000    5.88740   13.87260    3.35760    2.66690   11.75590    3.38220    0.05040 2730.46030
 1713.90000    6.00000    5.88980   14.10390    2.72490    2.66340   11.83650    3.38670    0.05000 2713.24440
 1713.95000    6.00000    5.88790   14.33520    2.39790    2.65790   11.91720    3.38290    0.04950 2696.02850
 1714.00000    6.00000    5.88590   14.56650    2.11430    2.65200   11.99790    3.37920    0.04910 2678.81260
 1714.05000    6.00000    5.88390   14.79780    1.83060    2.64400   12.07070    3.37550    0.04800 2661.59660
 1714.10000    6.00000    5.88190   15.01640    1.54690    2.63600   12.11410    3.37170    0.04650 2644.38070
 1714.15000    6.00000    5.88000   15.21480    1.26320    2.63110   12.15750    3.37710    0.04510 2644.31300
 1714.20000    6.00000    5.87800   15.41330    0.97950    2.62920   12.20090    3.38250    0.04360 2644.31300
 1714.25000    6.00000    5.87600   15.61180    0.94590    2.62730   12.24430    3.38790    0.04220 2644.31300
 1714.30000    6.00000    5.88700   15.81020    1.23220    2.62530   12.28770    3.38270    0.04080 2644.31300
 1714.35000    6.00000    5.90500   15.92910    1.51850    2.62340   12.33110    3.36960    0.03950 2644.31300
 1714.40000    6.00000    5.92290   15.83460    1.80480    2.62350   12.37450    3.35660    0.04060 2644.31300
 1714.45000    6.00000    5.94080   15.74000    2.09110    2.62620   12.35890    3.34350    0.04160 2644.31300
 1714.50000    6.00000    5.94230   15.64540    2.37740    2.62900   12.33990    3.33050    0.04260 2644.31300
 1714.55000    6.00000    5.93920   15.55080    2.66370    2.63170   12.32100    3.31740    0.04370 2644.31300
 1714.60000    6.00000    5.93620   15.45620    2.95000    2.63550   12.30200    3.30440    0.04470 2644.31300
 1714.65000    6.00000    5.93310   15.36170    3.50330    2.63960   12.28300    3.29130    0.04700 2644.31300
 1714.70000    6.00000    5.93000   15.38110    4.10850    2.64150   12.26410    3.28310    0.05120 2644.31300
 1714.75000    6.00000    5.92610   15.40320    4.71370    2.64040   12.24510    3.27520    0.05540 2644.31300
 1714.80000    6.00000    5.91540   15.42540    5.22410    2.63940   12.22610    3.26730    0.05740 2644.31300
