~Version ---------------------------------------------------
VERS.   2.0 : CWLS log ASCII Standard -VERSION 2.0
WRAP.    NO : One line per depth step
DLM . SPACE : Column Data Section Delimiter
~Well ------------------------------------------------------
STRT.m 1682.00000 : START DEPTH
STOP.m 1742.00000 : STOP DEPTH
STEP.m    0.05000 : STEP
NULL.    -9999.25 : NULL VALUE
COMP.     Unknown : COMPANY
WELL.     Unknown : WELL
FLD .     Unknown : FIELD
LOC .             : LOCATION
PROV.             : PROVINCE
CNTY.             : COUNTY
STAT.             : STATE
CTRY.     Unknown : COUNTRY
SRVC.             : SERVICE COMPANY
DATE.     Unknown : DATE
UWI .     Unknown : UNIQUE WELL ID
API .             : API NUMBER
~Curve Information -----------------------------------------
DEPT            .m            : depths
Bit Size        .inches       : digitalized and interpolated data
Caliper         .inches       : digitalized and interpolated data
GammaKUT        .api          : digitalized and interpolated data
GammaKT         .api          : digitalized and interpolated data
Density         .gram per cc  : digitalized and interpolated data
Neutron Porosity.pu           : digitalized and interpolated data
Pe              .unknown      : digitalized and interpolated data
DensityCorr     .gm per cc    : digitalized and interpolated data
Tension         .pounds       : digitalized and interpolated data
~Params ----------------------------------------------------
~Other -----------------------------------------------------
~ASCII -----------------------------------------------------
# ...
 1725.80000    6.00000    6.09840   18.06430    9.86480    2.63890   10.75380    3.53760    0.03880 2746.46010
 1725.85000    6.00000    6.09580   18.65000   10.96480    2.62760   11.31140    3.51770    0.03600 2743.33210
 1725.90000    6.00000    6.09390   19.23580   11.65740    2.61740   11.78300    3.49780    0.03460 2742.36940
 1725.95000    6.00000    6.09190   19.85570   11.83870    2.60810   12.08770    3.47790    0.03370 2743.03080
 1726.00000    6.00000    6.09000   21.84430   12.01990    2.60200   12.24630    3.45810    0.03290 2743.69220
 1726.05000    6.00000    6.08800   23.19140   12.20120    2.60010   12.40490    3.43820    0.03210 2744.35360
 1726.10000    6.00000    6.08610   25.07510   12.38240    2.59830   12.56340    3.41830    0.03120 2745.01500
 1726.15000    6.00000    6.08410   28.46430   12.56370    2.59640   12.51000    3.41600    0.03040 2745.67630
 1726.20000    6.00000    6.08160   30.93850   12.25270    2.59460   12.35260    3.43190    0.02950 2746.33770
 1726.25000    6.00000    6.07860   34.68790   11.67270    2.59320   12.19520    3.44780    0.02870 2746.99910
 1726.30000    6.00000    6.07570   37.56680   11.05990    2.59510   12.03780    3.46370    0.02780 2747.66050
 1726.35000    6.00000    6.07270   39.88370   10.41840    2.59700   11.36960    3.47950    0.02860 2748.32190
 1726.40000    6.00000    6.06980   41.59510    9.77700    2.59900   10.79730    3.49540    0.02960 2748.98320
 1726.45000    6.00000    6.06680   43.06180    9.28850    2.60090   10.19560    3.51130    0.03060 2749.64460
 1726.50000    6.00000    6.06610   43.98450    9.24120    2.60310    9.54230    3.52690    0.03160 2750.30600
 1726.55000    6.00000    6.06610   44.90730    9.19390    2.61560    9.15740    3.52300    0.03270 2750.96740
 1726.60000    6.00000    6.06610   44.73540    9.14660    2.62580    8.96010    3.51920    0.03370 2751.62880
 1726.65000    6.00000    6.06610   43.60740    9.09930    2.63640    8.76290    3.51530    0.03520 2752.29010
 1726.70000    6.00000    6.06610   42.65660    9.05200    2.64830    8.70480    3.51140    0.03770 2752.95150
 1726.75000    6.00000    6.06560   41.64060    9.00470    2.66630    8.84480    3.50760    0.04010 2751.80390
 1726.80000    6.00000    6.06470   40.31480    8.95740    2.66990    8.98480    3.50650    0.04260 2743.24710
 1726.85000    6.00000    6.06380   38.50870    8.61040    2.67360    9.12480    3.52020    0.04500 2734.69040
 1726.90000    6.00000    6.06280   34.50320    8.21180    2.67690    9.42700    3.53390    0.04770 2726.13360
 1726.95000    6.00000    6.06190   31.68940    7.81310    2.67770    9.81480    3.54760    0.05050 2717.57680
 1727.00000    6.00000    6.06100   29.63120    7.40310    2.67860   10.28790    3.56120    0.05340 2709.02000
 1727.05000    6.00000    6.06060   27.75070    6.94510    2.67940   10.92950    3.57690    0.05610 2700.46320
 1727.10000    6.00000    6.06140   26.04370    6.48720    2.68020   11.40900    3.59330    0.05670 2691.90650
 1727.15000    6.00000    6.06220   24.87430    6.02920    2.67770   11.79950    3.60960    0.05720 2683.34970
 1727.20000    6.00000    6.06300   24.40820    5.57130    2.67450   12.12000    3.62600    0.05770 2674.79290
 1727.25000    6.00000    6.06380   23.94200    5.11330    2.67100   12.44050    3.63240    0.05820 2666.23610
 1727.30000    6.00000    6.06460   23.47590    4.65540    2.66480   12.55660    3.61870    0.05870 2657.67940
 1727.35000    6.00000    6.06550   23.23880    4.39760    2.65980   12.64230    3.60500    0.05690 2649.12260
 1727.40000    6.00000    6.06590   23.62990    4.39760    2.65680   12.72800    3.59130    0.05490 2645.22600
 1727.45000    6.00000    6.06500   24.02110    4.39760    2.65380   12.81360    3.57650    0.05310 2647.31090
 1727.50000    6.00000    6.06400   24.41220    4.39760    2.65190   12.89930    3.56050    0.05170 2649.39570
 1727.55000    6.00000    6.06300   24.80330    4.39760    2.65400   12.96120    3.54450    0.05040 2651.48060
 1727.60000    6.00000    6.06210   25.28210    4.39760    2.65610   13.02220    3.52860    0.04910 2653.56550
 1727.65000    6.00000    6.06110   25.92950    4.60720    2.65830   13.08320    3.51260    0.04770 2655.65030
 1727.70000    6.00000    6.06010   26.57700    5.01660    2.66040   13.14420    3.49660    0.04640 2657.73520
 1727.75000    6.00000    6.05920   27.18590    5.42600    2.66090   13.20520    3.48110    0.04500 2659.82000
 1727.80000    6.00000    6.05820   27.43450    5.83540    2.66050   13.26620    3.46560    0.04370 2661.90490
 1727.85000    6.00000    6.05720   27.68300    6.24480    2.66010   13.32720    3.45010    0.04230 2663.98980
 1727.90000    6.00000    6.05630   27.93160    6.73590    2.65970   13.38830    3.43470    0.04100 2666.07460
 1727.95000    6.00000    6.05530   28.18020    7.36050    2.65790   13.44930    3.41920    0.04150 2668.15950
 1728.00000    6.00000    6.05420   27.97570    7.89360    2.65280   13.51830    3.40370    0.04240 2670.24440
 1728.05000    6.00000    6.05320   27.70350    8.29860    2.64940   13.59540    3.38990    0.04330 2672.32920
 1728.10000    6.00000    6.05210   27.43130    8.70370    2.64720   13.67260    3.38780    0.04420 2675.04140
 1728.15000    6.00000    6.05110   27.15910    9.10880    2.64500   13.74970    3.38560    0.04510 2678.07950
 1728.20000    6.00000    6.05000   26.88690    9.51390    2.64280   13.82690    3.38350    0.04600 2681.11760
 1728.25000    6.00000    6.04890   26.61470    9.31890    2.64060   13.90400    3.38130    0.04690 2684.15570
 1728.30000    6.00000    6.04490   26.34250    8.81730    2.64030   13.98120    3.37920    0.04780 2687.19380
 1728.35000    6.00000    6.04020   26.40100    8.31560    2.64010   14.01880    3.37700    0.04860 2690.23190
 1728.40000    6.00000    6.03550   26.54560    7.53830    2.63980   14.03850    3.37490    0.05100 2693.27000
 1728.45000    6.00000    6.03050   26.69010    6.71950    2.63950   14.05810    3.38080    0.05390 2696.30810
 1728.50000    6.00000    6.02320   26.83470    6.05930    2.63930   14.07770    3.39480    0.05680 2699.34620
 1728.55000    6.00000    6.01590   26.97920    5.76440    2.63720   14.09730    3.40880    0.05960 2702.38430
 1728.60000    6.00000    6.00860   27.12380    5.46950    2.63510   14.11690    3.42280    0.06250 2705.42240
 1728.65000    6.00000    6.00130   27.14090    5.17460    2.63290   14.13660    3.42560    0.06310 2708.46050
 1728.70000    6.00000    5.99240   27.11250    4.87970    2.63020   14.15620    3.42150    0.06350 2711.49860
 1728.75000    6.00000    5.98110   27.08410    4.58480    2.62750   14.25460    3.41750    0.06390 2714.53680
 1728.80000    6.00000    5.96970   27.05560    4.28990    2.62480   14.39460    3.41340    0.06430 2717.57490
 1728.85000    6.00000    5.95840   27.02720    3.99490    2.62130   14.53460    3.39720    0.06470 2720.61300
 1728.90000    6.00000    5.94700   26.99880    3.98880    2.61450   14.67460    3.36370    0.06520 2723.65110
 1728.95000    6.00000    5.93570   26.54550    4.18840    2.60690   14.82680    3.33020    0.06560 2726.68920
 1729.00000    6.00000    5.92450   25.78140    4.38800    2.59520   14.99010    3.29680    0.06600 2729.72730
 1729.05000    6.00000    5.91350   25.00620    4.58770    2.57950   15.15330    3.26330    0.06640 2726.33570
 1729.10000    6.00000    5.90260   24.04620    4.78730    2.56820   15.31660    3.23090    0.06690 2720.75120
 1729.15000    6.00000    5.89160   23.08620    4.94060    2.56230   15.41440    3.20710    0.06810 2715.16670
 1729.20000    6.00000    5.88070   22.09650    4.99580    2.55860   15.47930    3.18330    0.07050 2709.58210
 1729.25000    6.00000    5.86970   21.10220    5.05110    2.55730   15.54430    3.15940    0.07280 2703.99760
 1729.30000    6.00000    5.85880   20.15790    5.10630    2.55590   15.60920    3.13560    0.07520 2698.41310
 1729.35000    6.00000    5.84790   19.22990    5.16160    2.55450   15.67410    3.11180    0.07750 2692.82860
 1729.40000    6.00000    5.84660   18.36690    5.21680    2.55310   15.88160    3.08790    0.07990 2687.24410
