~Version ---------------------------------------------------
VERS.   2.0 : CWLS log ASCII Standard -VERSION 2.0
WRAP.    NO : One line per depth step
DLM . SPACE : Column Data Section Delimiter
~Well ------------------------------------------------------
STRT.m 1682.00000 : START DEPTH
STOP.m 1742.00000 : STOP DEPTH
STEP.m    0.05000 : STEP
NULL.    -9999.25 : NULL VALUE
COMP.     Unknown : COMPANY
WELL.     Unknown : WELL
FLD .     Unknown : FIELD
LOC .             : LOCATION
PROV.             : PROVINCE
CNTY.             : COUNTY
STAT.             : STATE
CTRY.     Unknown : COUNTRY
SRVC.             : SERVICE COMPANY
DATE.     Unknown : DATE
UWI .     Unknown : UNIQUE WELL ID
API .             : API NUMBER
~Curve Information -----------------------------------------
DEPT    .m           : depths
Gamma   .api         : digitalized and interpolated data
SP      .millivolts  : digitalized and interpolated data
Caliper .inches      : digitalized and interpolated data
Bit Size.inches      : digitalized and interpolated data
Tens    .pounds      : digitalized and interpolated data
MSFL    .Ohm-m       : digitalized and interpolated data
LLD     .Ohm-m       : digitalized and interpolated data
LLS     .Ohm-m       : digitalized and interpolated data
~Params ----------------------------------------------------
~Other -----------------------------------------------------
~ASCII -----------------------------------------------------
# ...
 1726.00000   20.01340    4.40820    5.70490    5.99770 3487.58510   87.47074  228.65052  226.62812
 1726.05000   23.41660    4.38490    5.68060    5.96130 3477.95600   85.13372  224.05126  234.45667
 1726.10000   25.07520    4.36170    5.71940    5.92720 3473.46360   83.04705  220.22854  225.79587
 1726.15000   28.49290    4.34670    5.71510    5.95670 3472.00070   81.36406  216.56825  217.45500
 1726.20000   33.87020    4.37390    5.71080    5.98610 3470.53780   79.96122  216.91161  237.38846
 1726.25000   38.39010    4.40100    5.70650    5.93860 3469.07490   81.92861  224.62081  230.71657
 1726.30000   42.10460    4.42820    5.70220    5.96720 3464.87090   84.95122  227.93866  237.25676
 1726.35000   45.46500    4.41810    5.69660    5.93420 3458.91210   89.44198  232.49156  275.75183
 1726.40000   47.26510    4.26250    5.69080    5.94670 3452.95330   97.10460  241.93550  266.41458
 1726.45000   48.89510    4.10690    5.68500    5.97640 3456.89390  104.15977  252.00514  267.23922
 1726.50000   47.73780    3.91170    5.67930    5.92320 3475.55350  112.97002  264.59108  277.60430
 1726.55000   46.45100    3.66910    5.67330    5.95470 3494.21300  121.03618  288.46226  296.22547
 1726.60000   44.95930    3.42650    5.66730    5.98620 3492.42880  126.97143  298.65597  328.75426
 1726.65000   42.74850    3.22380    5.66140    5.91600 3489.17120  126.16747  307.66762  307.80452
 1726.70000   41.08030    3.06590    5.65540    5.92770 3485.91360  125.36866  322.09798  321.06354
 1726.75000   39.26850    2.90800    5.64960    5.93940 3482.40350  124.57486  321.49542  333.64298
 1726.80000   37.96760    2.75020    5.64420    5.99180 3477.25320  124.52238  317.64205  302.59057
 1726.85000   36.84000    2.58600    5.63870    5.96840 3472.10290  124.79719  313.62104  307.62229
 1726.90000   35.73310    2.38290    5.63330    5.94500 3466.95260  125.07266  308.18422  308.99339
 1726.95000   34.73510    2.17980    5.62770    5.92160 3462.43840  125.34869  284.60138  253.19504
 1727.00000   33.49940    1.97670    5.62220    5.99200 3473.28030  127.54710  250.26205  212.60114
 1727.05000   31.57260    1.77360    5.61640    5.97860 3484.12210  131.39009  236.53401  231.16549
 1727.10000   29.69650    1.57050    5.61020    5.96510 3494.96390  127.39471  225.38136  235.03167
 1727.15000   27.84210    1.32630    5.60410    5.95170 3508.96470  124.03778  192.94041  215.74602
 1727.20000   25.38180    1.07890    5.59790    5.99610 3532.00820  130.51733  181.15319  177.86799
 1727.25000   23.52440    0.88760    5.59670    5.99610 3555.05170  125.75029  170.76379  169.69475
 1727.30000   22.00690    0.97150    5.60000    5.99610 3578.09520  119.42592  162.84641  160.03633
 1727.35000   21.15110    1.05550    5.60320    5.95320 3602.98470  116.91370  157.17722  158.66108
 1727.40000   20.74280    1.13940    5.60640    5.93650 3627.97370  114.61752  152.71489  155.05172
 1727.45000   20.38730    1.22340    5.60960    5.93650 3652.96270  112.82481  148.79756  148.00848
 1727.50000   20.61230    1.40510    5.61660    5.99070 3672.50840  111.26767  145.49672  144.26587
 1727.55000   20.83730    1.61350    5.62680    5.97820 3690.53250  109.73208  142.26910  141.29780
 1727.60000   21.21780    1.82190    5.63690    5.95100 3692.62870  107.23150  139.85448  142.11876
 1727.65000   22.15790    2.06910    5.60480    5.99580 3670.07710  104.17886  137.51821  137.69926
 1727.70000   22.91160    2.40680    5.57440    5.96680 3654.41130   98.58236  135.19449  133.41719
 1727.75000   24.30470    2.66430    5.56250    5.93770 3646.35980   93.62297  132.36336  132.06970
 1727.80000   25.54860    2.57630    5.55060    5.98470 3638.30820   89.98075  129.42197  125.13696
 1727.85000   26.60350    2.48830    5.53870    5.95360 3626.74600   86.68796  126.07187  121.94932
 1727.90000   27.24640    2.40030    5.54360    6.00230 3610.04570   84.59486  122.56436  119.93745
 1727.95000   27.76760    2.31230    5.54850    5.98750 3593.34540   83.67008  118.96735  121.12193
 1728.00000   27.83950    2.22440    5.55330    5.97030 3576.64500   85.67431  115.76221  113.19212
 1728.05000   27.87720    2.19300    5.52970    5.95580 3562.26610   87.89873  112.53002  113.69888
 1728.10000   26.88680    2.19670    5.50160    6.00100 3547.91900   90.47533  108.82493  105.20166
 1728.15000   25.99550    2.20040    5.52770    5.97200 3533.57180   87.34648  105.61232  109.90256
 1728.20000   25.26800    2.37860    5.52540    5.98880 3522.62960   82.22116  101.98014  105.46263
 1728.25000   24.73440    2.65860    5.52310    5.99130 3521.56080   78.05056   98.53397  100.38786
 1728.30000   24.39120    2.91980    5.52080    5.96230 3520.49190   69.66721   97.55236  101.55993
 1728.35000   24.04790    3.08670    5.51840    6.01050 3519.42310   61.88092   96.58271   98.36310
 1728.40000   24.10300    3.25360    5.51840    5.98160 3518.35430   55.63822   95.71830   95.26685
 1728.45000   24.26160    3.42590    5.51900    5.95640 3520.61470   52.63022   94.86163   95.66912
 1728.50000   24.42020    3.73480    5.51960    6.00080 3530.18420   52.01248   94.58864   96.77540
 1728.55000   25.26800    4.04370    5.52020    5.97190 3539.75360   51.52775   94.59631   94.87107
 1728.60000   25.93380    5.37450    5.51060    5.96230 3549.32300   51.04751   94.60402   93.00416
 1728.65000   26.50230    5.81610    5.48920    5.98640 3556.82250   50.49663   92.20452   92.45777
 1728.70000   26.88740    6.25760    5.47760    5.99620 3555.97500   49.70561   91.98347   96.02780
 1728.75000   27.26810    6.69920    5.49190    5.93710 3555.12750   49.14623   91.76291   96.02780
 1728.80000   27.35180    7.14080    5.50410    5.95670 3554.27990   46.11232   91.54289   96.02780
 1728.85000   27.29230    7.54490    5.50520    5.97630 3551.13400   38.29399   91.32338   96.02780
 1728.90000   26.94120    7.94460    5.50630    5.99580 3547.69670   31.14779   90.80279   90.92284
 1728.95000   26.55690    8.38380    5.50750    5.94990 3544.25930   26.46726   90.26878   92.52251
 1729.00000   26.11380    8.93680    5.50860    5.96640 3542.83670   22.65804   89.73796   94.15036
 1729.05000   25.66820    9.48990    5.51110    6.00070 3547.28730   21.68783   89.17366   88.72300
 1729.10000   25.20500    9.91870    5.51420    6.00720 3551.73790   20.98957   88.59381   88.42397
 1729.15000   24.74190   10.32830    5.51740    5.99620 3556.18850   20.70111   88.01774   89.81478
 1729.20000   24.01470   10.76540    5.52060    5.98310 3561.74970   21.88918   87.44541   91.36625
 1729.25000   22.99770   11.51770    5.52600    6.00540 3569.29430   25.10152   86.97836   88.89960
 1729.30000   21.81810   12.27030    5.53960    5.92970 3576.83900   30.12382   86.54827   90.30417
 1729.35000   20.67440   13.02350    5.55310    5.96700 3581.77630   33.86337   86.12031   91.24322
 1729.40000   19.36140   13.77680    5.56660    6.00440 3570.04170   34.34482   85.69447   90.74728
 1729.45000   17.89570   14.53000    5.58020    5.94310 3558.30720   34.53523   85.26449   90.25399
 1729.50000   16.82910   15.35460    5.60050    5.96850 3546.57270   34.72669   84.82127   86.33136
 1729.55000   15.32050   16.35700    5.62820    5.96340 3540.35320   34.24248   84.38036   85.86251
 1729.60000   14.35990   17.26000    5.65590    5.93700 3540.70200   34.32086   83.94175   85.39617
 1729.65000   13.57740   17.84880    5.68400    5.99020 3541.05080   35.20718   83.50541   85.74097
 1729.70000   13.08270   18.43760    5.71260    5.95600 3541.39950   37.50336   83.07134   86.89900
 1729.75000   12.75840   19.70170    5.73710    5.93220 3541.74830   39.54094   82.60524   84.46329
 1729.80000   12.43400   20.88660    5.75140    5.99930 3545.68050   40.33442   81.36930   83.33695
 1729.85000   12.37510   21.73800    5.76590    5.92640 3551.21040   39.82478   80.15186   82.55713
 1729.90000   12.52250   22.54790    5.78110    5.90360 3556.74020   39.32158   78.54262   81.78465
 1729.95000   12.66990   23.30530    5.79630    5.90540 3562.27000   38.95730   76.77842   80.63660
