~Version ---------------------------------------------------
VERS.   2.0 : CWLS log ASCII Standard -VERSION 2.0
WRAP.    NO : One line per depth step
DLM . SPACE : Column Data Section Delimiter
~Well ------------------------------------------------------
STRT.m            1285.0 : START DEPTH
STOP.m            1340.0 : STOP DEPTH
STEP.m           0.05000 : STEP
NULL.           -9999.25 : NULL VALUE
COMP.               TPAO : COMPANY
WELL.     BATIRAMAN #241 : WELL
FLD .          BATIRAMAN : FIELD
LOC .                    : LOCATION
PROV.                    : PROVINCE
CNTY.                    : COUNTY
STAT.                    : STATE
CTRY.             TURKEY : COUNTRY
SRVC.                    : SERVICE COMPANY
DATE. 02-Aug-09 16:36:59 : DATE
UWI .                241 : UNIQUE WELL ID
API .                    : API NUMBER
~Curve Information -----------------------------------------
DEPT   .m          : depths
Caliper.inches     : Caliper, digitalized and interpolated data
GR     .api        : Gamma-Ray, digitalized and interpolated data
GRS    .api        : Gamma-Ray Spectral, digitalized and interpolated data
DT     .mu-sec/ft  : Sonic log, digitalized and interpolated data
Pe     .           : PhotoElectric Effect, digitalized and interpolated data
NEU    .decp       : Neutron log, digitalized and interpolated data
RHOB   .gram/cc    : Density log, digitalized and interpolated data
DenCorr.gram/cc    : Density correction log, digitalized and interpolated data
~Params ----------------------------------------------------
~Other -----------------------------------------------------
~ASCII -----------------------------------------------------
# ...
 1289.00000    8.65730   50.96300   37.42780   73.20450    4.57750    0.15100    2.62010    0.00860
 1289.05000    8.65730   49.78520   37.22030   72.67510    4.57750    0.15230    2.62190    0.00860
 1289.10000    8.65730   48.94810   36.86250   72.08620    4.57550    0.14950    2.62370    0.00840
 1289.15000    8.65730   48.16300   36.36530   71.89140    4.56830    0.14680    2.62550    0.00780
 1289.20000    8.65730   47.37780   35.65130   71.79330    4.56120    0.14410    2.62730    0.00720
 1289.25000    8.65730   46.62960   35.38080   71.69520    4.55410    0.14240    2.62910    0.00660
 1289.30000    8.65730   46.23700   35.73580   71.60150    4.54700    0.14190    2.63050    0.00610
 1289.35000    8.65730   45.84440   36.09070   71.79780    4.53990    0.14130    2.62960    0.00550
 1289.40000    8.65730   45.45190   36.44560   71.99410    4.53280    0.14080    2.62870    0.00540
 1289.45000    8.65730   45.43700   36.80060   72.19030    4.52560    0.14160    2.62780    0.00600
 1289.50000    8.65730   46.22220   37.15550   72.78070    4.51850    0.14370    2.62710    0.00660
 1289.55000    8.65730   47.00740   37.42380   73.07510    4.51140    0.14530    2.62710    0.00720
 1289.60000    8.65730   47.79260   37.60060   73.36950    4.50250    0.14630    2.62710    0.00780
 1289.65000    8.65730   48.57780   37.77730   73.66390    4.49060    0.14790    2.62720    0.00840
 1289.70000    8.65730   49.36300   37.95410   73.50040    4.47880    0.15000    2.62670    0.00870
 1289.75000    8.65730   49.75930   38.03580   73.59850    4.46690    0.15050    2.62500    0.00870
 1289.80000    8.65730   49.95560   38.03440   73.69670    4.45510    0.14940    2.62320    0.00870
 1289.85000    8.65730   50.15190   38.03300   73.79480    4.44320    0.14840    2.62150    0.00870
 1289.90000    8.65730   50.34810   38.03150   73.44540    4.44190    0.14730    2.62020    0.00870
 1289.95000    8.65730   49.32590   38.03010   72.85650    4.45380    0.14490    2.62020    0.00870
 1290.00000    8.65730   48.14810   38.02870   72.41640    4.46570    0.14170    2.62020    0.00880
 1290.05000    8.65730   47.36300   38.02730   72.02380    4.47760    0.14200    2.62020    0.00880
 1290.10000    8.65730   46.71110   38.02590   71.80070    4.48950    0.13760    2.62020    0.00820
 1290.15000    8.65730   47.10370   38.02450   71.60450    4.50140    0.13590    2.62020    0.00730
 1290.20000    8.65730   47.49630   38.02310   71.40820    4.51180    0.13540    2.62020    0.00640
 1290.25000    8.65730   47.88890   37.90550   71.22680    4.52070    0.13490    2.62020    0.00560
 1290.30000    8.65730   48.21480   37.72590   71.22680    4.52960    0.13430    2.62020    0.00470
 1290.35000    8.65730   48.41110   37.54630   71.20890    4.53850    0.13340    2.62020    0.00380
 1290.40000    8.65330   48.60740   37.36680   71.11080    4.54750    0.13230    2.62020    0.00290
 1290.45000    8.64450   48.80370   37.18720   71.01260    4.55640    0.13120    2.62020    0.00210
 1290.50000    8.63570   48.44440   37.00760   70.91450    4.56530    0.13020    2.62030    0.00160
 1290.55000    8.62690   47.65930   36.82800   70.81640    4.57420    0.12910    2.62030    0.00120
 1290.60000    8.61800   47.14070   36.64840   70.71820    4.57750    0.12800    2.62030    0.00090
 1290.65000    8.60920   46.74810   36.51320   70.62010    4.57750    0.13030    2.62030    0.00050
 1290.70000    8.60040   46.35560   36.39300   70.52190    4.57750    0.12810    2.62030    0.00020
 1290.75000    8.59160   45.96300   36.27290   70.24540    4.57750    0.12590    2.62030   -0.00020
 1290.80000    8.58740   46.04440   36.15270   69.85280    4.57750    0.12380    2.61990   -0.00050
 1290.85000    8.58740   46.17530   36.03250   69.66990    4.57750    0.12160    2.61900   -0.00080
 1290.90000    8.58740   46.30620   35.91230   69.57170    4.57750    0.11950    2.61810   -0.00120
 1290.95000    8.58740   46.43700   36.18080   69.47360    4.57750    0.11950    2.61720   -0.00150
 1291.00000    8.58740   46.56790   36.53580   69.37550    4.57750    0.11950    2.61640   -0.00160
 1291.05000    8.58740   46.61850   36.74070   69.54940    4.57750    0.11950    2.61550   -0.00160
 1291.10000    8.58740   46.42220   36.91750   69.74870    4.57750    0.11960    2.61460   -0.00160
 1291.15000    8.58740   46.22590   37.09420   70.04310    4.57750    0.12170    2.61370   -0.00160
 1291.20000    8.59430   46.02960   37.27100   70.33750    4.56820    0.12370    2.61380   -0.00160
 1291.25000    8.60610   45.83330   37.92310   70.63200    4.55640    0.12480    2.61470   -0.00160
 1291.30000    8.61780   45.63700   38.63440   70.85500    4.54450    0.12590    2.61560   -0.00160
 1291.35000    8.62960   45.44070   39.02030   70.85500    4.53270    0.12690    2.61650   -0.00150
 1291.40000    8.64130   45.24440   39.37520   70.85500    4.52080    0.12790    2.61650   -0.00150
 1291.45000    8.65310   45.45930   39.73010   70.85500    4.50900    0.12790    2.61590   -0.00150
 1291.50000    8.65730   45.85190   40.08510   70.81040    4.51700    0.12790    2.61540   -0.00150
 1291.55000    8.65730   46.24440   40.26890   70.71230    4.52890    0.12790    2.61480   -0.00150
 1291.60000    8.65730   46.63700   40.44560   70.61410    4.54080    0.12790    2.61420   -0.00150
 1291.65000    8.65730   48.87410   40.62240   70.51600    4.55270    0.12790    2.61360   -0.00150
 1291.70000    8.65730   51.14070   40.80340   70.52690    4.56460    0.12790    2.61170   -0.00150
 1291.75000    8.65730   51.92590   41.51460   70.59230    4.57650    0.12790    2.60900   -0.00150
 1291.80000    8.65730   52.61230   42.20340   70.65770    4.57090    0.12790    2.60640   -0.00150
 1291.85000    8.65730   52.74320   42.20200   70.72320    4.56380    0.12790    2.60380   -0.00150
 1291.90000    8.65730   52.87410   42.20060   70.78860    4.55670    0.12790    2.60170   -0.00150
 1291.95000    8.65730   53.00490   42.19910   70.85400    4.54960    0.12790    2.60000   -0.00150
 1292.00000    8.65730   53.13580   42.19770   70.85500    4.54240    0.12790    2.59820   -0.00150
 1292.05000    8.65730   53.26670   42.19630   70.85500    4.53530    0.12790    2.59650   -0.00150
 1292.10000    8.64880   55.20000   42.19490   70.85500    4.52820    0.12790    2.59590   -0.00140
 1292.15000    8.63700   55.98520   42.19350   70.86790    4.52110    0.12790    2.59590   -0.00140
 1292.20000    8.62530   56.77040   42.19210   70.93330    4.51400    0.12800    2.59640   -0.00140
 1292.25000    8.61350   57.55560   42.19070   70.99880    4.50740    0.12830    2.59700   -0.00140
 1292.30000    8.60180   58.05930   42.21600   71.06420    4.51930    0.12870    2.59760   -0.00090
 1292.35000    8.59000   58.45190   42.39280   71.12960    4.53120    0.12900    2.59820   -0.00050
 1292.40000    8.59430   58.19260   42.56960   71.19500    4.54310    0.12940    2.59880   -0.00000
 1292.45000    8.60310   57.80000   42.74630   71.27730    4.55500    0.12980    2.59940    0.00040
 1292.50000    8.61190   57.03700   42.95830   71.37550    4.56690    0.12990    2.60240    0.00090
 1292.55000    8.62070   56.25190   43.31320   71.47360    4.57880    0.12950    2.60600    0.00130
 1292.60000    8.62950   55.46670   43.70760   71.57170    4.59070    0.12920    2.60800    0.00180
 1292.65000    8.63830   54.68150   44.24070   71.74130    4.60260    0.12880    2.60980    0.00220
 1292.70000    8.64710   53.89630   44.77380   71.93750    4.61450    0.12850    2.61240    0.00260
 1292.75000    8.65590   53.44440   45.30690   72.13380    4.62640    0.12810    2.61510    0.00290
 1292.80000    8.64990   53.83700   45.88790   72.33010    4.63830    0.12760    2.61780    0.00330
 1292.85000    8.64110   54.22960   46.59910   72.52640    4.64960    0.12690    2.62050    0.00370
 1292.90000    8.63230   54.62220   47.06720   72.69590    4.65860    0.12620    2.62320    0.00400
 1292.95000    8.62350   54.91480   46.94700   72.30330    4.66750    0.12550    2.62590    0.00440
