~Version ---------------------------------------------------
VERS.   2.0 : CWLS log ASCII Standard -VERSION 2.0
WRAP.    NO : One line per depth step
DLM . SPACE : Column Data Section Delimiter
~Well ------------------------------------------------------
STRT.m            1285.0 : START DEPTH
STOP.m            1340.0 : STOP DEPTH
STEP.m           0.05000 : STEP
NULL.           -9999.25 : NULL VALUE
COMP.               TPAO : COMPANY
WELL.     BATIRAMAN #241 : WELL
FLD .          BATIRAMAN : FIELD
LOC .                    : LOCATION
PROV.                    : PROVINCE
CNTY.                    : COUNTY
STAT.                    : STATE
CTRY.             TURKEY : COUNTRY
SRVC.                    : SERVICE COMPANY
DATE. 02-Aug-09 16:36:59 : DATE
UWI .                241 : UNIQUE WELL ID
API .                    : API NUMBER
~Curve Information -----------------------------------------
DEPT   .m          : depths
Caliper.inches     : Caliper, digitalized and interpolated data
GR     .api        : Gamma-Ray, digitalized and interpolated data
GRS    .api        : Gamma-Ray Spectral, digitalized and interpolated data
DT     .mu-sec/ft  : Sonic log, digitalized and interpolated data
Pe     .           : PhotoElectric Effect, digitalized and interpolated data
NEU    .decp       : Neutron log, digitalized and interpolated data
RHOB   .gram/cc    : Density log, digitalized and interpolated data
DenCorr.gram/cc    : Density correction log, digitalized and interpolated data
~Params ----------------------------------------------------
~Other -----------------------------------------------------
~ASCII -----------------------------------------------------
# ...
 1317.00000    8.37760   55.11110    8.39490   69.01120    4.80240    0.12390    2.46620    0.05920
 1317.05000    8.37760   55.89630    8.39350   69.38590    4.78960    0.12500    2.46680    0.05580
 1317.10000    8.39050   56.68150    8.39210   69.58220    4.81340    0.12550    2.46740    0.04890
 1317.15000    8.40810   57.46670    8.39070   69.66250    4.83730    0.12450    2.46800    0.04350
 1317.20000    8.42570   56.82960    8.38930   69.26990    4.86120    0.12340    2.46860    0.04180
 1317.25000    8.44340   55.25930    8.38790   67.82160    4.88500    0.12230    2.46920    0.04000
 1317.30000    8.46100   53.68890    8.38650   67.62530    4.90890    0.12090    2.47010    0.03830
 1317.35000    8.47860   52.11850    8.38510   67.34870    4.92960    0.11870    2.47180    0.03710
 1317.40000    8.49620   49.71850    8.38370   66.95610    4.92960    0.11660    2.47320    0.03710
 1317.45000    8.51380   48.93330    8.38220   66.46250    4.92960    0.11440    2.47320    0.03710
 1317.50000    8.51190   48.14810    8.38080   65.87360    4.92960    0.11250    2.47320    0.03710
 1317.55000    8.50480   47.44070    8.37940   65.58960    4.92960    0.11090    2.47320    0.03710
 1317.60000    8.49780   48.02960    8.37800   65.49140    4.92960    0.10920    2.47320    0.03710
 1317.65000    8.49070   48.61850    8.37660   65.39330    4.93690    0.10760    2.47320    0.03710
 1317.70000    8.48370   49.20740    8.41890   65.29520    4.97280    0.10630    2.47320    0.03710
 1317.75000    8.47660   53.37040    8.59560   65.36060    5.00870    0.10520    2.47320    0.03710
 1317.80000    8.46960   56.11850    8.77240   65.45870    5.04460    0.10410    2.47520    0.03710
 1317.85000    8.46250   56.10000    8.94910   65.55690    5.06050    0.10310    2.48070    0.03710
 1317.90000    8.45550   57.47410    9.12590   65.65060    5.02510    0.10290    2.48220    0.03710
 1317.95000    8.44840   58.84810    9.30270   65.65060    4.98970    0.10350    2.47870    0.03710
 1318.00000    8.44760   60.22220    9.47940   65.65060    4.95430    0.10400    2.47800    0.03710
 1318.05000    8.44760   60.49630    9.65620   65.65060    4.91900    0.10450    2.48100    0.03630
 1318.10000    8.44760   60.10370    9.81280   65.54940    4.88360    0.10470    2.48400    0.03460
 1318.15000    8.44760   59.71110    9.93010   65.15690    4.85920    0.10470    2.48700    0.03280
 1318.20000    8.44760   59.31850   10.04750   64.76430    4.85920    0.10470    2.49000    0.03110
 1318.25000    8.44760   59.42590   10.16490   64.37170    4.85920    0.10470    2.49300    0.02930
 1318.30000    8.44760   59.62220   10.28220   64.16360    4.85920    0.10400    2.48240    0.02760
 1318.35000    8.44760   59.81850   10.39960   64.16360    4.85920    0.10290    2.49350    0.02670
 1318.40000    8.44760   60.05930   10.51700   64.16360    4.85920    0.10190    2.49890    0.02670
 1318.45000    8.44760   60.84440   10.63440   64.16360    4.85920    0.10080    2.50070    0.02670
 1318.50000    8.44760   61.62960   10.75170   64.23050    4.85920    0.10010    2.49970    0.02670
 1318.55000    8.44760   62.41480   10.86910   64.32860    4.85440    0.09960    2.49700    0.02770
 1318.60000    8.44760   62.84440   10.98650   64.42680    4.84250    0.09910    2.49440    0.02950
 1318.65000    8.44760   62.45190   11.10380   64.52490    4.83070    0.09850    2.49180    0.03130
 1318.70000    8.44760   62.05930   11.12960   64.88620    4.81880    0.09970    2.48970    0.03310
 1318.75000    8.44760   61.66670   11.05690   65.27880    4.80700    0.10130    2.48800    0.03340
 1318.80000    8.44760   59.93090   10.98420   65.47510    4.79510    0.10290    2.48560    0.03280
 1318.85000    8.44760   59.80000   10.91150   65.71300    4.79700    0.10440    2.48830    0.03220
 1318.90000    8.44760   59.66910   10.83890   66.30190    4.81490    0.10690    2.49100    0.03160
 1318.95000    8.44760   59.53830   10.76620   66.89070    4.83280    0.10950    2.49370    0.03110
 1319.00000    8.44760   59.40740   10.69350   67.47960    4.85060    0.11210    2.49160    0.03050
 1319.05000    8.44760   59.27650   10.62080   68.00590    4.85920    0.11470    2.49250    0.02910
 1319.10000    8.44760   58.57780   10.54820   68.39850    4.85920    0.11610    2.49340    0.02740
 1319.15000    8.44760   57.79260   10.47550   69.61780    4.84940    0.11720    2.49430    0.02560
 1319.20000    8.44760   57.00740   10.44560   70.20670    4.83170    0.11820    2.49040    0.02390
 1319.25000    8.44700   56.18520   10.44420   70.69140    4.81390    0.11930    2.48520    0.02330
 1319.30000    8.43990   55.00740   10.44280   71.08400    4.79620    0.12030    2.47990    0.02330
 1319.35000    8.43290   51.97410   10.44140   71.22680    4.77840    0.12140    2.47470    0.02330
 1319.40000    8.42580   52.56300   10.44000   71.22680    4.76070    0.12240    2.43990    0.02340
 1319.45000    8.41880   53.15190   10.43860   71.22680    4.74290    0.12350    2.43130    0.02340
 1319.50000    8.41170   53.74070   10.51700   71.22680    4.72520    0.12460    2.40850    0.02340
 1319.55000    8.40470   57.37780   10.63440   71.22680    4.74040    0.12560    2.40500    0.02430
 1319.60000    8.39770   58.16300   10.75170   71.22680    4.77620    0.12670    2.39580    0.02550
 1319.65000    8.39060   59.16300   10.86910   71.22680    4.81210    0.12770    2.39500    0.02670
 1319.70000    8.38360   60.34070   10.98650   71.22680    4.84800    0.12920    2.39410    0.02790
 1319.75000    8.37950   60.48150   11.10380   71.22680    4.87560    0.13080    2.39320    0.02910
 1319.80000    8.39120   60.08890   11.26530   71.19410    4.89950    0.13240    2.39470    0.03020
 1319.85000    8.40300   59.69630   11.44210   70.99780    4.92330    0.13400    2.39830    0.02890
 1319.90000    8.41470   59.30370   11.61890   70.80150    4.94720    0.13470    2.40400    0.02710
 1319.95000    8.42650   60.12960   11.79560   70.60520    4.97110    0.13520    2.41130    0.02540
 1320.00000    8.43820   61.11110   11.97240   70.40890    4.99500    0.13570    2.41870    0.02360
 1320.05000    8.45240   62.09260   12.14910   70.21260    4.99070    0.13630    2.42600    0.02290
 1320.10000    8.47590   61.00740   12.32590   69.96880    4.97880    0.13340    2.42920    0.02230
 1320.15000    8.49940   63.36300   12.50270   69.67430    4.96700    0.13010    2.44630    0.02180
 1320.20000    8.52290   65.36300   12.67940   69.37990    4.95510    0.12360    2.45210    0.02120
 1320.25000    8.54640   66.14810   12.85620   69.08550    4.94330    0.11690    2.46920    0.02060
 1320.30000    8.56990   68.54810   13.03300   68.85950    4.93140    0.11030    2.48820    0.02000
 1320.35000    8.58740   69.72590   13.20970   68.66320    4.91960    0.10430    2.48840    0.02340
 1320.40000    8.58740   75.55560   13.38650   68.54570    4.90770    0.10160    2.50750    0.02700
 1320.45000    8.58740   75.55560   13.56320   68.44760    4.89590    0.09890    2.52340    0.02880
 1320.50000    8.58740   75.33330   13.74000   68.34940    4.88400    0.09610    2.52710    0.03060
 1320.55000    8.58740   74.94070   13.91680   68.24680    4.87220    0.09340    2.53070    0.03240
 1320.60000    8.58740   73.48150   14.14890   67.85430    4.86030    0.09070    2.53430    0.03390
 1320.65000    8.58480   71.51850   14.38510   64.85950    4.84310    0.08800    2.54140    0.03210
 1320.70000    8.57590   73.12590   14.62120   64.46690    4.82540    0.08530    2.55650    0.03040
 1320.75000    8.56710   72.86420   14.85740   63.33090    4.80760    0.08190    2.55590    0.02860
 1320.80000    8.55830   72.60250   15.09350   62.93830    4.78990    0.07750    2.56900    0.02690
 1320.85000    8.54950   72.34070   15.32870   62.61120    4.79710    0.07420    2.57410    0.02510
 1320.90000    8.54070   72.07900   15.32730   62.41490    4.80600    0.07210    2.57140    0.02430
 1320.95000    8.53190   71.83460   15.32590   62.47730    4.81490    0.07180    2.56880    0.03160
