~Version ---------------------------------------------------
VERS.   2.0 : CWLS log ASCII Standard -VERSION 2.0
WRAP.    NO : One line per depth step
DLM . SPACE : Column Data Section Delimiter
~Well ------------------------------------------------------
STRT.m 1682.00000 : START DEPTH
STOP.m 1742.00000 : STOP DEPTH
STEP.m    0.05000 : STEP
NULL.    -9999.25 : NULL VALUE
COMP.     Unknown : COMPANY
WELL.     Unknown : WELL
FLD .     Unknown : FIELD
LOC .             : LOCATION
PROV.             : PROVINCE
CNTY.             : COUNTY
STAT.             : STATE
CTRY.     Unknown : COUNTRY
SRVC.             : SERVICE COMPANY
DATE.     Unknown : DATE
UWI .     Unknown : UNIQUE WELL ID
API .             : API NUMBER
~Curve Information -----------------------------------------
DEPT            .m            : depths
Bit Size        .inches       : digitalized and interpolated data
Caliper         .inches       : digitalized and interpolated data
GammaKUT        .api          : digitalized and interpolated data
GammaKT         .api          : digitalized and interpolated data
Density         .gram per cc  : digitalized and interpolated data
Neutron Porosity.pu           : digitalized and interpolated data
Pe              .unknown      : digitalized and interpolated data
DensityCorr     .gm per cc    : digitalized and interpolated data
Tension         .pounds       : digitalized and interpolated data
~Params ----------------------------------------------------
~Other -----------------------------------------------------
~ASCII -----------------------------------------------------
# ...
 1696.60000    6.00000    6.20380   10.97700    3.35390    2.64790    2.15410    4.99240    0.05510 2712.06720
 1696.65000    6.00000    6.19920   10.74500    3.36390    2.63450    2.39370    5.00310    0.05430 2717.04730
 1696.70000    6.00000    6.19460   10.51300    3.37390    2.61700    2.84130    5.01380    0.05350 2722.02750
 1696.75000    6.00000    6.19000   10.28100    3.38390    2.60330    3.58300    5.02450    0.05260 2727.00760
 1696.80000    6.00000    6.18900   10.04900    3.39390    2.59400    4.47260    5.00980    0.05180 2729.38510
 1696.85000    6.00000    6.19220    9.81700    3.40390    2.58160    5.22770    4.98110    0.05100 2725.65360
 1696.90000    6.00000    6.19540    9.58500    3.41390    2.57110    5.89830    4.95240    0.05010 2721.92210
 1696.95000    6.00000    6.19860    9.46200    3.42390    2.56200    6.81680    4.92370    0.04930 2718.19050
 1697.00000    6.00000    6.20180    9.43600    3.43390    2.55040    7.15460    4.89490    0.04850 2714.45900
 1697.05000    6.00000    6.20490    9.41000    3.46980    2.53990    7.61270    4.86620    0.04760 2710.72750
 1697.10000    6.00000    6.20490    9.38400    3.50720    2.53010    8.07810    4.83940    0.04720 2706.99600
 1697.15000    6.00000    6.20490    9.35800    3.54460    2.52700    8.21810    4.81330    0.04720 2703.26440
 1697.20000    6.00000    6.20490    9.33200    3.58200    2.52510    8.35810    4.78710    0.04710 2699.53290
 1697.25000    6.00000    6.20490    9.30600    3.61950    2.52310    8.49810    4.76100    0.04710 2695.80140
 1697.30000    6.00000    6.20490    9.28000    3.65690    2.52120    8.57920    4.73490    0.04700 2692.06990
 1697.35000    6.00000    6.20720    9.25410    3.69430    2.51930    8.47020    4.70880    0.04700 2688.33830
 1697.40000    6.00000    6.21330    9.36100    3.99100    2.52050    8.36120    4.68260    0.04690 2684.60680
 1697.45000    6.00000    6.21940    9.57800    4.30880    2.52290    8.25230    4.67240    0.04530 2680.87530
 1697.50000    6.00000    6.22560    9.79500    4.62670    2.52520    8.14330    4.67790    0.04180 2677.14370
 1697.55000    6.00000    6.23170   10.01200    4.94460    2.52750    7.86890    4.68350    0.03940 2673.41220
 1697.60000    6.00000    6.23780   10.22900    5.26250    2.53320    7.55360    4.68900    0.03750 2669.68070
 1697.65000    6.00000    6.23670   10.44600    5.58030    2.54350    7.17780    4.69460    0.03560 2665.94920
 1697.70000    6.00000    6.23270   10.83780    5.89820    2.55600    6.73360    4.70010    0.03370 2662.21760
 1697.75000    6.00000    6.22880   11.33230    6.07970    2.56680    6.31380    4.70570    0.03180 2658.48610
 1697.80000    6.00000    6.22480   11.82690    6.14630    2.57810    5.78160    4.71120    0.02990 2654.75460
 1697.85000    6.00000    6.22080   12.32150    6.21280    2.59180    5.06550    4.71680    0.03090 2651.02310
 1697.90000    6.00000    6.21680   13.21030    6.27940    2.60500    4.65350    4.72170    0.03380 2647.29150
 1697.95000    6.00000    6.21280   14.24140    6.34590    2.62280    4.29370    4.72620    0.03680 2645.19440
 1698.00000    6.00000    6.20890   17.22140    6.41940    2.63160    4.07350    4.73080    0.03900 2649.56220
 1698.05000    6.00000    6.20490   19.80310    6.88030    2.64500    3.97080    4.73530    0.03920 2653.93000
 1698.10000    6.00000    6.21700   26.49520    7.34110    2.65530    3.86810    4.70910    0.03950 2658.29780
 1698.15000    6.00000    6.22920   31.66170    7.80190    2.67010    3.76540    4.65360    0.03970 2662.66560
 1698.20000    6.00000    6.24130   34.32640    8.26270    2.68850    3.70890    4.59430    0.04000 2667.03340
 1698.25000    6.00000    6.25350   39.87010    8.72360    2.70210    3.70890    4.52440    0.04020 2671.40110
 1698.30000    6.00000    6.26570   45.78610    9.78180    2.71420    3.70890    4.45450    0.04040 2675.76890
 1698.35000    6.00000    6.27780   53.41960   11.44250    2.72170    3.70890    4.39140    0.04010 2680.13670
 1698.40000    6.00000    6.29000   60.92580   12.96760    2.72570    3.70890    4.35320    0.03920 2684.50450
 1698.45000    6.00000    6.30970   62.47250   14.03350    2.72930    3.70890    4.31510    0.03830 2688.87230
 1698.50000    6.00000    6.33060   64.35260   15.09950    2.73220    3.70890    4.27690    0.03740 2693.24010
 1698.55000    6.00000    6.35150   66.29300   15.77250    2.73290    3.70890    4.23880    0.03650 2697.60790
 1698.60000    6.00000    6.37240   65.61450   16.09170    2.73350    3.48640    4.20060    0.03550 2701.97570
 1698.65000    6.00000    6.39330   63.90610   16.41080    2.73410    3.06190    4.25870    0.03410 2706.34350
 1698.70000    6.00000    6.40980   61.99970   16.73000    2.73480    2.64070    4.31720    0.03250 2710.71130
 1698.75000    6.00000    6.42580   60.54620   17.04910    2.73540    2.22700    4.37560    0.03080 2715.29360
 1698.80000    6.00000    6.44170   55.06680   16.63350    2.73370    1.84620    4.46310    0.02920 2719.91250
 1698.85000    6.00000    6.45770   47.48320   15.99960    2.73030    1.53320    4.57320    0.02760 2724.53140
 1698.90000    6.00000    6.47360   44.22320   15.36580    2.72700    1.42270    4.64260    0.02600 2729.15030
 1698.95000    6.00000    6.48020   41.70280   14.73190    2.72170    1.31210    4.68650    0.02650 2733.76920
 1699.00000    6.00000    6.47530   38.78410   13.95930    2.71550    1.20150    4.73030    0.02830 2738.38810
 1699.05000    6.00000    6.47040   31.84120   12.49410    2.70830    1.09100    4.77410    0.03000 2743.00700
 1699.10000    6.00000    6.46550   28.01370    9.68550    2.69490    0.98040    4.78640    0.03180 2747.62590
 1699.15000    6.00000    6.46060   24.98450    9.14310    2.68610    0.86990    4.79630    0.03360 2752.24480
 1699.20000    6.00000    6.45210   23.20170    8.60060    2.67390    1.15450    4.80630    0.03550 2756.86370
 1699.25000    6.00000    6.44330   22.12890    8.05820    2.65000    1.41700    4.81630    0.03830 2761.48260
 1699.30000    6.00000    6.43450   21.37650    7.62620    2.63320    1.63460    4.82630    0.04120 2766.10150
 1699.35000    6.00000    6.42560   20.62400    7.37060    2.62040    1.85230    4.83630    0.04400 2770.72040
 1699.40000    6.00000    6.41680   20.07980    7.11490    2.60900    2.14280    4.83720    0.04580 2775.33930
 1699.45000    6.00000    6.40800   19.57360    6.85930    2.59800    2.46830    4.83670    0.04680 2779.95820
 1699.50000    6.00000    6.39920   19.06740    6.60360    2.59150    2.79220    4.83610    0.04780 2784.57720
 1699.55000    6.00000    6.39040   18.56120    6.34800    2.58860    3.11540    4.83550    0.04880 2787.95790
 1699.60000    6.00000    6.38150   18.22520    6.15170    2.58810    3.48060    4.83490    0.04980 2787.95790
 1699.65000    6.00000    6.36830   17.96420    6.38020    2.58770    3.84520    4.83430    0.05080 2787.95790
 1699.70000    6.00000    6.35270   17.70320    6.60870    2.58720    4.18230    4.83370    0.05170 2787.95790
 1699.75000    6.00000    6.33700   17.44220    6.83720    2.58680    4.51940    4.83400    0.05140 2787.95790
 1699.80000    6.00000    6.32130   17.18120    7.06570    2.58630    4.79310    4.83680    0.05110 2787.95790
 1699.85000    6.00000    6.30560   16.92020    7.29420    2.58310    5.04630    4.83960    0.05090 2787.95790
 1699.90000    6.00000    6.28990   16.74440    7.52270    2.57960    5.24690    4.84240    0.05060 2787.95790
 1699.95000    6.00000    6.27430   16.61330    7.70020    2.57570    5.39780    4.84510    0.05040 2787.95790
 1700.00000    6.00000    6.25860   16.48230    7.48950    2.56920    5.54880    4.84790    0.05010 2787.95790
 1700.05000    6.00000    6.22040   16.35120    7.27880    2.56320    5.69980    4.85070    0.04980 2787.95790
 1700.10000    6.00000    6.17950   16.22010    7.12710    2.55770    5.84900    4.85350    0.04960 2787.95790
 1700.15000    6.00000    6.13860   16.08910    6.99610    2.55450    5.99370    4.85630    0.04960 2787.95790
 1700.20000    6.00000    6.09770   15.95800    6.86500    2.55280    6.13840    4.85910    0.04980 2787.95790
