~Version ---------------------------------------------------
VERS.   2.0 : CWLS log ASCII Standard -VERSION 2.0
WRAP.    NO : One line per depth step
DLM . SPACE : Column Data Section Delimiter
~Well ------------------------------------------------------
STRT.m 1786.00000 : START DEPTH
STOP.m 1840.00000 : STOP DEPTH
STEP.m    0.05000 : STEP
NULL.    -9999.25 : NULL VALUE
COMP.     Unknown : COMPANY
WELL.     Unknown : WELL
FLD .     Unknown : FIELD
LOC .             : LOCATION
PROV.             : PROVINCE
CNTY.             : COUNTY
STAT.             : STATE
CTRY.     Unknown : COUNTRY
SRVC.             : SERVICE COMPANY
DATE.     Unknown : DATE
UWI .     Unknown : UNIQUE WELL ID
API .             : API NUMBER
~Curve Information -----------------------------------------
DEPT      .m              : depths
GammaKT   .api            : digitalized and interpolated data
GammaTotal.api            : digitalized and interpolated data
Thorium   .parts-per-mil  : digitalized and interpolated data
Uranium   .parts-per-mil  : digitalized and interpolated data
Potassium .percent        : digitalized and interpolated data
~Params ----------------------------------------------------
~Other -----------------------------------------------------
~ASCII -----------------------------------------------------
# ...
 1834.00000   33.99250   42.29410   12.17320    1.60250    1.30220
 1834.05000   32.80610   41.52140   12.11980    1.57030    1.27020
 1834.10000   32.03060   40.82890   12.07890    1.55720    1.23820
 1834.15000   31.41840   40.20440   12.02540    1.54300    1.20960
 1834.20000   30.80610   39.79980   11.93430    1.52420    1.18400
 1834.25000   30.20030   39.42500   11.86110    1.50550    1.15850
 1834.30000   29.86740   39.43890   11.93440    1.48670    1.14740
 1834.35000   29.53450   39.82270   11.92260    1.49960    1.15880
 1834.40000   29.44380   40.60580   11.91090    1.51450    1.17020
 1834.45000   29.68320   42.12360   11.91690    1.52930    1.18160
 1834.50000   29.92260   43.17040   11.95470    1.56010    1.20240
 1834.55000   30.87100   44.10420   11.99250    1.59710    1.24560
 1834.60000   31.82240   44.86750   12.03020    1.63490    1.28880
 1834.65000   32.58030   46.07950   12.06800    1.69170    1.33170
 1834.70000   33.38180   47.87380   12.13120    1.74850    1.37440
 1834.75000   34.46860   50.94670   12.19600    1.81070    1.41720
 1834.80000   35.83300   52.90590   12.27150    1.87590    1.45050
 1834.85000   37.79290   54.90350   12.34780    1.94120    1.49880
 1834.90000   39.20330   56.12530   12.41350    2.00980    1.62550
 1834.95000   40.05920   57.27570   12.47540    2.07840    1.66790
 1835.00000   40.91030   58.20640   12.53730    2.13480    1.71020
 1835.05000   41.64680   59.13320   12.54230    2.18640    1.74950
 1835.10000   42.00990   59.73960   12.54680    2.23800    1.76390
 1835.15000   42.31070   60.17100   12.55130    2.29580    1.77830
 1835.20000   42.37220   60.49940   12.51220    2.35380    1.79570
 1835.25000   42.43360   59.88090   12.47310    2.40030    1.82090
 1835.30000   42.34090   59.56000   12.43400    2.43760    1.80520
 1835.35000   41.92650   59.58580   12.39480    2.47450    1.77650
 1835.40000   41.51210   58.38820   12.35290    2.49290    1.74770
 1835.45000   40.34650   57.81400   12.30950    2.51130    1.71580
 1835.50000   39.60350   57.07850   12.26800    2.52970    1.68280
 1835.55000   39.02040   56.15430   12.23350    2.54070    1.64980
 1835.60000   38.35200   55.26050   12.19900    2.54620    1.61700
 1835.65000   37.61640   54.30760   12.17260    2.55160    1.58450
 1835.70000   36.88120   53.43100   12.15520    2.54200    1.55190
 1835.75000   36.20000   52.74660   12.12980    2.51910    1.52160
 1835.80000   35.51890   52.48410   12.08180    2.49610    1.50140
 1835.85000   35.06090   52.22170   12.05400    2.48180    1.48750
 1835.90000   34.69730   51.95930   12.04720    2.46880    1.47360
 1835.95000   34.40750   52.11550   12.04270    2.45590    1.45970
 1836.00000   34.11760   52.28580   12.04300    2.46820    1.44920
 1836.05000   34.46200   52.66300   12.04340    2.49310    1.45650
 1836.10000   34.53510   53.56310   12.04370    2.52360    1.46380
 1836.15000   34.60830   54.27120   12.04490    2.56630    1.47110
 1836.20000   34.77610   54.80040   12.05160    2.60810    1.47840
 1836.25000   35.18790   55.20820   12.05820    2.64970    1.49530
 1836.30000   35.51140   55.49200   12.05320    2.68980    1.51280
 1836.35000   35.45700   55.55240   12.04260    2.72390    1.53040
 1836.40000   35.40250   55.08370   12.03190    2.75810    1.54360
 1836.45000   35.34800   54.27180   12.02130    2.79220    1.53380
 1836.50000   35.29360   53.03900   11.99420    2.79330    1.52390
 1836.55000   34.99430   51.54110   11.94440    2.76270    1.51410
 1836.60000   34.33750   49.67940   11.88680    2.73210    1.44670
 1836.65000   33.08980   47.90030   11.80570    2.67410    1.40850
 1836.70000   31.92700   46.01600   11.72840    2.58700    1.36780
 1836.75000   30.70750   44.76460   11.67410    2.50530    1.30680
 1836.80000   29.42280   44.22170   11.61990    2.43370    1.25110
 1836.85000   28.52850   43.85410   11.57340    2.36650    1.21480
 1836.90000   27.76300   43.86520   11.53930    2.31880    1.22620
 1836.95000   27.46410   44.56060   11.50520    2.31490    1.23770
 1837.00000   27.16530   45.55980   11.58590    2.34520    1.24910
 1837.05000   27.32980   46.76510   11.60660    2.39700    1.19990
 1837.10000   27.81290   48.57140   11.59680    2.45470    1.20840
 1837.15000   28.36250   50.22440   11.62150    2.51800    1.21690
 1837.20000   29.57320   51.75210   11.66260    2.60610    1.22540
 1837.25000   30.57000   53.54210   11.69780    2.69470    1.34640
 1837.30000   31.53790   54.77630   11.72120    2.79200    1.40230
 1837.35000   32.51750   55.61110   11.74460    2.88340    1.45730
 1837.40000   33.30820   55.86010   11.76110    2.93360    1.47220
 1837.45000   33.83980   55.96290   11.75080    2.98380    1.48720
 1837.50000   34.55450   55.58350   11.74050    3.03400    1.50340
 1837.55000   34.30260   54.88570   11.73020    3.05410    1.52120
 1837.60000   34.01160   54.24720   11.71990    3.04960    1.52570
 1837.65000   33.59670   53.50040   11.70440    3.04520    1.50800
 1837.70000   33.15000   52.47710   11.66420    3.04070    1.49020
 1837.75000   32.70330   51.60210   11.62400    3.02630    1.47240
 1837.80000   32.12930   50.51060   11.58270    3.00260    1.44730
 1837.85000   31.21290   49.58000   11.53740    2.97900    1.42220
 1837.90000   30.45820   48.56710   11.49210    2.94940    1.39700
 1837.95000   29.85580   47.46190   11.45490    2.91830    1.36990
 1838.00000   29.00930   46.65500   11.41830    2.88710    1.34230
 1838.05000   28.13860   45.70770   11.38180    2.86950    1.27680
 1838.10000   27.47590   45.20990   11.34550    2.85360    1.22740
 1838.15000   26.85200   44.72860   11.30930    2.83760    1.20360
 1838.20000   26.12080   44.32390   11.30870    2.82220    1.17980
 1838.25000   25.72860   43.91920   11.31330    2.80730    1.15590
 1838.30000   25.43770   43.66630   11.31780    2.79230    1.13650
 1838.35000   25.14690   43.49600   11.32240    2.79650    1.12170
 1838.40000   24.91610   43.32570   11.32700    2.80390    1.10680
 1838.45000   24.69060   43.16090   11.33960    2.81000    1.09200
 1838.50000   24.52050   43.01830   11.36310    2.81540    1.07710
 1838.55000   24.42930   42.87570   11.37580    2.82070    1.06670
 1838.60000   24.33800   42.49710   11.37790    2.80720    1.05710
 1838.65000   24.24680   41.93430   11.38000    2.77900    1.04750
 1838.70000   24.07250   41.46720   11.38200    2.75080    1.03790
 1838.75000   23.86890   41.01370   11.37960    2.71670    1.02820
 1838.80000   23.66530   40.54600   11.37320    2.68150    1.01830
 1838.85000   23.46170   40.07090   11.36680    2.64820    1.00840
 1838.90000   23.25820   39.86240   11.35980    2.62200    0.99860
 1838.95000   23.06290   39.66950   11.35010    2.59580    0.98910
 1839.00000   22.88780   39.44750   11.34050    2.57300    0.98320
 1839.05000   22.69160   39.22120   11.33180    2.56920    0.97720
 1839.10000   22.47250   39.01290   11.32570    2.56550    0.96420
 1839.15000   22.24090   38.84610   11.31960    2.56220    0.94990
 1839.20000   21.98170   38.67920   11.31350    2.56250    0.93690
 1839.25000   21.72250   38.51240   11.30740    2.56290    0.92580
 1839.30000   21.49210   38.35840   11.30180    2.56320    0.91470
 1839.35000   21.29700   38.20800   11.29930    2.56350    0.90360
 1839.40000   21.10180   38.02820   11.29690    2.56520    0.89540
 1839.45000   20.88080   37.82820   11.28970    2.57170    0.89190
 1839.50000   20.65190   37.62820   11.27150    2.57810    0.88850
 1839.55000   20.42310   37.35110   11.25660    2.58460    0.87240
 1839.60000   20.19430   37.03750   11.25480    2.58260    0.82710
 1839.65000   19.96550   36.76240   11.25300    2.57470    0.81040
 1839.70000   19.57490   36.50780   11.24530    2.56680    0.79370
 1839.75000   19.20960   36.25310   11.22460    2.55880    0.77710
 1839.80000   18.90700   36.13250   11.20390    2.57930    0.76040
 1839.85000   18.60440   36.13250   11.20410    2.59880    0.74820
 1839.90000   18.13620   36.13250   11.21260    2.60400    0.73690
 1839.95000   17.61750   36.13250   11.21260    2.60910    0.72560
