~Version ---------------------------------------------------
VERS.   2.0 : CWLS log ASCII Standard -VERSION 2.0
WRAP.    NO : One line per depth step
DLM . SPACE : Column Data Section Delimiter
~Well ------------------------------------------------------
STRT.m            1285.0 : START DEPTH
STOP.m            1340.0 : STOP DEPTH
STEP.m           0.05000 : STEP
NULL.           -9999.25 : NULL VALUE
COMP.               TPAO : COMPANY
WELL.     BATIRAMAN #241 : WELL
FLD .          BATIRAMAN : FIELD
LOC .                    : LOCATION
PROV.                    : PROVINCE
CNTY.                    : COUNTY
STAT.                    : STATE
CTRY.             TURKEY : COUNTRY
SRVC.                    : SERVICE COMPANY
DATE. 02-Aug-09 16:36:59 : DATE
UWI .                241 : UNIQUE WELL ID
API .                    : API NUMBER
~Curve Information -----------------------------------------
DEPT   .m          : depths
Caliper.inches     : Caliper, digitalized and interpolated data
GR     .api        : Gamma-Ray, digitalized and interpolated data
GRS    .api        : Gamma-Ray Spectral, digitalized and interpolated data
DT     .mu-sec/ft  : Sonic log, digitalized and interpolated data
Pe     .           : PhotoElectric Effect, digitalized and interpolated data
NEU    .decp       : Neutron log, digitalized and interpolated data
RHOB   .gram/cc    : Density log, digitalized and interpolated data
DenCorr.gram/cc    : Density correction log, digitalized and interpolated data
~Params ----------------------------------------------------
~Other -----------------------------------------------------
~ASCII -----------------------------------------------------
# ...
 1293.00000    8.61470   55.11110   46.82680   71.92570    4.67640    0.12480    2.62860    0.00470
 1293.05000    8.60590   55.30740   46.70670   71.63120    4.68530    0.12400    2.63150    0.00510
 1293.10000    8.59710   55.50370   46.58650   71.33680    4.69430    0.12210    2.63690    0.00550
 1293.15000    8.58830   55.70000   46.46630   71.04240    4.70320    0.11880    2.64190    0.00560
 1293.20000    8.58740   55.89630   46.00060   70.78360    4.71210    0.11610    2.64370    0.00520
 1293.25000    8.58740   56.09260   44.93010   70.58740    4.72200    0.11400    2.64480    0.00490
 1293.30000    8.58740   56.28890   44.13580   70.29890    4.73390    0.11110    2.64210    0.00450
 1293.35000    8.58740   55.91850   43.77800   69.90630    4.74580    0.10790    2.63950    0.00420
 1293.40000    8.58740   55.52590   43.42030   68.65720    4.75770    0.10460    2.63690    0.00380
 1293.45000    8.58740   55.13330   43.06250   68.06840    4.76960    0.10140    2.63410    0.00350
 1293.50000    8.58740   54.59260   42.85970   67.47960    4.78150    0.09930    2.63060    0.00310
 1293.55000    8.58740   53.41480   42.85830   66.89070    4.78410    0.09770    2.62740    0.00280
 1293.60000    8.58740   50.87410   42.85690   66.53380    4.77220    0.09610    2.62560    0.00240
 1293.65000    8.58740   50.08890   42.85550   66.23940    4.76040    0.09450    2.62440    0.00230
 1293.70000    8.58740   49.71110   42.85410   65.94500    4.74850    0.09290    2.62560    0.00230
 1293.75000    8.58740   49.90740   42.85270   65.65060    4.73670    0.09120    2.62680    0.00230
 1293.80000    8.58740   50.10370   42.94140   65.45430    4.72480    0.08960    2.62800    0.00230
 1293.85000    8.58740   50.30000   43.11820   65.25800    4.71040    0.08800    2.62920    0.00230
 1293.90000    8.58740   50.62220   43.29490   65.06170    4.69260    0.08590    2.63040    0.00230
 1293.95000    8.58740   51.01480   43.47170   64.84460    4.67480    0.08370    2.63180    0.00250
 1294.00000    8.58740   51.40740   43.74700   64.55020    4.65710    0.08260    2.63360    0.00290
 1294.05000    8.58740   51.80000   44.10200   64.25580    4.65940    0.08160    2.63540    0.00320
 1294.10000    8.58740   52.19260   44.25130   63.96130    4.68330    0.08050    2.63710    0.00360
 1294.15000    8.58740   52.58520   44.24990   63.66690    4.70710    0.07940    2.63890    0.00400
 1294.20000    8.58740   52.97780   44.24840   63.37250    4.73100    0.07720    2.64070    0.00430
 1294.25000    8.58740   53.29630   44.24700   63.07810    4.75490    0.07500    2.64290    0.00470
 1294.30000    8.58740   52.90370   44.02310   62.78360    4.77870    0.07290    2.64560    0.00500
 1294.35000    8.58740   52.51110   43.66530   62.55170    4.79910    0.07080    2.64830    0.00540
 1294.40000    8.58740   52.11850   43.30760   62.35540    4.81700    0.06940    2.65100    0.00580
 1294.45000    8.58740   51.60000   42.94990   62.15910    4.83490    0.06800    2.65240    0.00590
 1294.50000    8.58740   50.81480   42.59210   61.96280    4.85280    0.06650    2.65240    0.00590
 1294.55000    8.58630   50.02960   42.23440   61.76650    4.83640    0.06510    2.65240    0.00590
 1294.60000    8.57750   49.24440   41.87660   61.57030    4.80110    0.06370    2.65240    0.00590
 1294.65000    8.56870   48.45930   41.51890   61.37400    4.76570    0.06250    2.65240    0.00590
 1294.70000    8.55990   47.67410   41.33200   61.18960    4.73030    0.06220    2.65240    0.00590
 1294.75000    8.55100   47.40740   41.21180   61.18960    4.69490    0.06180    2.65340    0.00590
 1294.80000    8.54220   47.40740   41.09160   61.18960    4.65950    0.06150    2.65520    0.00590
 1294.85000    8.53340   47.40740   40.97140   61.18960    4.65590    0.06110    2.65600    0.00590
 1294.90000    8.52460   47.40740   40.85130   61.18960    4.66780    0.06080    2.65600    0.00590
 1294.95000    8.51750   47.40740   40.73110   61.18960    4.67970    0.06030    2.65490    0.00620
 1295.00000    8.51750   47.40740   40.61090   61.11520    4.69160    0.05980    2.65310    0.00650
 1295.05000    8.51750   47.40740   40.49070   60.91900    4.70350    0.05930    2.65250    0.00680
 1295.10000    8.51750   47.42960   40.37050   60.72270    4.71540    0.05870    2.65250    0.00710
 1295.15000    8.51750   47.62590   40.25030   60.52640    4.73640    0.05830    2.65250    0.00740
 1295.20000    8.51750   47.82220   40.13010   60.33010    4.76020    0.05790    2.65250    0.00770
 1295.25000    8.51750   48.01850   40.00990   60.13380    4.78410    0.05760    2.65370    0.00800
 1295.30000    8.51750   48.14810   39.88980   59.93750    4.80800    0.05720    2.65550    0.00830
 1295.35000    8.51750   48.14810   39.76960   59.74130    4.83180    0.05680    2.65730    0.00860
 1295.40000    8.51750   48.14810   39.64940   59.70260    4.85570    0.05650    2.65910    0.00890
 1295.45000    8.51750   48.14810   39.52920   59.70260    4.87450    0.05690    2.65950    0.00920
 1295.50000    8.51750   47.92590   39.40900   59.70260    4.89230    0.05790    2.65960    0.00950
 1295.55000    8.51750   47.53330   39.28880   59.70260    4.91020    0.05900    2.65960    0.00950
 1295.60000    8.51750   47.14070   39.27940   59.70260    4.92810    0.06000    2.65960    0.00950
 1295.65000    8.51750   46.74810   39.27800   59.73830    4.91330    0.06080    2.65750    0.00950
 1295.70000    8.51750   46.66670   39.27660   60.03270    4.89550    0.06130    2.65490    0.00950
 1295.75000    8.51750   46.66670   39.27520   60.32710    4.87780    0.06190    2.65220    0.00960
 1295.80000    8.51750   46.66670   39.27380   60.62160    4.86000    0.06240    2.64960    0.00960
 1295.85000    8.51750   46.65930   39.27240   60.88330    4.84230    0.06290    2.64770    0.00910
 1295.90000    8.51750   46.26670   39.27100   61.07960    4.82450    0.06350    2.64590    0.00870
 1295.95000    8.51750   45.82220   39.26960   61.27580    4.80680    0.06400    2.64610    0.00820
 1296.00000    8.51750   45.03700   39.26820   61.47210    4.78900    0.06450    2.64670    0.00780
 1296.05000    8.51750   44.44440   39.27290   61.59700    4.78870    0.06510    2.64730    0.00740
 1296.10000    8.51750   44.44440   39.39020   61.66250    4.78870    0.06560    2.64790    0.00690
 1296.15000    8.51750   44.44440   39.50760   61.72790    4.78870    0.06610    2.64850    0.00650
 1296.20000    8.51750   44.44440   39.62500   61.79330    4.78870    0.06660    2.64910    0.00620
 1296.25000    8.51750   44.44440   39.74230   61.85870    4.78870    0.06730    2.65150    0.00710
 1296.30000    8.51750   44.44440   39.85970   61.92420    4.78870    0.06800    2.65420    0.00800
 1296.35000    8.51750   44.78890   40.04990   62.01780    4.78870    0.06870    2.65690    0.00890
 1296.40000    8.51750   45.37780   40.76110   62.11600    4.78870    0.06940    2.65960    0.00980
 1296.45000    8.51750   45.96670   41.47240   62.21410    4.78870    0.07010    2.65970    0.01070
 1296.50000    8.51750   46.55560   42.18370   62.33460    4.78960    0.07080    2.65970    0.01160
 1296.55000    8.51750   47.62220   42.83440   62.72710    4.79860    0.07180    2.65970    0.01250
 1296.60000    8.51750   48.80000   43.18930   62.74800    4.80750    0.07280    2.65970    0.01320
 1296.65000    8.51750   49.97780   43.54420   63.14050    4.81640    0.07460    2.65790    0.01320
 1296.70000    8.51750   51.15560   43.89910   63.53310    4.82530    0.07670    2.65640    0.01320
 1296.75000    8.52080   52.33330   44.25410   63.92570    4.83430    0.07810    2.66000    0.01320
 1296.80000    8.52790   53.45190   44.60900   64.39550    4.84320    0.07910    2.66360    0.01320
 1296.85000    8.53490   54.23700   44.96390   64.98440    4.85210    0.08020    2.66720    0.01320
 1296.90000    8.54200   54.97040   45.31890   65.47510    4.86070    0.08130    2.66430    0.01320
 1296.95000    8.54900   55.55930   45.57940   65.86770    4.86780    0.08270    2.67350    0.01320
