~Version ---------------------------------------------------
VERS.   2.0 : CWLS log ASCII Standard -VERSION 2.0
WRAP.    NO : One line per depth step
DLM . SPACE : Column Data Section Delimiter
~Well ------------------------------------------------------
STRT.m 1682.00000 : START DEPTH
STOP.m 1742.00000 : STOP DEPTH
STEP.m    0.05000 : STEP
NULL.    -9999.25 : NULL VALUE
COMP.     Unknown : COMPANY
WELL.     Unknown : WELL
FLD .     Unknown : FIELD
LOC .             : LOCATION
PROV.             : PROVINCE
CNTY.             : COUNTY
STAT.             : STATE
CTRY.     Unknown : COUNTRY
SRVC.             : SERVICE COMPANY
DATE.     Unknown : DATE
UWI .     Unknown : UNIQUE WELL ID
API .             : API NUMBER
~Curve Information -----------------------------------------
DEPT    .m           : depths
Gamma   .api         : digitalized and interpolated data
SP      .millivolts  : digitalized and interpolated data
Caliper .inches      : digitalized and interpolated data
Bit Size.inches      : digitalized and interpolated data
Tens    .pounds      : digitalized and interpolated data
MSFL    .Ohm-m       : digitalized and interpolated data
LLD     .Ohm-m       : digitalized and interpolated data
LLS     .Ohm-m       : digitalized and interpolated data
~Params ----------------------------------------------------
~Other -----------------------------------------------------
~ASCII -----------------------------------------------------
# ...
 1690.00000   13.32260   14.94980    5.65420    5.92230 2961.95290  130.85749  169.97333  195.61727
 1690.05000   12.94920   14.76610    5.65080    5.92420 2970.05000  132.96508  169.13496  201.46815
 1690.10000   12.63700   14.57010    5.66140    5.92220 2978.14710  137.99895  168.84360  209.94455
 1690.15000   12.47700   14.32290    5.68080    5.92020 2986.24430  144.64799  172.96674  210.93235
 1690.20000   12.31710   14.07560    5.70010    5.91940 2987.64510  150.27461  177.76923  224.49196
 1690.25000   12.15710   13.82840    5.65460    5.91940 2985.80060  153.41252  185.37134  235.16668
 1690.30000   12.16960   13.59190    5.64370    5.91940 2983.95600  155.11136  192.01316  249.49532
 1690.35000   12.33740   13.36020    5.63560    5.91940 2976.17720  156.37791  199.01050  265.91020
 1690.40000   12.50520   13.12850    5.62750    5.91940 2965.80280  157.57655  206.32944  293.27389
 1690.45000   12.77210   12.96920    5.70660    5.91940 2955.41520  159.71790  215.59873  318.96659
 1690.50000   13.15780   13.11170    5.70680    5.91940 2942.09420  165.62046  229.11504  331.59838
 1690.55000   13.54340   13.25410    5.70700    5.91940 2928.77320  173.32954  241.84872  314.16312
 1690.60000   13.88230   13.39650    5.68260    5.91940 2915.45220  171.57444  259.06133  350.81810
 1690.65000   14.22120   13.56090    5.64980    5.91940 2904.39550  169.83703  271.17447  355.98213
 1690.70000   14.08450   13.81040    5.64620    5.91890 2911.36070  168.11730  281.71281  372.96029
 1690.75000   13.93610   14.05990    5.64260    5.91370 2918.32590  169.36794  294.32029  368.62144
 1690.80000   13.71410   14.32100    5.64040    5.90980 2925.29110  171.63608  306.55866  365.61230
 1690.85000   13.11430   14.61490    5.64360    5.91420 2933.08200  169.61927  318.56246  364.41748
 1690.90000   12.34700   14.90870    5.64670    5.91850 2944.14860  165.24952  347.52207  362.36179
 1690.95000   11.41050   15.17290    5.65380    5.92280 2955.21510  162.26274  345.51523  337.84788
 1691.00000   10.57050   15.37630    5.66980    5.92480 2966.28170  161.11152  336.26200  341.00190
 1691.05000    9.75110   15.57960    5.68570    5.92270 2978.30230  160.85805  338.01471  344.18536
 1691.10000    8.95300   15.78300    5.65570    5.92070 2993.75670  160.60505  339.77654  347.39855
 1691.15000    8.34430   16.09480    5.64570    5.91940 3009.21110  155.86880  329.84887  343.54339
 1691.20000    7.85400   16.41640    5.66540    5.91940 3024.39510  154.38745  321.90728  331.82935
 1691.25000    7.47630   16.75710    5.68510    5.91940 3019.66460  152.92025  315.17183  337.36979
 1691.30000    7.19670   17.15890    5.63320    5.91940 3014.93420  151.46699  311.83079  344.40543
 1691.35000    6.91700   17.56070    5.63330    5.91940 3008.72810  150.49213  308.52531  354.16089
 1691.40000    6.63740   17.94980    5.63350    5.91940 2998.21140  151.81168  309.21944  371.33065
 1691.45000    6.73870   18.33280    5.69700    5.91940 2987.69480  153.14287  313.48286  388.65369
 1691.50000    6.84990   18.71580    5.69710    5.91940 2977.17810  154.48567  317.80490  405.97285
 1691.55000    6.96110   18.98510    5.63630    5.91900 2964.02800  155.65906  323.93792  401.05709
 1691.60000    7.07220   19.24400    5.63430    5.91770 2950.22410  156.78474  332.88559  413.68693
 1691.65000    7.36320   19.50290    5.63450    5.91810 2936.42010  159.93422  346.33118  445.10800
 1691.70000    7.70840   19.76170    5.70150    5.93470 2922.61610  161.93204  358.34025  460.36065
 1691.75000    8.26310   20.02060    5.68330    5.95120 2915.11990  160.86227  367.93881  476.50076
 1691.80000    9.21850   20.27950    5.66500    5.90370 2923.39000  159.79957  379.68723  467.11326
 1691.85000   10.41030   20.58270    5.64920    5.90950 2931.66010  160.62724  395.23354  504.27704
 1691.90000   11.70380   20.92050    5.69040    5.91520 2939.93020  163.16470  407.84862  479.16115
 1691.95000   12.91860   21.25820    5.73160    5.92090 2951.65600  165.74216  417.45262  481.61322
 1692.00000   13.76780   21.59600    5.69250    5.92430 2968.64250  169.61771  427.23655  484.07806
 1692.05000   14.55300   21.90270    5.67670    5.91810 2985.62910  174.05175  436.09589  492.43260
 1692.10000   15.29910   22.20840    5.67420    5.91190 2996.00210  190.11317  433.31348  459.08320
 1692.15000   15.86760   22.51410    5.67180    5.90570 2995.20320  215.13694  430.54861  414.90130
 1692.20000   16.38770   23.01500    5.66930    5.94490 2994.40430  249.73396  427.80159  414.77445
 1692.25000   16.83710   23.53520    5.66660    5.96200 2993.60540  262.05690  413.16012  366.54981
 1692.30000   17.30740   24.11460    5.66390    5.96200 2998.69370  268.53667  396.87139  378.21940
 1692.35000   17.94580   24.81980    5.66260    5.96150 3004.09790  248.02839  379.88539  337.78114
 1692.40000   18.15100   25.52510    5.66280    5.93140 3009.50200  231.50192  362.08789  325.26265
 1692.45000   18.10270   26.23040    5.66300    5.91190 3010.94040  213.99607  341.93519  314.02903
 1692.50000   17.11540   26.93570    5.66310    5.91510 3011.58560  195.62015  313.38456  300.19150
 1692.55000   16.56010   27.69230    5.66330    5.91820 3010.76370  183.48738  303.30055  292.12316
 1692.60000   16.02470   28.50770    5.66300    5.92130 3007.54390  173.19861  285.75866  294.69733
 1692.65000   15.49910   29.22700    5.65940    5.93550 3004.32420  169.67865  274.19933  301.30379
 1692.70000   15.15880   29.60470    5.65590    5.95060 3001.10440  166.23015  252.81078  296.34841
 1692.75000   14.89460   29.98240    5.65560    5.95410 3004.91360  164.77101  250.52842  295.50239
 1692.80000   14.63040   30.36010    5.65570    5.92200 3014.63740  164.37728  248.26666  298.63424
 1692.85000   14.41390   30.83610    5.65590    5.92580 3024.36110  163.98450  246.02543  301.79914
 1692.90000   14.22040   31.31520    5.65610    5.95920 3031.79200  163.59273  243.80432  304.76816
 1692.95000   14.02690   31.61750    5.65490    5.92940 3033.22290  162.50345  241.60326  307.71268
 1693.00000   13.92280   31.86640    5.65350    5.90390 3034.65390  161.14461  242.71655  310.53503
 1693.05000   13.88730   31.99540    5.65220    5.92020 3036.08480  159.79714  244.15330  313.06981
 1693.10000   13.85180   32.06960    5.65080    5.93000 3039.05160  158.16522  245.60647  315.62515
 1693.15000   13.81630   32.14370    5.65590    5.92120 3043.53890  156.39620  247.12791  317.54494
 1693.20000   13.93200   32.21780    5.66110    5.91240 3048.02610  154.64703  248.65889  318.49366
 1693.25000   14.18090   32.29200    5.66570    5.92340 3043.48220  153.22922  257.20464  319.44522
 1693.30000   14.42980   32.11610    5.66320    5.95920 3026.21050  151.90504  254.66121  320.39962
 1693.35000   14.58860   31.88770    5.66070    5.93440 3008.93870  148.91443  254.14408  311.97198
 1693.40000   14.72760   31.64130    5.65820    5.90430 2991.66700  145.58284  254.04953  308.62165
 1693.45000   14.87480   31.39490    5.65740    5.93800 2992.15850  142.83354  253.95502  305.30731
 1693.50000   15.04580   31.14850    5.65780    5.95930 2995.34560  140.66550  251.41755  302.02855
 1693.55000   15.21680   30.98600    5.65830    5.91060 2998.53280  139.39949  248.85032  298.12967
 1693.60000   15.38780   30.94290    5.65880    5.94080 3001.72000  138.14488  246.30929  294.12450
 1693.65000   15.39050   30.89990    5.65980    5.95440 3006.77790  137.52365  243.79421  284.19498
 1693.70000   15.37620   30.84890    5.66070    5.89170 3016.52750  137.66064  241.30482  278.97520
 1693.75000   15.13610   30.70010    5.68700    5.87480 3026.27720  137.79784  236.90106  277.30813
 1693.80000   14.87350   30.55120    5.71620    5.89280 3024.41740  137.93510  232.45837  275.65114
 1693.85000   14.18300   30.35230    5.67500    5.93240 3020.38100  131.63591  229.73258  273.92066
 1693.90000   13.62560   30.12410    5.73740    5.95500 3016.34470  122.41296  227.03865  272.02336
 1693.95000   13.28070   29.89600    5.79980    5.90420 3012.80780   94.13185  224.37631  270.13919
