~Version ---------------------------------------------------
VERS.   2.0 : CWLS log ASCII Standard -VERSION 2.0
WRAP.    NO : One line per depth step
DLM . SPACE : Column Data Section Delimiter
~Well ------------------------------------------------------
STRT.m            1285.0 : START DEPTH
STOP.m            1340.0 : STOP DEPTH
STEP.m           0.05000 : STEP
NULL.           -9999.25 : NULL VALUE
COMP.               TPAO : COMPANY
WELL.     BATIRAMAN #241 : WELL
FLD .          BATIRAMAN : FIELD
LOC .                    : LOCATION
PROV.                    : PROVINCE
CNTY.                    : COUNTY
STAT.                    : STATE
CTRY.             TURKEY : COUNTRY
SRVC.                    : SERVICE COMPANY
DATE. 02-Aug-09 16:36:59 : DATE
UWI .                241 : UNIQUE WELL ID
API .                    : API NUMBER
~Curve Information -----------------------------------------
DEPT   .m          : depths
Caliper.inches     : Caliper, digitalized and interpolated data
GR     .api        : Gamma-Ray, digitalized and interpolated data
GRS    .api        : Gamma-Ray Spectral, digitalized and interpolated data
DT     .mu-sec/ft  : Sonic log, digitalized and interpolated data
Pe     .           : PhotoElectric Effect, digitalized and interpolated data
NEU    .decp       : Neutron log, digitalized and interpolated data
RHOB   .gram/cc    : Density log, digitalized and interpolated data
DenCorr.gram/cc    : Density correction log, digitalized and interpolated data
~Params ----------------------------------------------------
~Other -----------------------------------------------------
~ASCII -----------------------------------------------------
# ...
 1301.00000    8.51860   84.88890   20.81750   57.75460    5.00000    0.03100    2.66500    0.01380
 1301.05000    8.52570   84.41480   20.81600   57.00220    5.00000    0.02870    2.65730    0.01330
 1301.10000    8.53270   81.27410   20.53580   56.41340    5.00000    0.02320    2.66270    0.01150
 1301.15000    8.53970   66.84440   19.46530   55.90480    5.00000    0.02230    2.66820    0.00980
 1301.20000    8.54680   65.27410   18.49630   55.61040    5.00000    0.01900    2.67360    0.00800
 1301.25000    8.55380   63.51850   17.78220   55.31600    4.99600    0.01650    2.67770    0.00630
 1301.30000    8.56090   61.55560   17.06820   55.02160    4.98180    0.01760    2.67680    0.00450
 1301.35000    8.56790   56.40000   16.35410   54.96510    4.96760    0.01860    2.67600    0.00320
 1301.40000    8.57500   54.04440   15.75830   55.16130    4.95330    0.01970    2.67510    0.00280
 1301.45000    8.58200   54.18520   15.40060   55.35760    4.93910    0.02110    2.67310    0.00230
 1301.50000    8.58740   52.22220   15.04280   55.55390    4.92490    0.02430    2.66790    0.00190
 1301.55000    8.58740   48.25190   14.68510   56.02380    4.91070    0.02720    2.66150    0.00150
 1301.60000    8.58740   47.46670   14.32730   56.61260    4.89650    0.02930    2.65130    0.00100
 1301.65000    8.58740   44.83700   13.96960   56.88620    4.88230    0.03140    2.64200    0.00060
 1301.70000    8.58740   41.39260   13.61180   57.08250    4.86810    0.03350    2.63680    0.00020
 1301.75000    8.58740   39.03700   13.25410   57.27880    4.86920    0.03560    2.63180    0.00040
 1301.80000    8.58740   38.96300   12.97240   57.46910    4.89610    0.03770    2.62830    0.00160
 1301.85000    8.58740   37.00000   12.79280   57.27290    4.92290    0.03930    2.62630    0.00280
 1301.90000    8.58740   35.65930   12.61320   57.07660    4.94980    0.03820    2.63270    0.00400
 1301.95000    8.58740   36.05190   12.43370   56.88030    4.97670    0.03720    2.63910    0.00520
 1302.00000    8.58740   36.44440   12.28220   56.68400    5.00350    0.03610    2.64550    0.00640
 1302.05000    8.58740   36.83700   12.16210   56.48770    5.03040    0.03500    2.63700    0.00760
 1302.10000    8.58740   37.42220   12.04190   56.29140    5.05730    0.03390    2.64150    0.00900
 1302.15000    8.58740   38.20740   11.92170   56.09520    5.07950    0.03290    2.64610    0.01030
 1302.20000    8.58740   38.28150   11.80150   55.98510    5.09740    0.03180    2.65060    0.01160
 1302.25000    8.58740   37.88890   11.68130   55.98510    5.11530    0.03070    2.65410    0.01300
 1302.30000    8.58740   37.49630   11.82030   55.94940    5.13320    0.02960    2.65590    0.01430
 1302.35000    8.58740   37.10370   12.17520   55.88400    5.13270    0.02860    2.65770    0.01570
 1302.40000    8.58740   35.22960   12.53010   55.81860    5.11850    0.02750    2.65950    0.01700
 1302.45000    8.58740   34.83700   12.88510   55.75320    5.10430    0.02620    2.66210    0.01690
 1302.50000    8.58740   34.44440   13.34560   55.68770    5.09010    0.02460    2.66570    0.01600
 1302.55000    8.58740   34.25190   13.87870   55.62230    5.07590    0.02300    2.66930    0.01520
 1302.60000    8.58740   37.39260   14.41180   55.27430    5.06170    0.02140    2.67290    0.01430
 1302.65000    8.58740   38.98520   14.94490   54.88180    5.04740    0.01980    2.67750    0.01340
 1302.70000    8.58740   41.73330   15.28790   54.48920    5.03320    0.01810    2.68300    0.01250
 1302.75000    8.58740   47.74070   15.52400   54.12140    5.01900    0.01650    2.68510    0.01170
 1302.80000    8.58740   48.91850   15.76020   54.05600    5.00480    0.01490    2.68510    0.01080
 1302.85000    8.58740   53.80000   15.99630   53.99060    4.99060    0.01360    2.68400    0.01050
 1302.90000    8.58200   54.97780   16.23250   53.92520    4.97640    0.01250    2.68230    0.01060
 1302.95000    8.57030   56.15560   16.46860   53.85970    4.96220    0.01210    2.68050    0.01060
 1303.00000    8.55850   57.33330   16.62030   53.79430    4.94800    0.01210    2.67880    0.01060
 1303.05000    8.54680   58.26670   16.73760   53.78040    4.93370    0.01210    2.67930    0.01060
 1303.10000    8.53500   59.05190   16.85500   53.84580    4.91950    0.01210    2.68110    0.01060
 1303.15000    8.52330   60.12590   16.97240   53.91130    4.90530    0.01210    2.68290    0.01110
 1303.20000    8.51750   61.30370   17.08980   53.97670    4.89110    0.01210    2.68470    0.01170
 1303.25000    8.51750   66.18520   17.20710   54.04210    4.87690    0.01210    2.68650    0.01230
 1303.30000    8.51750   67.36300   17.23150   54.10760    4.86270    0.01210    2.68830    0.01280
 1303.35000    8.51750   70.76300   17.23010   54.12640    4.85920    0.01210    2.68500    0.01340
 1303.40000    8.51750   71.79260   17.22870   54.12640    4.85920    0.01210    2.68950    0.01400
 1303.45000    8.51750   71.00740   17.22730   54.12640    4.85920    0.01210    2.69410    0.01410
 1303.50000    8.51750   70.14810   17.22590   54.12640    4.85920    0.01210    2.69860    0.01410
 1303.55000    8.51750   68.97040   17.22450   54.12640    4.85920    0.01290    2.69850    0.01410
 1303.60000    8.51750   65.33330   17.07100   54.12640    4.85920    0.01400    2.69770    0.01420
 1303.65000    8.51750   63.37040   16.89140   54.12640    4.88130    0.01500    2.69680    0.01380
 1303.70000    8.51750   63.46670   16.71180   54.15320    4.90820    0.01610    2.69590    0.01330
 1303.75000    8.51750   61.11110   16.53220   54.34940    4.93500    0.01710    2.69420    0.01290
 1303.80000    8.51750   57.57040   16.51320   54.54570    4.96190    0.01820    2.69250    0.01240
 1303.85000    8.51750   57.17780   16.51180   54.74200    4.98880    0.01920    2.68920    0.01200
 1303.90000    8.51750   56.78520   16.51040   54.93830    5.01560    0.02030    2.68570    0.01160
 1303.95000    8.51750   56.39260   16.50900   55.13460    5.04250    0.02140    2.68220    0.01110
 1304.00000    8.51750   55.40740   16.50760   55.33090    5.06940    0.02240    2.67870    0.01070
 1304.05000    8.51750   54.22960   16.50620   55.52710    5.04770    0.02430    2.66340    0.01030
 1304.10000    8.51750   54.75560   16.50480   55.72340    5.02410    0.02640    2.65820    0.00980
 1304.15000    8.51750   55.54070   16.50340   55.91970    5.00040    0.02730    2.65300    0.00940
 1304.20000    8.51750   56.71110   16.50200   56.11600    4.97680    0.02780    2.64780    0.00900
 1304.25000    8.51750   59.40740   16.49820   56.31230    4.95310    0.02830    2.64250    0.00850
 1304.30000    8.51750   60.97780   16.37800   56.50860    4.92960    0.02890    2.63730    0.00810
 1304.35000    8.51750   61.06670   16.25780   56.70480    4.92960    0.02840    2.62990    0.00770
 1304.40000    8.51750   62.63700   16.13760   56.72860    4.92960    0.02760    2.63080    0.00730
 1304.45000    8.51750   63.45190   16.01750   56.72860    4.92960    0.02690    2.63170    0.00770
 1304.50000    8.51750   62.66670   15.89730   56.72860    4.92960    0.02620    2.63260    0.00800
 1304.55000    8.51750   61.71110   15.77170   56.72860    4.92960    0.02550    2.63150    0.00840
 1304.60000    8.51750   60.53330   15.59210   56.72860    4.92960    0.02480    2.63890    0.00870
 1304.65000    8.51750   59.78520   15.41250   56.72860    4.92960    0.02410    2.64780    0.00910
 1304.70000    8.51750   59.39260   15.23300   56.72860    4.92960    0.02340    2.65700    0.00950
 1304.75000    8.51750   59.25930   15.04520   56.72860    4.92960    0.02260    2.65900    0.00980
 1304.80000    8.51750   59.25930   14.80620   56.72860    4.93400    0.02190    2.66800    0.01020
 1304.85000    8.51750   59.25930   14.56720   56.72860    4.96990    0.02120    2.67160    0.01050
 1304.90000    8.51750   59.25930   14.32830   56.72860    4.99720    0.02060    2.67470    0.01090
 1304.95000    8.51750   58.91110   14.08930   56.72860    4.97940    0.02160    2.67210    0.01130
