~Version ---------------------------------------------------
VERS.   2.0 : CWLS log ASCII Standard -VERSION 2.0
WRAP.    NO : One line per depth step
DLM . SPACE : Column Data Section Delimiter
~Well ------------------------------------------------------
STRT.m 1786.00000 : START DEPTH
STOP.m 1840.00000 : STOP DEPTH
STEP.m    0.05000 : STEP
NULL.    -9999.25 : NULL VALUE
COMP.     Unknown : COMPANY
WELL.     Unknown : WELL
FLD .     Unknown : FIELD
LOC .             : LOCATION
PROV.             : PROVINCE
CNTY.             : COUNTY
STAT.             : STATE
CTRY.     Unknown : COUNTRY
SRVC.             : SERVICE COMPANY
DATE.     Unknown : DATE
UWI .     Unknown : UNIQUE WELL ID
API .             : API NUMBER
~Curve Information -----------------------------------------
DEPT      .m              : depths
GammaKT   .api            : digitalized and interpolated data
GammaTotal.api            : digitalized and interpolated data
Thorium   .parts-per-mil  : digitalized and interpolated data
Uranium   .parts-per-mil  : digitalized and interpolated data
Potassium .percent        : digitalized and interpolated data
~Params ----------------------------------------------------
~Other -----------------------------------------------------
~ASCII -----------------------------------------------------
# ...
 1828.00000   33.96920   49.02900   11.93720    2.38420    1.45640
 1828.05000   33.74700   48.76780   11.92710    2.37450    1.44680
 1828.10000   33.63710   48.50670   11.91530    2.36860    1.43730
 1828.15000   33.52730   48.51630   11.90350    2.36330    1.42770
 1828.20000   33.41740   48.71890   11.89170    2.37010    1.41840
 1828.25000   33.43350   48.92150   11.87990    2.37700    1.42960
 1828.30000   33.51880   49.30260   11.88880    2.39410    1.44080
 1828.35000   33.60420   49.95530   11.91280    2.41670    1.45200
 1828.40000   34.03270   50.36570   11.92750    2.43940    1.46320
 1828.45000   34.68280   50.97640   11.92240    2.45850    1.52220
 1828.50000   35.10530   51.68900   11.92460    2.45880    1.54160
 1828.55000   35.52780   52.19240   11.96760    2.45920    1.56110
 1828.60000   35.95030   52.78210   12.01070    2.45950    1.58080
 1828.65000   36.57200   53.44700   12.05000    2.44530    1.60130
 1828.70000   37.30350   53.85110   12.08360    2.42190    1.62190
 1828.75000   38.08110   54.28670   12.11730    2.39850    1.65400
 1828.80000   38.75620   54.93910   12.15090    2.36110    1.69780
 1828.85000   39.32060   55.33480   12.18210    2.32360    1.71800
 1828.90000   39.85410   55.68990   12.21120    2.27790    1.73820
 1828.95000   40.33120   55.93870   12.24040    2.22460    1.75620
 1829.00000   40.85390   56.17460   12.26950    2.17120    1.77230
 1829.05000   41.47690   56.42420   12.29870    2.15650    1.79140
 1829.10000   41.98990   56.70400   12.32560    2.14320    1.81260
 1829.15000   42.46670   56.96610   12.34000    2.12990    1.83370
 1829.20000   42.74550   57.21390   12.35440    2.11470    1.85480
 1829.25000   43.01260   57.46170   12.36880    2.09930    1.86950
 1829.30000   43.25150   57.68950   12.38200    2.09420    1.88420
 1829.35000   43.49030   57.90250   12.38420    2.10390    1.89880
 1829.40000   43.71580   58.11550   12.38630    2.11350    1.94460
 1829.45000   43.93730   58.35220   12.38920    2.11410    1.96590
 1829.50000   44.15870   58.59050   12.39490    2.11140    1.96020
 1829.55000   44.30400   58.77120   12.40060    2.10870    1.95450
 1829.60000   44.44880   58.87490   12.40980    2.10620    1.94910
 1829.65000   44.59360   58.97870   12.42670    2.10390    1.95100
 1829.70000   44.74450   59.08240   12.44360    2.10020    1.95290
 1829.75000   44.92660   59.33190   12.46690    2.09600    1.96310
 1829.80000   45.10960   59.61820   12.49450    2.09380    1.97900
 1829.85000   45.48790   60.04780   12.52220    2.09410    1.99490
 1829.90000   45.90290   60.62070   12.55100    2.09450    2.01000
 1829.95000   46.52140   61.31980   12.58980    2.09480    2.02510
 1830.00000   47.08300   61.75580   12.62810    2.08570    2.07220
 1830.05000   47.60460   62.04190   12.66030    2.06700    2.11480
 1830.10000   48.10350   62.22360   12.69250    2.04820    2.11690
 1830.15000   48.47120   61.89610   12.72560    2.02940    2.11910
 1830.20000   48.64740   61.58360   12.75900    1.99540    2.12120
 1830.25000   48.82370   61.41820   12.78830    1.94010    2.12190
 1830.30000   49.00000   61.25270   12.80700    1.88490    2.12170
 1830.35000   49.17620   61.06910   12.82580    1.84520    2.12160
 1830.40000   49.23360   60.84690   12.84460    1.81070    2.12140
 1830.45000   49.25580   60.63410   12.86040    1.77850    2.12120
 1830.50000   49.27800   60.49280   12.87590    1.75190    2.12100
 1830.55000   49.30030   60.35150   12.89140    1.72530    2.12090
 1830.60000   49.39910   60.22250   12.90700    1.69320    2.12070
 1830.65000   49.52790   60.12730   12.92250    1.65940    2.12050
 1830.70000   49.65650   60.03210   12.93800    1.63120    2.12040
 1830.75000   49.78500   59.93690   12.96090    1.60730    2.12020
 1830.80000   49.87850   59.87470   12.98630    1.58420    2.12000
 1830.85000   49.85850   59.81860   13.00530    1.56580    2.11990
 1830.90000   49.83840   59.76250   13.00660    1.54740    2.11970
 1830.95000   49.09530   59.70640   13.00790    1.52910    2.12440
 1831.00000   48.54310   59.71800   13.01090    1.52560    2.13010
 1831.05000   48.39360   59.76310   13.04100    1.52590    2.13570
 1831.10000   49.22710   59.80830   13.07120    1.52990    2.14140
 1831.15000   50.22400   60.44470   13.10150    1.53990    2.14700
 1831.20000   50.93400   61.45230   13.13870    1.54480    2.15290
 1831.25000   51.66460   62.51080   13.17590    1.54820    2.18550
 1831.30000   52.45350   63.39890   13.21530    1.55160    2.21810
 1831.35000   53.21640   63.97590   13.26980    1.55410    2.23700
 1831.40000   53.88380   64.47930   13.32420    1.55640    2.24250
 1831.45000   54.44440   64.80550   13.37430    1.55880    2.24810
 1831.50000   54.81780   65.11930   13.40780    1.55220    2.26050
 1831.55000   55.15170   65.39340   13.44130    1.53740    2.27440
 1831.60000   55.48550   65.60130   13.46420    1.52250    2.28490
 1831.65000   55.76620   65.69250   13.47450    1.53040    2.28990
 1831.70000   55.69260   65.60310   13.48490    1.54220    2.29490
 1831.75000   55.61890   65.49610   13.49520    1.54950    2.29990
 1831.80000   55.44670   65.32640   13.49120    1.55460    2.29780
 1831.85000   54.80780   65.15670   13.47740    1.55960    2.29010
 1831.90000   54.51710   64.98690   13.46370    1.55270    2.28230
 1831.95000   54.40360   64.80770   13.44990    1.52800    2.26400
 1832.00000   54.29010   64.62030   13.43350    1.53340    2.23550
 1832.05000   54.11000   64.31910   13.41340    1.56480    2.21700
 1832.10000   53.77750   63.54100   13.39340    1.59530    2.20000
 1832.15000   53.41370   62.82050   13.36840    1.59360    2.18310
 1832.20000   52.93650   62.24750   13.34130    1.59190    2.16600
 1832.25000   52.45920   61.75030   13.31430    1.59020    2.14870
 1832.30000   51.98200   61.30230   13.28720    1.58700    2.13140
 1832.35000   51.48040   60.88850   13.26010    1.58320    2.11400
 1832.40000   50.99970   60.40380   13.22610    1.57940    2.09670
 1832.45000   50.58710   59.88530   13.18530    1.57570    2.07830
 1832.50000   50.17630   59.36960   13.14900    1.58710    2.05960
 1832.55000   49.81850   58.85560   13.12360    1.60580    2.04090
 1832.60000   49.46060   58.73040   13.09830    1.61430    2.02220
 1832.65000   49.00900   58.67450   13.07340    1.61460    2.00350
 1832.70000   48.41410   58.61860   13.04920    1.62570    1.99210
 1832.75000   48.13110   58.48930   13.02600    1.63920    1.98060
 1832.80000   47.87500   58.31880   13.00920    1.65200    1.96920
 1832.85000   47.61890   58.14840   12.99250    1.65270    1.95710
 1832.90000   47.36270   57.63630   12.97670    1.65330    1.93910
 1832.95000   47.00670   57.09910   12.96130    1.65390    1.92110
 1833.00000   46.60100   56.73580   12.92850    1.66190    1.90310
 1833.05000   46.10950   56.38800   12.88940    1.67370    1.88600
 1833.10000   45.55220   56.12670   12.85030    1.68330    1.87160
 1833.15000   45.16040   55.86540   12.81120    1.69030    1.85680
 1833.20000   44.81310   55.56710   12.78460    1.69960    1.81930
 1833.25000   44.42140   55.26320   12.76150    1.71970    1.78170
 1833.30000   43.80280   55.09540   12.73840    1.73980    1.76390
 1833.35000   43.43980   55.05670   12.72200    1.76750    1.74730
 1833.40000   43.14790   55.01800   12.71750    1.79710    1.73060
 1833.45000   42.85600   54.97210   12.71290    1.82430    1.71530
 1833.50000   42.56400   54.56460   12.69910    1.84430    1.70520
 1833.55000   42.27210   54.09800   12.68010    1.86430    1.69510
 1833.60000   41.84920   53.53510   12.66110    1.87860    1.67300
 1833.65000   41.31040   52.61820   12.63170    1.86710    1.64610
 1833.70000   40.65730   51.09810   12.58790    1.85570    1.61000
 1833.75000   39.89130   49.47650   12.53680    1.84430    1.57390
 1833.80000   38.93700   47.35910   12.46880    1.80830    1.51070
 1833.85000   37.90030   45.79040   12.40070    1.75940    1.42450
 1833.90000   36.86100   44.38230   12.33270    1.70990    1.37070
 1833.95000   35.12320   43.19530   12.25760    1.65620    1.33630
