~Version ---------------------------------------------------
VERS.   2.0 : CWLS log ASCII Standard -VERSION 2.0
WRAP.    NO : One line per depth step
DLM . SPACE : Column Data Section Delimiter
~Well ------------------------------------------------------
STRT.m            1285.0 : START DEPTH
STOP.m            1340.0 : STOP DEPTH
STEP.m           0.05000 : STEP
NULL.           -9999.25 : NULL VALUE
COMP.               TPAO : COMPANY
WELL.     BATIRAMAN #241 : WELL
FLD .          BATIRAMAN : FIELD
LOC .                    : LOCATION
PROV.                    : PROVINCE
CNTY.                    : COUNTY
STAT.                    : STATE
CTRY.             TURKEY : COUNTRY
SRVC.                    : SERVICE COMPANY
DATE. 02-Aug-09 16:36:59 : DATE
UWI .                241 : UNIQUE WELL ID
API .                    : API NUMBER
~Curve Information -----------------------------------------
DEPT   .m          : depths
Caliper.inches     : Caliper, digitalized and interpolated data
GR     .api        : Gamma-Ray, digitalized and interpolated data
GRS    .api        : Gamma-Ray Spectral, digitalized and interpolated data
DT     .mu-sec/ft  : Sonic log, digitalized and interpolated data
Pe     .           : PhotoElectric Effect, digitalized and interpolated data
NEU    .decp       : Neutron log, digitalized and interpolated data
RHOB   .gram/cc    : Density log, digitalized and interpolated data
DenCorr.gram/cc    : Density correction log, digitalized and interpolated data
~Params ----------------------------------------------------
~Other -----------------------------------------------------
~ASCII -----------------------------------------------------
# ...
 1309.00000    8.51750   73.25930   16.69070   54.49440    4.94480    0.01470    2.67330    0.01600
 1309.05000    8.51750   72.67040   16.51110   54.44540    4.93080    0.01420    2.67380    0.01690
 1309.10000    8.51750   71.91110   16.36390   54.39630    4.93980    0.01380    2.67420    0.01780
 1309.15000    8.51750   71.12590   16.36250   54.34720    4.94870    0.01350    2.67470    0.01870
 1309.20000    8.51750   70.53330   16.36110   54.29810    4.95760    0.01310    2.67510    0.01950
 1309.25000    8.51750   69.94440   16.35970   54.24910    4.96650    0.01280    2.67540    0.02040
 1309.30000    8.51750   69.35560   16.35830   54.20000    4.97550    0.01240    2.67420    0.02130
 1309.35000    8.51750   68.72590   16.35690   54.15090    4.98440    0.01210    2.67300    0.02210
 1309.40000    8.51750   67.94070   16.35550   54.12640    4.99330    0.01170    2.67190    0.02270
 1309.45000    8.51750   67.15560   16.35410   54.12640    4.99780    0.01130    2.67070    0.02330
 1309.50000    8.51750   66.37040   16.35270   54.12640    4.98890    0.01100    2.66950    0.02390
 1309.55000    8.51750   65.58520   16.35130   54.12640    4.98000    0.01060    2.66920    0.02450
 1309.60000    8.51750   64.80000   16.34990   54.03320    4.97110    0.01030    2.67280    0.02510
 1309.65000    8.51750   63.80000   16.34840   53.90240    4.96220    0.01000    2.67640    0.02550
 1309.70000    8.51750   62.62220   16.34700   53.77150    4.95330    0.01000    2.68000    0.02550
 1309.75000    8.51750   60.92590   16.34560   53.64060    4.94440    0.01000    2.68410    0.02550
 1309.80000    8.51750   58.96300   16.34420   53.50980    4.93550    0.01000    2.68960    0.02550
 1309.85000    8.51750   59.98150   16.34280   53.38290    4.92960    0.01000    2.69440    0.02510
 1309.90000    8.51750   59.00000   16.25310   53.38290    4.92960    0.01000    2.69800    0.02420
 1309.95000    8.51750   58.01850   16.01420   53.38290    4.92960    0.01000    2.69950    0.02340
 1310.00000    8.51750   57.03700   15.77520   53.38290    4.92960    0.01000    2.69770    0.02250
 1310.05000    8.51750   58.21480   15.53620   53.41460    4.92960    0.00990    2.69600    0.02140
 1310.10000    8.51750   59.34810   15.29730   53.54550    4.92960    0.00960    2.69420    0.02000
 1310.15000    8.51750   60.13330   15.05830   53.67630    4.93920    0.00940    2.69210    0.01860
 1310.20000    8.51750   60.74070   14.87190   53.80720    4.96310    0.00910    2.68950    0.01720
 1310.25000    8.51750   60.74070   14.75170   53.93800    4.98690    0.00880    2.68680    0.01580
 1310.30000    8.51750   60.74070   14.63150   54.06890    5.01080    0.00860    2.68420    0.01440
 1310.35000    8.51750   60.74070   14.51140   54.12640    5.03470    0.00830    2.68270    0.01300
 1310.40000    8.51750   60.20740   14.39120   54.12640    5.05850    0.00800    2.68270    0.01160
 1310.45000    8.51750   59.02960   14.27100   54.12640    5.06450    0.00790    2.68270    0.01020
 1310.50000    8.51750   54.37040   14.16600   54.12640    5.05260    0.00790    2.68270    0.00880
 1310.55000    8.51750   53.58520   14.07560   54.12640    5.04080    0.00790    2.68270    0.00770
 1310.60000    8.51750   52.00000   13.98510   54.12640    5.02890    0.00790    2.68270    0.00700
 1310.65000    8.51750   50.03700   13.89460   54.12640    5.01710    0.00790    2.68230    0.00630
 1310.70000    8.51750   50.80000   13.80410   54.12640    5.00520    0.00790    2.68140    0.00560
 1310.75000    8.51750   50.40740   13.71360   54.12640    4.98680    0.00800    2.68050    0.00490
 1310.80000    8.51750   50.01480   13.62310   54.13230    4.96310    0.00830    2.67970    0.00420
 1310.85000    8.51750   49.64440   13.53260   54.19780    4.93950    0.00860    2.67860    0.00350
 1310.90000    8.51750   50.42960   13.71320   54.26320    4.91580    0.00880    2.67750    0.00280
 1310.95000    8.51750   51.21480   14.06820   54.32860    4.89220    0.00910    2.67630    0.00220
 1311.00000    8.51750   52.00000   14.42310   54.39410    4.86860    0.00940    2.67510    0.00150
 1311.05000    8.51750   58.48150   14.77800   54.45950    4.86630    0.00960    2.67400    0.00240
 1311.10000    8.51750   64.37040   15.13300   54.52490    4.87820    0.00990    2.67280    0.00410
 1311.15000    8.51750   61.22960   15.48790   54.59030    4.89010    0.01060    2.66340    0.00590
 1311.20000    8.51750   66.72590   15.84280   54.65580    4.90200    0.01170    2.65990    0.00770
 1311.25000    8.51750   72.96300   16.19770   54.72120    4.91400    0.01270    2.65890    0.00950
 1311.30000    8.51750   73.74810   16.55270   54.78660    4.92590    0.01380    2.66010    0.01130
 1311.35000    8.51750   77.49630   16.90760   54.85200    4.94190    0.01460    2.66130    0.01170
 1311.40000    8.51750   78.28150   16.83060   54.86990    4.95980    0.01530    2.66250    0.01170
 1311.45000    8.51750   78.10740   16.59160   54.86990    4.97760    0.01610    2.66370    0.01180
 1311.50000    8.51750   77.51850   16.35270   54.86990    4.99550    0.01680    2.66490    0.01180
 1311.55000    8.51750   76.92960   16.11370   54.86990    4.98230    0.01750    2.66480    0.01180
 1311.60000    8.51750   76.34070   15.87470   54.86990    4.95860    0.01820    2.66390    0.01180
 1311.65000    8.51750   77.42960   15.63580   54.86990    4.93500    0.01980    2.66300    0.01180
 1311.70000    8.51750   76.25190   15.01750   54.86990    4.91140    0.02190    2.66210    0.01180
 1311.75000    8.51750   75.07410   14.30340   54.86990    4.88770    0.02350    2.66070    0.01030
 1311.80000    8.51750   68.08890   13.97990   54.86990    4.86410    0.02490    2.65890    0.00850
 1311.85000    8.51750   67.69630   13.74090   54.92040    4.86620    0.02640    2.65710    0.00680
 1311.90000    8.51750   67.30370   13.50200   55.11670    4.87510    0.02780    2.65540    0.00500
 1311.95000    8.51750   66.91110   13.26300   55.31300    4.88410    0.02920    2.65300    0.00330
 1312.00000    8.51750   64.88890   13.02400   55.50930    4.89300    0.03060    2.65040    0.00150
 1312.05000    8.51750   64.10370   12.78510   55.70560    4.90190    0.03310    2.64780    0.00450
 1312.10000    8.51750   63.41480   12.67870   55.90190    4.91080    0.03630    2.64510    0.00810
 1312.15000    8.51750   62.82590   12.58820   56.21120    4.91980    0.03940    2.63730    0.00920
 1312.20000    8.51750   62.23700   12.49770   56.60370    4.92870    0.04250    2.62700    0.01010
 1312.25000    8.51750   61.64810   12.40720   58.51300    4.91680    0.04630    2.61680    0.01100
 1312.30000    8.51750   61.20000   12.31680   59.49440    4.90260    0.05040    2.60660    0.01190
 1312.35000    8.51750   60.80740   12.22630   59.57770    4.88830    0.05460    2.59640    0.01310
 1312.40000    8.51750   60.41480   12.13580   60.36280    4.87410    0.05870    2.58620    0.01420
 1312.45000    8.51750   60.02220   12.04530   61.36510    4.85990    0.06340    2.57510    0.01540
 1312.50000    8.51750   59.90740   12.04280   61.56130    4.84570    0.06860    2.56330    0.01660
 1312.55000    8.51750   59.80930   12.04140   61.75760    4.83150    0.07240    2.54000    0.01780
 1312.60000    8.51750   59.71110   12.04000   63.09000    4.81730    0.07500    2.53310    0.01890
 1312.65000    8.51750   59.61300   12.03860   63.48250    4.80310    0.07760    2.52620    0.01890
 1312.70000    8.51750   59.51480   12.03720   63.79180    4.78880    0.08030    2.51930    0.01880
 1312.75000    8.51750   59.41670   12.03580   63.79180    4.78870    0.08210    2.51480    0.01790
 1312.80000    8.51750   59.31850   12.03440   63.76060    4.78870    0.08320    2.51540    0.01710
 1312.85000    8.51750   59.10370   12.02560   63.66250    4.78870    0.08420    2.51600    0.01620
 1312.90000    8.51750   58.71110   11.93510   63.56430    4.78870    0.08530    2.51660    0.01550
 1312.95000    8.51750   58.11850   11.84460   63.46620    4.78870    0.08500    2.51720    0.01550
