~Version ---------------------------------------------------
VERS.   2.0 : CWLS log ASCII Standard -VERSION 2.0
WRAP.    NO : One line per depth step
DLM . SPACE : Column Data Section Delimiter
~Well ------------------------------------------------------
STRT.m 1682.00000 : START DEPTH
STOP.m 1742.00000 : STOP DEPTH
STEP.m    0.05000 : STEP
NULL.    -9999.25 : NULL VALUE
COMP.     Unknown : COMPANY
WELL.     Unknown : WELL
FLD .     Unknown : FIELD
LOC .             : LOCATION
PROV.             : PROVINCE
CNTY.             : COUNTY
STAT.             : STATE
CTRY.     Unknown : COUNTRY
SRVC.             : SERVICE COMPANY
DATE.     Unknown : DATE
UWI .     Unknown : UNIQUE WELL ID
API .             : API NUMBER
~Curve Information -----------------------------------------
DEPT            .m            : depths
Bit Size        .inches       : digitalized and interpolated data
Caliper         .inches       : digitalized and interpolated data
GammaKUT        .api          : digitalized and interpolated data
GammaKT         .api          : digitalized and interpolated data
Density         .gram per cc  : digitalized and interpolated data
Neutron Porosity.pu           : digitalized and interpolated data
Pe              .unknown      : digitalized and interpolated data
DensityCorr     .gm per cc    : digitalized and interpolated data
Tension         .pounds       : digitalized and interpolated data
~Params ----------------------------------------------------
~Other -----------------------------------------------------
~ASCII -----------------------------------------------------
# ...
 1729.45000    6.00000    5.86430   17.57140    5.27200    2.55170   16.12260    3.06410    0.08360 2681.65960
 1729.50000    6.00000    5.88200   16.77600    5.39520    2.55120   16.39030    3.05340    0.08740 2676.07500
 1729.55000    6.00000    5.89960   16.49580    5.51970    2.55340   16.76900    3.07850    0.09130 2670.49050
 1729.60000    6.00000    5.91730   16.30780    5.64420    2.55560   17.11250    3.10350    0.09310 2664.90600
 1729.65000    6.00000    5.93500   16.11990    5.76880    2.55780   17.18020    3.12860    0.09480 2659.32150
 1729.70000    6.00000    5.95270   15.93190    5.89330    2.56000   17.24780    3.15360    0.09650 2653.92210
 1729.75000    6.00000    5.97040   15.74390    6.01780    2.56280   17.31550    3.17870    0.09510 2655.12480
 1729.80000    6.00000    5.98910   15.55590    6.14230    2.56620   17.38320    3.20320    0.09320 2656.32760
 1729.85000    6.00000    6.00890   15.36790    6.23490    2.56970   17.45090    3.22360    0.09130 2657.53030
 1729.90000    6.00000    6.02870   15.18000    6.26740    2.57370   17.49980    3.24410    0.08940 2658.73300
 1729.95000    6.00000    6.04850   15.30970    6.29980    2.57860   17.41810    3.26460    0.08690 2659.93570
 1730.00000    6.00000    6.06570   15.59490    6.33220    2.57330   17.33630    3.28510    0.08420 2661.13840
 1730.05000    6.00000    6.06190   15.88010    6.36460    2.56830   17.25460    3.30560    0.08150 2662.34110
 1730.10000    6.00000    6.05800   16.16530    6.39700    2.56560   17.17290    3.31970    0.07870 2663.54380
 1730.15000    6.00000    6.05420   16.45060    6.42950    2.56290   17.09120    3.32450    0.07570 2664.74650
 1730.20000    6.00000    6.05040   16.73580    6.46190    2.56020   17.00950    3.32930    0.07270 2665.94920
 1730.25000    6.00000    6.04780   17.03030    6.49430    2.55740   16.89800    3.33410    0.06960 2667.15190
 1730.30000    6.00000    6.04600   17.48670    6.65470    2.55370   16.78260    3.33890    0.06660 2668.35460
 1730.35000    6.00000    6.04430   17.94310    6.83630    2.54990   16.66710    3.34370    0.06330 2669.55730
 1730.40000    6.00000    6.04250   18.39950    7.01790    2.54530   16.55170    3.34360    0.05990 2670.76010
 1730.45000    6.00000    6.04080   18.85590    7.19950    2.53850   16.43620    3.34010    0.05650 2671.96280
 1730.50000    6.00000    6.03900   19.30900    7.38110    2.53230   16.26350    3.33670    0.05340 2673.26910
 1730.55000    6.00000    6.05390   19.75800    7.35930    2.52640   16.07520    3.33320    0.05200 2675.48150
 1730.60000    6.00000    6.07070   20.20700    7.02420    2.51990   15.88680    3.32980    0.05050 2677.69380
 1730.65000    6.00000    6.08760   20.65610    6.68910    2.51750   15.64050    3.32630    0.04910 2679.90610
 1730.70000    6.00000    6.10450   21.10510    6.35400    2.52260   15.37700    3.32290    0.04770 2682.11840
 1730.75000    6.00000    6.12130   21.46540    6.01880    2.52760   15.11360    3.31940    0.04630 2684.33080
 1730.80000    6.00000    6.13820   21.79920    5.54080    2.53270   14.83360    3.31600    0.04490 2686.54310
 1730.85000    6.00000    6.15510   22.13300    5.04040    2.53780   14.54890    3.32420    0.04400 2688.75540
 1730.90000    6.00000    6.17400   22.46680    4.54000    2.54570   13.85820    3.35400    0.04390 2690.96770
 1730.95000    6.00000    6.19420   22.80060    4.04190    2.57150   13.31630    3.38380    0.04370 2693.18010
 1731.00000    6.00000    6.21440   22.94670    3.68790    2.59770   12.94780    3.41360    0.04360 2695.39240
 1731.05000    6.00000    6.23460   22.92290    3.33390    2.63020   12.63920    3.44340    0.04350 2697.60470
 1731.10000    6.00000    6.25480   22.89910    2.97990    2.64130   12.38850    3.47330    0.04340 2699.81700
 1731.15000    6.00000    6.26030   22.87530    2.62590    2.65280   12.14960    3.50980    0.04220 2701.06120
 1731.20000    6.00000    6.24900   22.83990    2.27180    2.65900   11.91070    3.55690    0.04050 2694.98440
 1731.25000    6.00000    6.23770   22.70950    2.26880    2.66400   11.67520    3.60400    0.03880 2688.90760
 1731.30000    6.00000    6.22640   22.57900    2.65320    2.67130   11.43990    3.65110    0.03710 2682.83080
 1731.35000    6.00000    6.21510   22.44860    3.03760    2.66860   11.20450    3.67610    0.03540 2676.75400
 1731.40000    6.00000    6.20380   22.31820    3.42200    2.66600   10.91890    3.68550    0.03410 2670.67720
 1731.45000    6.00000    6.19250   22.18780    3.80630    2.66340   10.62420    3.69490    0.03380 2664.60040
 1731.50000    6.00000    6.18120   22.05730    4.58820    2.66070   10.30370    3.70430    0.03360 2658.52360
 1731.55000    6.00000    6.18900   21.92690    6.02190    2.66330    9.97240    3.71370    0.03340 2652.44680
 1731.60000    6.00000    6.19780   21.93230    7.10540    2.66600    9.44790    3.72310    0.03320 2646.37000
 1731.65000    6.00000    6.20670   22.06120    8.18890    2.66860    9.01660    3.73250    0.03300 2640.29320
 1731.70000    6.00000    6.21550   22.19010    9.17400    2.67180    8.69340    3.74340    0.03280 2639.39840
 1731.75000    6.00000    6.22440   22.31900    9.92650    2.67770    8.29320    3.75470    0.03260 2640.55940
 1731.80000    6.00000    6.23320   22.44780   10.67890    2.68300    7.83180    3.76600    0.03240 2641.72040
 1731.85000    6.00000    6.24200   22.57670   11.37940    2.68720    7.40000    3.77730    0.03210 2642.88140
 1731.90000    6.00000    6.25090   22.70560   12.02900    2.69150    7.09400    3.78860    0.03190 2644.04240
 1731.95000    6.00000    6.24920   22.70520   12.19070    2.69470    6.83580    3.79990    0.03140 2645.20340
 1732.00000    6.00000    6.24610   22.50350   12.05010    2.69790    6.61160    3.81120    0.03090 2646.36440
 1732.05000    6.00000    6.24290   22.30170   11.90950    2.70100    6.39150    3.83220    0.03030 2647.52530
 1732.10000    6.00000    6.23980   22.10000   11.76890    2.70350    6.17140    3.86080    0.02970 2648.68630
 1732.15000    6.00000    6.23660   21.89830   11.62830    2.70560    5.95750    3.88940    0.02920 2649.84730
 1732.20000    6.00000    6.23350   21.70150   11.12310    2.70760    5.75700    3.91800    0.02860 2651.00830
 1732.25000    6.00000    6.23040   21.52690   10.41260    2.70960    5.55660    3.94660    0.02810 2652.16930
 1732.30000    6.00000    6.22720   21.35220    9.71930    2.71170    5.35660    3.97520    0.02750 2653.33030
 1732.35000    6.00000    6.22410   21.17760    9.02600    2.71380    5.18790    3.99600    0.02700 2654.49130
 1732.40000    6.00000    6.22830   21.00300    8.33260    2.71600    5.01910    3.99620    0.02450 2655.65230
 1732.45000    6.00000    6.24320   20.82840    8.17500    2.71820    4.85040    3.99640    0.02180 2664.27410
 1732.50000    6.00000    6.25800   20.65370    8.08990    2.72050    4.70400    3.99660    0.01920 2680.81370
 1732.55000    6.00000    6.27290   20.53190    8.00470    2.72270    4.56420    3.99670    0.01660 2697.35320
 1732.60000    6.00000    6.28780   20.68000    7.91960    2.72510    4.42440    3.98590    0.01400 2713.89280
 1732.65000    6.00000    6.30270   20.82810    7.83440    2.72760    4.28460    3.94810    0.01240 2730.43230
 1732.70000    6.00000    6.31750   20.97620    7.74930    2.73010    4.16030    3.91030    0.01170 2746.97190
 1732.75000    6.00000    6.35060   21.12420    7.66420    2.73260    4.07940    3.88170    0.01100 2760.47150
 1732.80000    6.00000    6.38380   21.27230    7.57900    2.73490    3.99840    3.86340    0.01030 2765.27050
 1732.85000    6.00000    6.41700   21.42040    7.84790    2.73660    3.91740    3.84510    0.00960 2770.06940
 1732.90000    6.00000    6.42500   21.58030    8.30430    2.73840    3.83640    3.82670    0.00890 2774.86840
 1732.95000    6.00000    6.41600   21.90030    8.76060    2.74020    3.75550    3.80840    0.00820 2779.66740
 1733.00000    6.00000    6.40700   22.22030    9.21700    2.74200    3.69280    3.79010    0.00750 2784.46640
 1733.05000    6.00000    6.39800   22.54030    9.64930    2.74360    3.65500    3.77180    0.00680 2789.26540
