~Version ---------------------------------------------------
VERS.   2.0 : CWLS log ASCII Standard -VERSION 2.0
WRAP.    NO : One line per depth step
DLM . SPACE : Column Data Section Delimiter
~Well ------------------------------------------------------
STRT.m 1682.00000 : START DEPTH
STOP.m 1742.00000 : STOP DEPTH
STEP.m    0.05000 : STEP
NULL.    -9999.25 : NULL VALUE
COMP.     Unknown : COMPANY
WELL.     Unknown : WELL
FLD .     Unknown : FIELD
LOC .             : LOCATION
PROV.             : PROVINCE
CNTY.             : COUNTY
STAT.             : STATE
CTRY.     Unknown : COUNTRY
SRVC.             : SERVICE COMPANY
DATE.     Unknown : DATE
UWI .     Unknown : UNIQUE WELL ID
API .             : API NUMBER
~Curve Information -----------------------------------------
DEPT    .m           : depths
Gamma   .api         : digitalized and interpolated data
SP      .millivolts  : digitalized and interpolated data
Caliper .inches      : digitalized and interpolated data
Bit Size.inches      : digitalized and interpolated data
Tens    .pounds      : digitalized and interpolated data
MSFL    .Ohm-m       : digitalized and interpolated data
LLD     .Ohm-m       : digitalized and interpolated data
LLS     .Ohm-m       : digitalized and interpolated data
~Params ----------------------------------------------------
~Other -----------------------------------------------------
~ASCII -----------------------------------------------------
# ...
 1718.00000    6.84460   19.52470    5.63060    5.89280 3513.71700   61.23543   93.51606   99.42372
 1718.05000    7.13690   20.00940    5.66110    5.97270 3508.01070   61.16030   92.60265  107.94681
 1718.10000    7.42920   20.65600    5.68020    5.94350 3499.77960   59.14042   99.29322  104.08362
 1718.15000    7.64090   21.31110    5.66070    5.91430 3491.54850   58.39792   99.51616  100.13027
 1718.20000    7.79420   22.26270    5.64110    5.95600 3483.31740   59.53928  104.92824  103.71400
 1718.25000    7.94740   23.18690    5.68840    5.94020 3475.08630   61.15912  101.14029  110.64933
 1718.30000    8.01890   23.78930    5.70120    5.90410 3472.06340   65.23072  104.51081  108.84999
 1718.35000    8.08470   24.39180    5.70060    5.96440 3469.52640   71.30077  107.32280  111.26900
 1718.40000    8.15060   24.99420    5.69990    5.92940 3466.98950   74.95079  110.12111  113.74183
 1718.45000    8.19170   25.59660    5.63800    5.92410 3466.38950   84.23112  111.14241  120.86924
 1718.50000    8.20340   26.09610    5.66610    5.95310 3474.21820   89.60078  111.81107  122.16365
 1718.55000    8.20540   26.54150    5.69420    5.91890 3482.04690   91.21797  112.48370  123.47198
 1718.60000    7.52590   26.99860    5.70020    5.95480 3489.87550   88.76795  117.68307  117.48050
 1718.65000    7.01140   27.49380    5.70040    5.94150 3497.79310   90.40203  114.93428  124.71980
 1718.70000    6.56120   27.98900    5.64430    5.90710 3507.13980   88.81976  116.00454  122.11185
 1718.75000    6.27150   28.46450    5.66180    5.96000 3516.48650   83.44363  116.62369  121.74199
 1718.80000    5.98190   28.92130    5.68980    5.93710 3525.83320   80.91894  116.07823  116.37883
 1718.85000    5.73930   29.37800    5.64160    5.94780 3533.66030   78.73325  115.53538  115.67944
 1718.90000    5.88780   29.76920    5.66590    5.93110 3540.67090   75.87149  114.83731  114.98421
 1718.95000    6.03640   30.10860    5.66610    5.91440 3547.68150   72.53820  113.64062  116.87166
 1719.00000    6.18490   30.44800    5.61300    5.91930 3553.15970   69.23007  112.45640  115.82065
 1719.05000    6.32560   31.06270    5.66910    5.95770 3557.35610   60.88653  111.15925  107.87390
 1719.10000    6.46330   31.86710    5.68700    5.92510 3561.55260   58.68936  109.68650  115.92769
 1719.15000    6.57890   31.98670    5.65710    5.91260 3566.26490   57.28533  108.23327  113.35941
 1719.20000    6.55170   32.10630    5.66320    5.96530 3571.13920   57.77719  105.95450  110.84809
 1719.25000    6.52450   32.30750    5.69860    5.94750 3568.77460   58.27327  103.67122  108.39239
 1719.30000    6.49730   32.66060    5.68230    5.92980 3556.55900   58.77361  102.27422  102.86561
 1719.35000    6.51460   33.01360    5.66610    5.96150 3544.34340   60.36047  100.90995  102.35805
 1719.40000    6.65070   33.36650    5.65290    5.96080 3532.12780   62.28281   99.56388  101.85304
 1719.45000    6.78680   33.69560    5.65890    5.93630 3521.68340   63.28894   97.90458  101.45106
 1719.50000    6.92290   34.02480    5.66500    5.92710 3518.50070   65.42371   96.21828  101.90944
 1719.55000    7.17810   34.36070    5.67170    5.95130 3515.31810   64.90205   94.40048  102.36988
 1719.60000    7.44870   34.71120    5.68070    5.97560 3512.13540   64.38454   92.37631  102.83241
 1719.65000    7.68410   35.06170    5.68970    5.91940 3510.18670   63.87113   91.45111  100.11768
 1719.70000    7.86440   35.39670    5.69870    5.91940 3510.83190   66.98676   93.59749   99.92887
 1719.75000    8.04470   35.70560    5.71210    5.91940 3511.47710   68.38424   91.93363   99.88958
 1719.80000    8.10300   36.01630    5.73870    5.91260 3507.80890   67.49693   90.93021   99.85026
 1719.85000    8.05380   36.33790    5.76150    5.96800 3503.87990   66.61328   90.61819   99.47515
 1719.90000    8.00470   36.65950    5.70410    5.97900 3499.46900   64.76587   90.30720   98.93683
 1719.95000    7.94980   36.57650    5.73410    5.97900 3494.16150   62.78793   90.06208   98.40147
 1720.00000    7.73440   36.49290    5.73730    5.93450 3488.85400   60.71427   89.97532   97.88632
 1720.05000    7.51890   36.98860    5.69360    5.92820 3483.54650   58.89280   89.88860   97.42199
 1720.10000    7.30340   37.93810    5.69940    5.92200 3472.58570   56.87361   89.80200   96.95986
 1720.15000    7.73180   37.84370    5.70520    5.91940 3458.56440   54.47590   89.85304   96.49988
 1720.20000    7.75880   37.33830    5.71100    5.91940 3444.54300   51.32763   90.00201   97.17899
 1720.25000    7.62090   37.51450    5.71650    5.91940 3430.52170   53.41468   90.13333   99.36298
 1720.30000    7.48290   37.69070    5.72200    5.91940 3421.01770   55.45317   90.14063   98.32125
 1720.35000    7.52920   37.86690    5.67600    5.91940 3414.46590   56.36044   90.14798   97.16038
 1720.40000    7.68260   38.07080    5.70650    5.91940 3407.91410   57.28253   90.39142   97.55838
 1720.45000    7.83590   38.28360    5.69060    5.91940 3401.36230   58.72573   91.07651  101.16600
 1720.50000    7.97840   38.49650    5.65560    5.91940 3394.81060   60.74448   91.76680  102.26287
 1720.55000    8.07950   38.72000    5.69890    5.91940 3388.41500   62.99351   94.82075  103.37159
 1720.60000    8.18070   38.95040    5.69910    5.91940 3394.33880   63.23504   96.01511  105.27824
 1720.65000    8.76080   39.16440    5.69930    5.91940 3400.26260   63.42551   97.22447  107.71699
 1720.70000    8.78920   39.34950    5.67770    5.91860 3406.18640   64.33478   98.44911  112.25983
 1720.75000    8.66290   39.53470    5.64700    5.91770 3412.93040   65.25710   99.68913  113.44381
 1720.80000    8.53670   39.71980    5.69670    5.91680 3429.12310   67.54758  100.93496  114.64022
 1720.85000    8.37160   39.90490    5.69260    5.92610 3445.31580   71.36558  102.19442  116.03462
 1720.90000    8.19890   40.07020    5.68490    5.93600 3444.48320   73.22662  103.45379  117.82043
 1720.95000    8.02620   40.18100    5.67710    5.93160 3432.31090   75.57410  104.66537  119.63372
 1721.00000    7.62510   40.29180    5.69350    5.92730 3420.13870   74.46377  105.89108  121.50473
 1721.05000    7.17630   40.39050    5.71010    5.92290 3425.53260   72.91143  107.05259  123.40564
 1721.10000    7.60960   40.45080    5.77920    5.97410 3443.01250   71.48274  107.42872  119.95910
 1721.15000    7.22900   40.54190    5.79520    5.95060 3455.40230   70.08208  107.80611  119.52875
 1721.20000    6.84840   40.73630    5.80480    5.92710 3456.04740   69.64408  109.21699  122.84396
 1721.25000    6.54590   40.70490    5.82000    5.91940 3456.69260   69.29859  110.86350  124.81707
 1721.30000    6.51070   40.57660    5.85320    5.91940 3454.82700   68.95485  112.29892  125.73008
 1721.35000    6.47540   40.44840    5.88640    5.91940 3449.99320   68.61278  113.73570  126.64038
 1721.40000    6.44010   40.32020    5.95380    5.91940 3445.15940   68.59888  115.19085  122.59292
 1721.45000    6.40090   40.31630    5.96660    5.91940 3448.70010   69.37375  116.66463  134.25955
 1721.50000    6.34210   40.39160    5.97950    5.91940 3455.00350   70.15735  119.15893  138.60433
 1721.55000    6.28330   40.46700    6.01550    5.91940 3461.30700   77.48399  123.10798  130.07792
 1721.60000    6.22460   40.54230    6.03060    5.91940 3467.54880   80.63155  126.46775  138.59750
 1721.65000    6.35270   40.61760    6.02850    5.91680 3466.42290   83.55476  131.10691  147.09957
 1721.70000    6.57750   40.69290    6.02640    5.91340 3465.29700   86.70964  136.85006  142.22168
 1721.75000    6.80240   40.63840    6.06150    5.91260 3464.17110   88.74866  144.43824  158.34378
 1721.80000    7.05010   40.54640    6.06730    5.91860 3462.45070   90.23109  151.04446  173.69279
 1721.85000    7.33290   40.45430    6.05460    5.92510 3459.91020   96.01905  157.21631  175.75059
 1721.90000    7.61560   40.28270    6.04190    5.96560 3457.36960   98.78827  163.39832  184.77465
 1721.95000    7.89340   40.10960    6.02920    5.96170 3465.91060  100.84394  171.41815  184.89791
