~Version ---------------------------------------------------
VERS.   2.0 : CWLS log ASCII Standard -VERSION 2.0
WRAP.    NO : One line per depth step
DLM . SPACE : Column Data Section Delimiter
~Well ------------------------------------------------------
STRT.m            1285.0 : START DEPTH
STOP.m            1340.0 : STOP DEPTH
STEP.m           0.05000 : STEP
NULL.           -9999.25 : NULL VALUE
COMP.               TPAO : COMPANY
WELL.     BATIRAMAN #241 : WELL
FLD .          BATIRAMAN : FIELD
LOC .                    : LOCATION
PROV.                    : PROVINCE
CNTY.                    : COUNTY
STAT.                    : STATE
CTRY.             TURKEY : COUNTRY
SRVC.                    : SERVICE COMPANY
DATE. 02-Aug-09 16:36:59 : DATE
UWI .                241 : UNIQUE WELL ID
API .                    : API NUMBER
~Curve Information -----------------------------------------
DEPT   .m          : depths
Caliper.inches     : Caliper, digitalized and interpolated data
GR     .api        : Gamma-Ray, digitalized and interpolated data
GRS    .api        : Gamma-Ray Spectral, digitalized and interpolated data
DT     .mu-sec/ft  : Sonic log, digitalized and interpolated data
Pe     .           : PhotoElectric Effect, digitalized and interpolated data
NEU    .decp       : Neutron log, digitalized and interpolated data
RHOB   .gram/cc    : Density log, digitalized and interpolated data
DenCorr.gram/cc    : Density correction log, digitalized and interpolated data
~Params ----------------------------------------------------
~Other -----------------------------------------------------
~ASCII -----------------------------------------------------
# ...
 1337.00000    8.44760   37.92590   13.43720   69.96280    4.67960    0.13100    2.45130    0.02410
 1337.05000    8.44760   38.31850   13.67330   70.75990    4.69750    0.13210    2.45140    0.02320
 1337.10000    8.44760   38.71110   13.90950   71.34870    4.71540    0.13160    2.43780    0.02230
 1337.15000    8.43660   39.10370   14.14560   71.54200    4.72830    0.13100    2.43430    0.02320
 1337.20000    8.42480   39.49630   14.05500   71.44390    4.74020    0.13050    2.42390    0.02410
 1337.25000    8.41310   39.88890   13.93480   71.34570    4.75210    0.12990    2.42040    0.02500
 1337.30000    8.40130   40.14070   13.81460   71.24760    4.76400    0.12770    2.42200    0.02590
 1337.35000    8.38960   40.33700   13.69450   67.63420    4.77590    0.12560    2.42470    0.02650
 1337.40000    8.37780   40.53330   13.57430   66.84910    4.78780    0.12340    2.42740    0.02710
 1337.45000    8.37760   40.72960   13.45410   65.59210    4.80520    0.12520    2.43010    0.02770
 1337.50000    8.37760   40.74070   13.09910   65.52660    4.82310    0.12080    2.44790    0.02830
 1337.55000    8.37760   40.69630   12.74140   65.46120    4.84100    0.11690    2.44810    0.02890
 1337.60000    8.37760   39.91110   12.38370   65.39580    4.85880    0.11470    2.46520    0.02940
 1337.65000    8.37760   39.05930   12.02590   65.33040    4.84750    0.11320    2.47920    0.02940
 1337.70000    8.37790   37.88150   11.66820   65.27880    4.83570    0.11320    2.47750    0.02940
 1337.75000    8.38670   35.33330   11.31040   65.27880    4.82380    0.11320    2.47570    0.02940
 1337.80000    8.39550   34.54810   10.95270   65.27880    4.81200    0.11320    2.47400    0.02940
 1337.85000    8.40430   33.91850   10.60480   65.27880    4.80010    0.11290    2.47220    0.02940
 1337.90000    8.41310   33.52590   10.36580   65.30660    4.78870    0.11220    2.47040    0.02960
 1337.95000    8.42200   33.13330   10.12680   65.37200    4.78870    0.11150    2.46970    0.03050
 1338.00000    8.43080   32.74070    9.88790   65.43740    4.78870    0.11080    2.47330    0.03140
 1338.05000    8.43960   32.83700    9.64890   65.50290    4.78870    0.11010    2.47690    0.03230
 1338.10000    8.44800   33.22960    9.40990   65.56830    4.78870    0.10940    2.48050    0.03250
 1338.15000    8.45310   33.62220    9.18930   65.63370    4.78870    0.10880    2.48470    0.03070
 1338.20000    8.45810   34.01480    9.06910   66.53980    4.78680    0.10830    2.49010    0.02850
 1338.25000    8.46310   34.24070    8.94890   66.73610    4.76900    0.10790    2.49390    0.02500
 1338.30000    8.46820   34.43700    8.82870   67.09890    4.75130    0.10750    2.49480    0.02200
 1338.35000    8.47320   34.63330    8.70850   67.49140    4.73350    0.10710    2.49570    0.02030
 1338.40000    8.47820   34.85930    8.58840   67.88100    4.71320    0.10660    2.49660    0.01850
 1338.45000    8.48330   35.44810    8.49490   67.88100    4.67780    0.10620    2.46400    0.01680
 1338.50000    8.48830   36.03700    8.49350   67.88100    4.64250    0.10580    2.45880    0.01610
 1338.55000    8.49330   36.62590    8.49210   67.78290    4.60710    0.10540    2.45530    0.01780
 1338.60000    8.49840   37.09630    8.49070   67.19410    4.57460    0.10490    2.45620    0.01960
 1338.65000    8.50340   37.29260    8.48930   66.65870    4.55680    0.10430    2.45710    0.02140
 1338.70000    8.50850   37.48890    8.48790   66.26620    4.53910    0.10360    2.45800    0.02260
 1338.75000    8.51350   37.68520    8.59210   66.24540    4.52130    0.10290    2.45750    0.02260
 1338.80000    8.51750   38.40000    8.94700   66.83420    4.51410    0.10220    2.47660    0.02260
 1338.85000    8.51750   39.57780    9.30200   67.23270    4.55000    0.10150    2.47850    0.02260
 1338.90000    8.51750   39.77780    9.65690   67.42900    4.58590    0.10080    2.50180    0.02260
 1338.95000    8.51750   41.74070   10.01180   67.62530    4.62180    0.09770    2.50020    0.02260
 1339.00000    8.51750   45.33330   10.36680   67.82160    4.65770    0.09330    2.50560    0.02180
 1339.05000    8.51750   46.51110   10.85270   67.60740    4.69350    0.09050    2.49180    0.02010
 1339.10000    8.51750   47.68890   11.56390   67.21490    4.72940    0.08840    2.48830    0.01830
 1339.15000    8.51750   48.86670   12.27520   66.34940    4.76530    0.08620    2.48920    0.01660
 1339.20000    8.51750   55.61480   12.98650   65.36800    4.78870    0.08400    2.49370    0.01400
 1339.25000    8.51750   55.03700   14.14140   65.50190    4.78870    0.08090    2.49820    0.01050
 1339.30000    8.51750   57.39260   15.92170   63.41410    4.78870    0.07770    2.50280    0.00750
 1339.35000    8.51750   72.16300   17.38930   63.02160    4.78870    0.07440    2.51980    0.00480
 1339.40000    8.51750   80.80000   18.45690   61.11820    4.78870    0.07120    2.56850    0.00220
 1339.45000    8.51750   81.03700   21.63720   60.52940    4.78870    0.06790    2.54610   -0.00040
 1339.50000    8.51750   88.88890   22.70480   59.98510    4.78870    0.06460    2.57800   -0.00140
 1339.55000    8.51750   95.89630   23.33930   59.59260    4.78870    0.06140    2.59920   -0.00050
 1339.60000    8.51750   96.68150   23.51600   59.13460    4.78870    0.05830    2.60440    0.00040
 1339.65000    8.51750   96.60740   23.69280   58.54570    4.78870    0.05720    2.61950    0.00130
 1339.70000    8.51750   95.82220   23.86960   57.05720    4.79710    0.05650    2.63140    0.00460
 1339.75000    8.51750   90.33330   23.57100   56.95910    4.81490    0.05810    2.63410    0.01000
 1339.80000    8.51750   89.15560   22.85690   56.86100    4.83280    0.05970    2.63680    0.01330
 1339.85000    8.51750   76.12590   21.94420   56.76280    4.85070    0.06130    2.63950    0.01510
 1339.90000    8.51750   74.94810   20.87380   56.85650    4.85920    0.06260    2.64120    0.01680
 1339.95000    8.51750   63.09630   16.48930   57.05280    4.85920    0.06260    2.64120    0.01860
 1340.00000    8.51750   60.74070   15.77520   57.39780    4.85920    0.06260    2.64120    0.01920
