~Version ---------------------------------------------------
VERS.   2.0 : CWLS log ASCII Standard -VERSION 2.0
WRAP.    NO : One line per depth step
DLM . SPACE : Column Data Section Delimiter
~Well ------------------------------------------------------
STRT.m 1682.00000 : START DEPTH
STOP.m 1742.00000 : STOP DEPTH
STEP.m    0.05000 : STEP
NULL.    -9999.25 : NULL VALUE
COMP.     Unknown : COMPANY
WELL.     Unknown : WELL
FLD .     Unknown : FIELD
LOC .             : LOCATION
PROV.             : PROVINCE
CNTY.             : COUNTY
STAT.             : STATE
CTRY.     Unknown : COUNTRY
SRVC.             : SERVICE COMPANY
DATE.     Unknown : DATE
UWI .     Unknown : UNIQUE WELL ID
API .             : API NUMBER
~Curve Information -----------------------------------------
DEPT    .m           : depths
Gamma   .api         : digitalized and interpolated data
SP      .millivolts  : digitalized and interpolated data
Caliper .inches      : digitalized and interpolated data
Bit Size.inches      : digitalized and interpolated data
Tens    .pounds      : digitalized and interpolated data
MSFL    .Ohm-m       : digitalized and interpolated data
LLD     .Ohm-m       : digitalized and interpolated data
LLS     .Ohm-m       : digitalized and interpolated data
~Params ----------------------------------------------------
~Other -----------------------------------------------------
~ASCII -----------------------------------------------------
# ...
 1738.00000   25.53210   53.64950    5.97980    5.92550 3879.52870  419.79339 5821.18760 6554.52457
 1738.05000   26.17100   53.50210    5.99310    5.96760 3891.50060  408.93699 6145.41188 6803.34658
 1738.10000   27.04290   53.35470    6.02760    6.00050 3903.05590  398.83880 6499.61445 7226.22693
 1738.15000   27.40900   53.41290    6.00800    5.96730 3909.88530  389.57654 6699.98138 7375.24744
 1738.20000   27.66060   53.51070    5.97710    5.95030 3901.67270  384.93056 6974.29311 7501.44269
 1738.25000   27.45660   53.61170    5.97730    5.98480 3893.46020  384.59904 7328.66712 7882.88146
 1738.30000   27.05890   53.71500    5.97750    5.96020 3883.87370  384.26798 7568.74364 8081.74225
 1738.35000   26.56110   53.81830    5.98120    5.94200 3869.57760  383.93703 7792.91960 8351.05984
 1738.40000   26.01010   53.92150    5.98920    5.98700 3855.28150  389.19638 8032.24590 8465.67897
 1738.45000   25.59700   54.02480    5.99730    5.95610 3840.98550  395.11216 8283.18184 9037.79312
 1738.50000   25.29280   53.90310    5.98290    5.99060 3848.23040  404.23973 8533.72799 9688.20223
 1738.55000   24.98870   53.74940    5.95070    5.97710 3878.52890  412.61764 8747.06584 9714.46294
 1738.60000   24.97230   53.59580    5.96080    5.94670 3908.82730  411.17073 9100.75443 10438.33416
 1738.65000   25.24480   53.44600    5.97080    5.99460 3935.63500  409.72890 9476.82357 10048.59160
 1738.70000   25.51740   53.42510    5.96890    5.95330 3948.21900  408.29212 9961.85453 10418.41843
 1738.75000   26.45570   53.40420    5.91790    5.97610 3960.80300  407.21128 10262.07054 11248.83627
 1738.80000   27.00020   53.38340    5.94690    5.97830 3923.76080  406.16865 10620.21223 11825.31166
 1738.85000   27.51610   53.07250    5.96050    5.93270 3866.75170  405.12887 11219.65223 12355.22890
 1738.90000   28.17060   52.74550    5.92710    5.95740 3839.09090  404.09176 11776.11385 13305.15063
 1738.95000   28.15780   52.43930    5.95840    5.98430 3832.49790  401.66889 12183.61020 13024.20417
 1739.00000   27.77340   52.21520    5.97510    5.95600 3825.90490  397.85809 12457.48565 13601.52474
 1739.05000   27.24110   51.99110    5.97940    5.92760 3819.31190  394.08363 12697.11917 14151.58863
 1739.10000   26.66980   51.76710    5.88950    6.00050 3812.71880  391.07891 12812.72178 13375.28349
 1739.15000   26.25810   51.54300    5.88680    5.95850 3806.46900  389.40130 12929.37095 13704.32330
 1739.20000   25.84640   51.31890    5.88410    5.95830 3815.65790  387.73071 12731.46545 13873.74780
 1739.25000   25.39770   51.14040    5.88140    5.96250 3824.84680  386.06746 12390.77856 13469.95658
 1739.30000   24.91740   51.04130    5.94730    5.93530 3834.03580  384.41117 12067.50801 13053.69303
 1739.35000   24.41170   50.94230    5.94240    5.98790 3849.26030  385.77670 11752.67146 12638.91507
 1739.40000   23.86660   50.90610    5.91380    5.95740 3869.40900  388.47260 11216.72302 12225.61727
 1739.45000   23.40740   51.02520    5.96510    5.92690 3889.55770  391.18752 10807.95669 11601.84331
 1739.50000   23.04220   51.14440    5.96880    5.97750 3902.14560  393.59575 10489.01232 10931.36500
 1739.55000   22.67690   51.08720    5.97240    5.94590 3901.15080  395.27341 10213.58942 10643.27775
 1739.60000   22.76880   50.92790    5.91330    5.97170 3900.15600  396.95840 9775.36080 10333.74631
 1739.65000   22.97780   50.76860    5.91150    5.96770 3899.16110  397.64397 9505.37370 9772.64664
 1739.70000   23.18680   50.60930    5.90960    5.93710 3896.26050  397.35492 9262.46107 9448.78997
 1739.75000   23.31610   50.62500    5.97290    5.96560 3892.69380  397.06609 9148.20305 9276.52236
 1739.80000   23.41030   50.65010    5.95920    5.96790 3889.12720  397.80991 9053.18084 9107.39548
 1739.85000   23.50450   50.67520    5.94540    5.92030 3884.90170  399.18719 8959.14975 9007.60629
 1739.90000   23.07880   50.70030    5.93170    5.97360 3880.62260  400.56924 8878.29141 8962.18275
 1739.95000   22.21780   50.72540    5.93170    5.95020 3876.34350  401.90869 8849.41161 8916.99238
 1740.00000   20.85510   50.75050    5.93430    5.92670 3887.25640  403.22402 8820.62981 9911.51393
 1740.05000   19.86020   50.77560    5.93700    5.97690 3899.60920  404.49969 8887.32773 9602.46639
 1740.10000   19.60700   50.84660    5.95950    5.97610 3911.96190  405.58062 9207.91699 10164.71007
 1740.15000   19.79280   50.98890    5.98040    5.94410 3924.31460  406.66444 9759.02422 11188.94646
 1740.20000   19.97850   51.13120    5.91760    5.95030 3936.68160  407.75115 10349.73895 12671.98341
 1740.25000   21.29500   51.27350    5.94430    5.96850 3949.05490  408.38934 11409.25260 15031.98714
 1740.30000   22.61350   51.72740    5.96740    5.98680 3950.14830  408.96317 12517.00413 15785.88722
 1740.35000   24.57770   52.25730    5.96320    5.92510 3943.22450  408.28460 13218.19017 20401.17568
 1740.40000   26.72260   52.66090    5.95910    5.96090 3927.32300  406.45568 14631.40378 24485.38830
 1740.45000   28.83260   52.70860    5.95490    5.95890 3906.04640  404.63495 16322.48190 26938.72244
 1740.50000   30.57450   52.75620    5.95900    5.92090 3884.76980  402.91997 17315.27509 29496.03199
 1740.55000   32.04740   52.80390    5.96700    5.97060 3865.29560  401.21559 18221.35191 33114.37752
 1740.60000   33.08840   52.98090    5.97510    5.94530 3845.97830  399.51841 18757.69179 30924.56474
 1740.65000   33.27050   53.35970    5.97620    5.93760 3826.66110  397.82841 20462.40121 26888.71176
 1740.70000   33.22870   53.73850    5.97430    5.97310 3818.56010  399.18002 19302.00375 25218.34580
 1740.75000   32.09370   54.11720    5.97750    5.93760 3813.25990  400.82112 17775.96538 22040.40627
 1740.80000   30.75130   54.49600    5.98310    5.94410 3807.95960  402.46915 15996.27993 20446.51030
 1740.85000   29.10790   54.87340    5.98640    5.97960 3802.65930  404.09660 14716.50884 17424.15780
 1740.90000   27.95440   55.23290    5.98510    5.91140 3804.72780  405.70615 13279.00687 14819.26266
 1740.95000   26.33070   55.59250    5.98390    5.91730 3823.12010  407.31574 12055.05499 13256.64406
 1741.00000   24.88330   55.95200    5.98310    5.92320 3841.51250  408.88935 10947.24394 11646.58487
 1741.05000   23.63620   56.81670    5.98600    5.97610 3831.71810  410.46884 10642.73370 10389.16385
 1741.10000   22.54150   58.03570    5.98900    5.93590 3815.07420  411.21145 8306.46416 9987.86344
 1741.15000   20.86860   57.56090    5.99200    5.90760 3799.83650  409.35924 7880.47137 9298.90467
 1741.20000   19.74210   58.38110    5.99160    5.99160 3806.61230  407.51537 7584.25621 8884.05003
 1741.25000   18.84350   59.20130    5.98580    5.96240 3813.38800  406.68036 7298.89970 8835.18394
 1741.30000   17.94480   61.11370    5.98000    5.92690 3820.16380  406.71351 7092.40938 8795.91848
 1741.35000   17.57650   61.70370    5.97900    5.94660 3824.72920  406.74666 6877.65197 8756.82752
 1741.40000   17.22080   62.29370    5.98190    5.97300 3819.88240  407.68900 6789.12798 8782.24595
 1741.45000   17.01330   62.88370    5.98490    5.91880 3815.03560  409.22899 6933.84925 8943.57999
 1741.50000   17.44810   63.47370    5.98310    5.91600 3810.18890  410.77480 7093.28477 9413.09834
 1741.55000   17.88300   63.97510    5.98130    5.91330 3804.35690  412.62049 7263.16977 10163.59137
 1741.60000   18.85880   64.45170    5.98330    5.94800 3797.10850  415.46151 7437.12696 11673.56741
 1741.65000   19.74280   65.07840    5.98600    5.96600 3789.86020  418.32209 7652.88867 13301.47479
 1741.70000   21.44790   65.84500    5.98870    5.92870 3782.75870  421.20255 8924.65827 15397.32922
 1741.75000   22.59810   66.50870    5.99160    5.92120 3780.57910  422.37013 10085.19723 17143.88306
 1741.80000   23.40870   67.11750    5.99490    5.92360 3778.39960  423.35393 11503.66419 20111.47834
 1741.85000   24.03250   67.56270    5.99810    5.93320 3776.22000  424.33983 13666.62870 23532.82123
 1741.90000   24.09700   67.69270    6.00130    5.97580 3774.04040  424.37774 15311.40329 31202.44280
 1741.95000   24.16150   67.82260    5.99380    5.91820 3778.84690  423.19156 17199.41976 34171.15006
