~Version ---------------------------------------------------
VERS.   2.0 : CWLS log ASCII Standard -VERSION 2.0
WRAP.    NO : One line per depth step
DLM . SPACE : Column Data Section Delimiter
~Well ------------------------------------------------------
STRT.m 1786.00000 : START DEPTH
STOP.m 1840.00000 : STOP DEPTH
STEP.m    0.05000 : STEP
NULL.    -9999.25 : NULL VALUE
COMP.     Unknown : COMPANY
WELL.     Unknown : WELL
FLD .     Unknown : FIELD
LOC .             : LOCATION
PROV.             : PROVINCE
CNTY.             : COUNTY
STAT.             : STATE
CTRY.     Unknown : COUNTRY
SRVC.             : SERVICE COMPANY
DATE.     Unknown : DATE
UWI .     Unknown : UNIQUE WELL ID
API .             : API NUMBER
~Curve Information -----------------------------------------
DEPT      .m              : depths
GammaKT   .api            : digitalized and interpolated data
GammaTotal.api            : digitalized and interpolated data
Thorium   .parts-per-mil  : digitalized and interpolated data
Uranium   .parts-per-mil  : digitalized and interpolated data
Potassium .percent        : digitalized and interpolated data
~Params ----------------------------------------------------
~Other -----------------------------------------------------
~ASCII -----------------------------------------------------
# ...
 1810.00000   17.73290   61.80270   11.27180    6.09420    0.59030
 1810.05000   17.75850   61.91060   11.28860    6.10180    0.59710
 1810.10000   17.92370   62.14200   11.29910    6.11150    0.60390
 1810.15000   18.11000   62.37340   11.30870    6.13200    0.61170
 1810.20000   18.32650   62.61310   11.31820    6.15260    0.62010
 1810.25000   18.57770   62.85350   11.32780    6.17320    0.62840
 1810.30000   18.93710   63.09950   11.33990    6.18470    0.64510
 1810.35000   19.52340   63.58640   11.35420    6.16400    0.66240
 1810.40000   20.10100   64.02150   11.36840    6.14340    0.67970
 1810.45000   20.42760   64.22140   11.38260    6.12270    0.69700
 1810.50000   20.73530   64.42130   11.39690    6.08680    0.72810
 1810.55000   21.14550   64.66900   11.42840    6.04730    0.75980
 1810.60000   22.00420   64.96910   11.47280    6.01620    0.79160
 1810.65000   22.63320   65.35870   11.49970    6.00700    0.82610
 1810.70000   23.36880   65.87920   11.52230    5.99780    0.86060
 1810.75000   24.13020   66.64660   11.55370    5.98670    0.90010
 1810.80000   24.86730   67.41630   11.60510    5.97070    0.93890
 1810.85000   25.63680   68.09130   11.65640    5.95480    0.96020
 1810.90000   26.17180   68.65600   11.69160    5.94070    0.98150
 1810.95000   26.70540   69.15160   11.71740    5.93220    1.00290
 1811.00000   27.23900   69.59550   11.74320    5.92360    1.01840
 1811.05000   27.53810   69.87050   11.83360    5.90820    1.03320
 1811.10000   28.10940   70.05050   11.77550    5.87050    1.04810
 1811.15000   28.63890   70.22620   11.74990    5.83290    1.06880
 1811.20000   28.85450   70.39770   11.75030    5.78350    1.09020
 1811.25000   29.06890   70.21720   11.75060    5.73150    1.10290
 1811.30000   29.28290   69.88690   11.75100    5.67950    1.11560
 1811.35000   29.49690   69.41570   11.75130    5.60070    1.12830
 1811.40000   29.59440   68.89610   11.83200    5.50610    1.13660
 1811.45000   29.68270   67.89520   11.77870    5.39530    1.14000
 1811.50000   29.71810   66.89990   11.81670    5.27230    1.14400
 1811.55000   29.70020   65.48970   11.86370    5.11180    1.14970
 1811.60000   29.68230   64.22710   11.84780    4.92610    1.15550
 1811.65000   29.66440   62.98310   11.83200    4.78300    1.15810
 1811.70000   29.64660   61.84040   11.82100    4.63050    1.15910
 1811.75000   29.62300   60.85610   11.81160    4.48960    1.16020
 1811.80000   29.55900   60.00590   11.80220    4.37310    1.16130
 1811.85000   29.49500   59.20510   11.79530    4.27640    1.16180
 1811.90000   29.42980   58.48600   11.79030    4.18340    1.16170
 1811.95000   29.36360   57.66640   11.78300    4.11460    1.16170
 1812.00000   29.29750   57.20350   11.76820    4.05020    1.16170
 1812.05000   29.23130   56.82150   11.75340    3.98990    1.16160
 1812.10000   29.30080   56.49200   11.76630    3.94640    1.15610
 1812.15000   29.39790   56.55030   11.78690    3.90290    1.14920
 1812.20000   29.49500   56.60860   11.78230    3.87390    1.15480
 1812.25000   29.74520   56.66690   11.77780    3.86110    1.16380
 1812.30000   30.05150   56.72520   11.77190    3.84830    1.17270
 1812.35000   30.72360   56.79490   11.76450    3.83980    1.22820
 1812.40000   30.95640   57.24900   11.86350    3.86670    1.25410
 1812.45000   31.25570   58.01740   11.88260    3.89350    1.28000
 1812.50000   32.17790   58.69150   11.90170    3.92220    1.30200
 1812.55000   32.77940   59.27510   11.92090    3.95300    1.31990
 1812.60000   33.26170   60.13580   11.94240    3.98380    1.33770
 1812.65000   33.67400   60.88420   11.96500    3.99050    1.37410
 1812.70000   34.02740   61.28020   11.98750    3.99140    1.41820
 1812.75000   34.29540   61.55210   11.99240    3.99220    1.42580
 1812.80000   34.58590   61.76850   11.97960    3.99300    1.43340
 1812.85000   34.93910   61.84970   11.98270    3.96720    1.44090
 1812.90000   35.22120   61.76220   11.98590    3.92700    1.44850
 1812.95000   35.42110   61.65160   11.98900    3.88690    1.46430
 1813.00000   35.62100   61.43420   11.99220    3.84500    1.48360
 1813.05000   35.81680   61.21670   11.99530    3.80140    1.50290
 1813.10000   35.92080   60.98860   11.99210    3.75890    1.52220
 1813.15000   36.02470   60.75650   11.98430    3.71950    1.53770
 1813.20000   36.09090   60.52440   11.97650    3.68000    1.54920
 1813.25000   36.11970   60.29230   11.96710    3.63100    1.56060
 1813.30000   36.14760   60.02560   11.94760    3.57530    1.57210
 1813.35000   36.16550   59.75580   11.92820    3.51970    1.58010
 1813.40000   36.18340   59.52180   11.91470    3.46560    1.58370
 1813.45000   36.19440   59.28770   11.91510    3.41160    1.58720
 1813.50000   36.16920   58.92000   11.91540    3.36040    1.59080
 1813.55000   36.14390   58.32090   11.91050    3.31670    1.53600
 1813.60000   35.87810   57.48060   11.87820    3.27030    1.51080
 1813.65000   35.22200   56.21590   11.84950    3.19520    1.48560
 1813.70000   34.71030   55.09090   11.82960    3.12100    1.46040
 1813.75000   34.19860   54.34970   11.80960    3.08520    1.44210
 1813.80000   33.61380   53.68770   11.78970    3.04930    1.42430
 1813.85000   33.09420   53.14680   11.76980    3.01470    1.40650
 1813.90000   32.77680   52.70990   11.78120    2.98820    1.38870
 1813.95000   32.50710   52.25970   11.81530    2.96180    1.37550
 1814.00000   32.29890   51.79840   11.82040    2.93530    1.36490
 1814.05000   32.09060   51.40120   11.79960    2.89580    1.35420
 1814.10000   31.99640   51.08590   11.77880    2.85330    1.34350
 1814.15000   32.04130   50.77050   11.79470    2.81400    1.34050
 1814.20000   32.08620   50.68250   11.81250    2.77940    1.34650
 1814.25000   32.21320   50.83510   11.83040    2.74500    1.35250
 1814.30000   32.62200   50.98780   11.85110    2.71150    1.35850
 1814.35000   32.73450   50.92090   11.87380    2.67810    1.36440
 1814.40000   32.82470   50.60210   11.89640    2.64030    1.36050
 1814.45000   32.91480   50.96440   11.91800    2.59790    1.35660
 1814.50000   33.00500   50.89170   11.93900    2.55590    1.35620
 1814.55000   33.14220   50.81910   11.96000    2.52550    1.35600
 1814.60000   33.34750   50.23680   11.98100    2.49500    1.35800
 1814.65000   33.55280   50.23020   12.00200    2.47330    1.36350
 1814.70000   33.80330   50.43340   12.05040    2.45360    1.36900
 1814.75000   34.09380   50.63660   12.10840    2.43260    1.37420
 1814.80000   34.24860   50.18990   12.13330    2.39670    1.37700
 1814.85000   34.25970   49.97160   12.15710    2.36070    1.37080
 1814.90000   34.27090   49.76300   12.17980    2.32610    1.35690
 1814.95000   34.28200   49.55440   12.15580    2.29210    1.34290
 1815.00000   33.99660   49.04310   12.13170    2.25820    1.32830
 1815.05000   33.60680   48.34360   12.11280    2.22660    1.30990
 1815.10000   33.25990   47.49770   12.09500    2.19560    1.29180
 1815.15000   32.94040   46.88990   12.07730    2.15970    1.27950
 1815.20000   32.62080   45.77870   12.04220    2.11950    1.26720
 1815.25000   32.18270   44.93100   11.98070    2.07830    1.25490
 1815.30000   31.68250   44.05880   11.94020    2.03450    1.24150
 1815.35000   31.26510   43.26230   11.91780    1.99060    1.22790
 1815.40000   30.87180   42.72810   11.89540    1.95680    1.21430
 1815.45000   30.54590   42.32980   11.87300    1.92990    1.20070
 1815.50000   30.27800   41.93240   11.85300    1.90290    1.19150
 1815.55000   30.01010   41.54850   11.83890    1.86260    1.18320
 1815.60000   30.00230   41.16460   11.82490    1.82230    1.17490
 1815.65000   30.04110   40.91020   11.83220    1.77890    1.16660
 1815.70000   30.10460   40.65630   11.85400    1.72910    1.16870
 1815.75000   30.20750   40.55940   11.87590    1.68180    1.17400
 1815.80000   30.31050   40.50140   11.90720    1.64790    1.17920
 1815.85000   30.41350   40.44350   11.95740    1.61400    1.18440
 1815.90000   30.76830   41.20040   12.00760    1.58700    1.18980
 1815.95000   31.21940   41.05360   11.94040    1.56280    1.19610
