~Version ---------------------------------------------------
VERS.   2.0 : CWLS log ASCII Standard -VERSION 2.0
WRAP.    NO : One line per depth step
DLM . SPACE : Column Data Section Delimiter
~Well ------------------------------------------------------
STRT.m 1682.00000 : START DEPTH
STOP.m 1742.00000 : STOP DEPTH
STEP.m    0.05000 : STEP
NULL.    -9999.25 : NULL VALUE
COMP.     Unknown : COMPANY
WELL.     Unknown : WELL
FLD .     Unknown : FIELD
LOC .             : LOCATION
PROV.             : PROVINCE
CNTY.             : COUNTY
STAT.             : STATE
CTRY.     Unknown : COUNTRY
SRVC.             : SERVICE COMPANY
DATE.     Unknown : DATE
UWI .     Unknown : UNIQUE WELL ID
API .             : API NUMBER
~Curve Information -----------------------------------------
DEPT    .m           : depths
Gamma   .api         : digitalized and interpolated data
SP      .millivolts  : digitalized and interpolated data
Caliper .inches      : digitalized and interpolated data
Bit Size.inches      : digitalized and interpolated data
Tens    .pounds      : digitalized and interpolated data
MSFL    .Ohm-m       : digitalized and interpolated data
LLD     .Ohm-m       : digitalized and interpolated data
LLS     .Ohm-m       : digitalized and interpolated data
~Params ----------------------------------------------------
~Other -----------------------------------------------------
~ASCII -----------------------------------------------------
# ...
 1730.00000   12.97260   24.06260    5.80340    5.90710 3567.77810   38.67577   74.84514   76.85883
 1730.05000   13.59170   24.82000    5.80010    5.90890 3572.97850   38.39628   72.80728   74.91790
 1730.10000   14.24010   25.46690    5.79690    5.91070 3578.17880   38.11883   70.89875   76.48058
 1730.15000   14.92920   25.92020    5.79460    5.99830 3583.37910   39.17422   69.14586   71.38307
 1730.20000   15.82780   26.37340    5.79930    5.95900 3586.35290   41.71709   68.02830   72.28247
 1730.25000   16.38740   26.92060    5.80400    5.93670 3585.11400   42.89385   66.93567   73.19318
 1730.30000   16.91470   27.48490    5.80870    5.97810 3583.87520   43.76087   66.57231   73.88240
 1730.35000   17.20750   28.03770    5.86620    5.92920 3582.63630   44.16823   66.21095   72.14596
 1730.40000   17.48630   28.50140    5.85360    5.95430 3581.39740   44.69881   65.87712   71.03533
 1730.45000   17.10730   28.96500    5.84100    5.99230 3580.28060   46.12175   65.64375   72.72682
 1730.50000   16.71200   29.42870    5.84740    5.93490 3579.18560   48.35885   65.41121   73.08425
 1730.55000   16.12320   30.77360    5.86040    5.92160 3578.09060   51.60051   65.16041   73.01744
 1730.60000   15.59430   31.16370    5.86490    5.93360 3576.90970   55.43068   64.88830   72.95069
 1730.65000   15.23250   31.55390    5.81240    5.97530 3575.37770   58.21032   64.61730   72.88397
 1730.70000   14.87070   31.94400    5.81940    5.98390 3573.84580   60.59729   64.34746   70.02263
 1730.75000   14.71940   32.33420    5.82640    5.95260 3587.55820   62.57885   66.96884   70.30215
 1730.80000   14.86550   32.77870    5.83350    5.95700 3602.48240   64.41915   66.63297   70.58279
 1730.85000   15.01150   33.29260    5.83420    5.98270 3615.20580   68.08054   67.45255   70.86454
 1730.90000   15.15760   33.80640    5.83280    5.92710 3616.13000   71.51323   70.47852   74.06039
 1730.95000   15.45140   34.27480    5.83140    5.93700 3617.05420   74.13512   72.60648   73.59220
 1731.00000   15.81210   34.73310    5.86620    5.96840 3617.97840   72.26194   72.36321   75.11782
 1731.05000   16.24530   35.19320    5.87400    5.99980 3618.90260   73.69225   76.05080   76.83795
 1731.10000   16.84510   35.66140    5.83870    5.97090 3620.08610   78.33373   76.25814   76.16478
 1731.15000   16.93830   36.12950    5.82970    5.95010 3623.70080   78.20296   77.70465   78.13233
 1731.20000   17.03140   36.65570    5.82070    5.94030 3627.31560   78.11953   79.17860   80.38848
 1731.25000   17.14310   37.21620    5.82420    5.93040 3630.20840   79.94041   82.22354   83.18722
 1731.30000   17.26510   37.77660    5.84840    5.92060 3630.85360   79.56345   84.35643   86.03172
 1731.35000   17.38700   38.19910    5.86560    5.99870 3631.08790   78.40609   89.00627   92.32974
 1731.40000   17.75370   38.60240    5.83520    5.97840 3626.01860   75.92913   90.13465   92.05284
 1731.45000   18.21290   39.00560    5.80490    5.95800 3620.94920   72.91935   95.87328   97.22752
 1731.50000   18.60960   39.60890    5.82890    5.99600 3614.86490   71.03271  100.09989   96.49975
 1731.55000   18.97630   40.22170    5.87500    5.99270 3607.66830   72.17404  108.38281  105.45020
 1731.60000   19.64740   40.78540    5.84670    5.95740 3600.47170   73.33370  116.24048  117.65522
 1731.65000   20.31840   41.23820    5.81690    5.98580 3593.22760   78.57131  125.75591  130.08140
 1731.70000   19.85460   41.69110    5.87720    6.00310 3585.38580   83.49564  133.40343  133.18674
 1731.75000   20.02370   42.24690    5.85770    5.96270 3577.54400   89.23524  143.74025  140.47214
 1731.80000   20.04850   42.83190    5.82640    5.94460 3569.70210   94.36345  153.55247  155.30019
 1731.85000   19.52290   43.42370    5.86080    5.92690 3571.07050   95.38753  167.31874  166.57545
 1731.90000   19.28060   44.02430    5.84960    5.90920 3579.12810   91.81338  180.02806  186.14629
 1731.95000   19.13980   44.62100    5.80750    5.90830 3587.18560   89.65341  190.82857  205.43905
 1732.00000   19.00050   45.15700    5.78650    5.90800 3595.24320   90.90651  199.34686  205.56369
 1732.05000   18.92190   45.69300    5.81380    5.90780 3596.04740   90.55574  209.66995  218.12488
 1732.10000   18.84330   46.23260    5.84110    5.90800 3596.69260   87.55005  222.80698  233.84409
 1732.15000   18.76470   47.04050    5.84060    5.96250 3596.19150   85.20828  230.29197  236.59110
 1732.20000   18.68600   47.84840    5.81480    5.89150 3594.65240   93.02571  233.80080  239.37048
 1732.25000   18.55530   48.45460    5.79210    5.88530 3593.11330   97.92514  237.87631  246.39347
 1732.30000   18.40250   48.89490    5.85040    5.87920 3591.57410  106.47881  243.60074  249.76788
 1732.35000   18.24970   49.33550    5.84570    5.99840 3591.40630  102.23688  249.97282  250.70477
 1732.40000   18.49860   49.79380    5.80850    5.97830 3591.68730   97.07871  257.04928  256.02442
 1732.45000   18.40410   50.25210    5.77140    5.94060 3591.96830   89.26639  264.14038  262.59726
 1732.50000   18.07240   50.80980    5.86280    5.91110 3592.24930   93.79576  268.59022  264.14999
 1732.55000   17.74080   51.40730    5.83290    5.93290 3589.54120   92.33573  272.76196  265.71189
 1732.60000   17.56920   51.99460    5.80310    5.95470 3576.78690   90.89843  278.61378  279.02556
 1732.65000   17.39820   52.56440    5.83610    5.97990 3564.03260   88.11215  286.40355  284.96702
 1732.70000   17.22710   53.13430    5.89380    5.92090 3570.94830   86.99566  295.64899  298.67619
 1732.75000   17.17070   53.70580    5.81810    5.96510 3588.58450   88.97856  302.85671  306.77530
 1732.80000   17.41180   54.27730    5.80480    5.96890 3606.01840   95.72456  318.77422  336.86803
 1732.85000   17.65290   54.84880    5.79150    5.93090 3616.71900   99.85739  326.27470  335.64084
 1732.90000   18.57720   55.42030    5.83860    5.89870 3627.41960  102.10631  349.23261  352.45607
 1732.95000   19.09190   55.92700    5.89660    5.91050 3638.12020  100.35832  360.53165  356.60678
 1733.00000   19.64460   56.25120    5.82850    5.92230 3642.00530   98.64030  369.98200  380.65996
 1733.05000   20.41690   56.57550    5.77990    5.93420 3641.12350  100.71241  381.54872  389.57223
 1733.10000   20.79130   56.95160    5.84010    6.01140 3640.24170  103.56695  397.06810  411.86415
 1733.15000   21.12970   57.36130    5.90030    5.97610 3636.79430  107.94671  435.25382  439.10360
 1733.20000   21.37670   57.77110    5.83910    5.96850 3628.61440  115.87656  462.80580  446.42221
 1733.25000   21.62360   58.14000    5.83870    6.01050 3626.35920  121.82954  461.71820  458.35376
 1733.30000   21.88790   58.49390    5.83830    5.98120 3627.00430  124.89901  476.60742  482.53164
 1733.35000   22.31960   58.84790    5.87270    5.96550 3627.64950  127.09363  487.88852  485.14348
 1733.40000   22.75120   58.99400    5.88790    6.00390 3620.49070  128.65759  513.88270  506.91810
 1733.45000   23.18940   59.06930    5.82870    5.97000 3610.50790  132.33368  538.02096  525.95501
 1733.50000   23.63120   59.14450    5.89390    5.98720 3600.52510  138.06023  554.33231  539.41969
 1733.55000   23.83270   59.22020    5.89700    5.99160 3590.54230  144.21187  568.52844  548.52143
 1733.60000   23.79380   59.39020    5.87190    5.95630 3584.18530  152.63671  588.97247  555.02711
 1733.65000   23.73450   59.56010    5.90090    5.97980 3580.80970  146.66902  602.46358  564.49538
 1733.70000   23.62510   59.73000    5.91660    6.00830 3577.43410  144.00222  615.33695  575.68405
 1733.75000   23.51570   59.99860    5.85710    5.93740 3574.05850  150.66077  627.85679  587.52317
 1733.80000   23.47500   60.36860    5.85890    5.92070 3571.97390  157.49058  639.88952  600.09250
 1733.85000   23.82890   60.73850    5.86470    5.91040 3570.09790  161.78848  651.10345  614.69771
 1733.90000   24.18280   61.06830    5.90690    5.90910 3568.22190  162.60526  662.51421  632.88878
 1733.95000   24.80430   61.38130    5.85740    5.91140 3580.81170  160.96357  674.12463  713.41625
