~Version ---------------------------------------------------
VERS.   2.0 : CWLS log ASCII Standard -VERSION 2.0
WRAP.    NO : One line per depth step
DLM . SPACE : Column Data Section Delimiter
~Well ------------------------------------------------------
STRT.m 1682.00000 : START DEPTH
STOP.m 1742.00000 : STOP DEPTH
STEP.m    0.05000 : STEP
NULL.    -9999.25 : NULL VALUE
COMP.     Unknown : COMPANY
WELL.     Unknown : WELL
FLD .     Unknown : FIELD
LOC .             : LOCATION
PROV.             : PROVINCE
CNTY.             : COUNTY
STAT.             : STATE
CTRY.     Unknown : COUNTRY
SRVC.             : SERVICE COMPANY
DATE.     Unknown : DATE
UWI .     Unknown : UNIQUE WELL ID
API .             : API NUMBER
~Curve Information -----------------------------------------
DEPT            .m            : depths
Bit Size        .inches       : digitalized and interpolated data
Caliper         .inches       : digitalized and interpolated data
GammaKUT        .api          : digitalized and interpolated data
GammaKT         .api          : digitalized and interpolated data
Density         .gram per cc  : digitalized and interpolated data
Neutron Porosity.pu           : digitalized and interpolated data
Pe              .unknown      : digitalized and interpolated data
DensityCorr     .gm per cc    : digitalized and interpolated data
Tension         .pounds       : digitalized and interpolated data
~Params ----------------------------------------------------
~Other -----------------------------------------------------
~ASCII -----------------------------------------------------
# ...
 1685.65000    6.00000    6.71090   19.69400    2.96430    2.51100    6.54290    4.85980    0.10070 2613.54870
 1685.70000    6.00000    6.71270   19.59890    2.97120    2.49610    6.61470    4.84610    0.10280 2622.40460
 1685.75000    6.00000    6.71460   19.50390    2.97810    2.49110    6.73210    4.83240    0.10500 2631.26050
 1685.80000    6.00000    6.71640   19.37260    2.98500    2.48860    6.84950    4.81870    0.10290 2640.11650
 1685.85000    6.00000    6.71820   19.12920    2.99190    2.48610    6.96680    4.80500    0.10040 2648.97240
 1685.90000    6.00000    6.72000   18.88580    3.05790    2.48360    7.08420    4.79130    0.09620 2657.98920
 1685.95000    6.00000    6.72180   18.64240    3.25960    2.46570    7.19040    4.77760    0.09140 2667.74820
 1686.00000    6.00000    6.72370   18.39900    3.46140    2.47550    7.25650    4.76390    0.08230 2677.50730
 1686.05000    6.00000    6.72290   18.15560    3.66310    2.48440    7.32260    4.75020    0.07070 2687.26630
 1686.10000    6.00000    6.70510   18.10810    3.86480    2.49360    7.38860    4.73650    0.06070 2697.02530
 1686.15000    6.00000    6.68740   18.10050    4.06350    2.51050    7.45470    4.73010    0.05240 2706.78430
 1686.20000    6.00000    6.66960   18.09280    4.23260    2.52960    7.52070    4.72530    0.05080 2716.54330
 1686.25000    6.00000    6.65190   18.08520    4.40170    2.58810    7.58680    4.72060    0.04920 2726.30230
 1686.30000    6.00000    6.63410   18.07750    4.57080    2.62260    7.65280    4.71580    0.04760 2736.06130
 1686.35000    6.00000    6.61640   18.06990    4.73990    2.65320    7.41420    4.71110    0.04600 2745.82030
 1686.40000    6.00000    6.59980   18.06220    4.90900    2.66790    5.97170    4.70630    0.04440 2755.57940
 1686.45000    6.00000    6.58320   18.03270    4.89120    2.67920    5.15180    4.70150    0.04280 2765.33840
 1686.50000    6.00000    6.56660   17.92010    4.85660    2.69000    4.38960    4.69680    0.04270 2775.09740
 1686.55000    6.00000    6.55010   17.80750    4.82210    2.68620    4.09490    4.69200    0.04420 2784.85640
 1686.60000    6.00000    6.53350   17.69490    4.78750    2.67380    3.87890    4.68730    0.04580 2787.95790
 1686.65000    6.00000    6.51690   17.58220    4.75300    2.66720    3.77940    4.68250    0.04740 2787.95790
 1686.70000    6.00000    6.50040   17.18580    4.52710    2.65210    3.68000    4.67780    0.04890 2787.95790
 1686.75000    6.00000    6.48380   16.55100    4.26710    2.64040    3.58050    4.69200    0.05050 2787.95790
 1686.80000    6.00000    6.47960   15.91620    4.00720    2.62600    3.48100    4.72190    0.05210 2787.95790
 1686.85000    6.00000    6.48480   15.24110    3.74720    2.61930    3.38150    4.75180    0.05360 2787.95790
 1686.90000    6.00000    6.49000   14.52720    3.48730    2.61370    3.68980    4.78170    0.05520 2787.95790
 1686.95000    6.00000    6.49510   13.81340    3.22730    2.61010    4.02790    4.81160    0.05650 2787.95790
 1687.00000    6.00000    6.49250   13.34330    2.97020    2.60650    4.38090    4.84150    0.05770 2787.95790
 1687.05000    6.00000    6.42820   13.06030    2.73480    2.60210    4.66850    4.87130    0.05880 2787.95790
 1687.10000    6.00000    6.37160   12.77740    2.49940    2.59640    4.89640    4.89520    0.06000 2787.95790
 1687.15000    6.00000    6.34200   12.49450    2.26410    2.59240    5.12420    4.91870    0.06120 2787.95790
 1687.20000    6.00000    6.31230   12.21160    2.02870    2.59020    5.29340    4.94220    0.06190 2787.95790
 1687.25000    6.00000    6.28270   11.92860    1.79330    2.58800    5.44370    4.96570    0.06160 2787.95790
 1687.30000    6.00000    6.25300   11.80050    1.98190    2.58580    5.59400    4.98910    0.06130 2782.73760
 1687.35000    6.00000    6.22780   11.92880    2.21500    2.58380    5.74420    5.01260    0.06100 2773.63850
 1687.40000    6.00000    6.20620   12.05710    2.44820    2.58560    5.74260    5.01960    0.06070 2764.53930
 1687.45000    6.00000    6.18460   12.18540    2.68140    2.58730    5.69160    5.02250    0.06040 2755.44010
 1687.50000    6.00000    6.16300   12.31360    2.91450    2.58910    5.64060    5.02540    0.06000 2746.34090
 1687.55000    6.00000    6.14130   12.44190    3.14770    2.59080    5.58960    5.02830    0.05910 2737.24170
 1687.60000    6.00000    6.11970   12.57020    3.38090    2.59260    5.53860    5.03120    0.05820 2728.14250
 1687.65000    6.00000    6.09810   12.69850    3.61400    2.59560    5.46200    5.02800    0.05730 2719.04340
 1687.70000    6.00000    6.07650   12.85100    3.84720    2.60050    5.23490    5.01910    0.05640 2709.94420
 1687.75000    6.00000    6.05490   13.10880    4.01170    2.60660    5.00780    5.01030    0.05540 2700.84500
 1687.80000    6.00000    6.03880   13.36660    4.16790    2.61580    4.78060    5.00140    0.05450 2691.74580
 1687.85000    6.00000    6.02490   13.62440    4.32410    2.62100    4.44830    4.99260    0.05360 2682.64660
 1687.90000    6.00000    6.01100   13.88210    4.48040    2.62590    4.10520    4.98370    0.05310 2673.54750
 1687.95000    6.00000    5.99700   14.13990    4.63660    2.62920    3.77970    4.97490    0.05260 2664.44830
 1688.00000    6.00000    5.98310   14.38010    4.79280    2.63250    3.46130    4.96980    0.05220 2656.98100
 1688.05000    6.00000    5.98090   14.61440    4.92590    2.63500    3.15630    4.96650    0.05170 2664.36450
 1688.10000    6.00000    5.98300   14.84880    4.94410    2.63470    2.85130    4.96310    0.05130 2671.74790
 1688.15000    6.00000    5.98510   15.07700    4.96230    2.63430    2.58680    4.95980    0.05080 2679.13130
 1688.20000    6.00000    5.98720   14.93640    4.98050    2.63400    2.33880    4.95650    0.05040 2686.51480
 1688.25000    6.00000    5.98930   14.79580    4.99870    2.63360    2.35490    4.95320    0.04990 2693.89820
 1688.30000    6.00000    5.99140   14.65520    5.01690    2.63330    2.43500    4.94990    0.04950 2701.28160
 1688.35000    6.00000    5.99350   14.51270    5.03510    2.63300    2.51500    4.94650    0.04900 2708.66510
 1688.40000    6.00000    5.99560   14.36540    5.05330    2.63260    2.59500    4.94320    0.04870 2716.04850
 1688.45000    6.00000    6.01750   14.21810    5.07150    2.63190    2.81880    4.94660    0.04940 2723.43190
 1688.50000    6.00000    6.06170   14.07080    5.08970    2.63090    3.11070    4.95110    0.05010 2730.81540
 1688.55000    6.00000    6.10600   13.92350    5.44220    2.62980    3.40270    4.95550    0.05080 2738.19880
 1688.60000    6.00000    6.15030   13.77620    6.07490    2.62880    3.62660    4.96000    0.05140 2745.58230
 1688.65000    6.00000    6.19450   13.62890    6.67820    2.62770    3.69960    4.96440    0.05190 2752.96570
 1688.70000    6.00000    6.23460   13.51440    6.75680    2.62670    3.77260    4.96890    0.05230 2760.34910
 1688.75000    6.00000    6.26790   13.59010    6.83550    2.62560    3.84560    4.97330    0.05280 2767.73260
 1688.80000    6.00000    6.30110   13.66570    6.91410    2.62460    3.91860    4.97760    0.05330 2775.11600
 1688.85000    6.00000    6.33430   13.74140    6.99280    2.62450    3.99160    4.98180    0.05370 2782.49940
 1688.90000    6.00000    6.36750   13.81700    7.07140    2.62540    4.06470    4.98600    0.05420 2786.58640
 1688.95000    6.00000    6.40080   13.89270    7.15000    2.62630    4.13770    4.99020    0.05460 2781.32600
 1689.00000    6.00000    6.43130   13.96840    7.13000    2.62720    4.07220    4.99430    0.05490 2776.06560
 1689.05000    6.00000    6.43950   14.04880    6.94440    2.62810    3.99740    4.99850    0.05510 2770.80520
 1689.10000    6.00000    6.44780   14.14830    6.75880    2.62900    3.92260    5.00270    0.05530 2765.54470
 1689.15000    6.00000    6.45610   14.24770    6.57320    2.62990    3.84770    5.00690    0.05560 2760.28430
 1689.20000    6.00000    6.46430   14.34710    6.38760    2.63080    3.77290    5.01110    0.05580 2755.02390
 1689.25000    6.00000    6.47260   14.44660    6.20200    2.62920    3.70890    5.00690    0.05600 2749.76350
