~Version ---------------------------------------------------
VERS.   2.0 : CWLS log ASCII Standard -VERSION 2.0
WRAP.    NO : One line per depth step
DLM . SPACE : Column Data Section Delimiter
~Well ------------------------------------------------------
STRT.m 1786.00000 : START DEPTH
STOP.m 1840.00000 : STOP DEPTH
STEP.m    0.05000 : STEP
NULL.    -9999.25 : NULL VALUE
COMP.     Unknown : COMPANY
WELL.     Unknown : WELL
FLD .     Unknown : FIELD
LOC .             : LOCATION
PROV.             : PROVINCE
CNTY.             : COUNTY
STAT.             : STATE
CTRY.     Unknown : COUNTRY
SRVC.             : SERVICE COMPANY
DATE.     Unknown : DATE
UWI .     Unknown : UNIQUE WELL ID
API .             : API NUMBER
~Curve Information -----------------------------------------
DEPT      .m              : depths
GammaKT   .api            : digitalized and interpolated data
GammaTotal.api            : digitalized and interpolated data
Thorium   .parts-per-mil  : digitalized and interpolated data
Uranium   .parts-per-mil  : digitalized and interpolated data
Potassium .percent        : digitalized and interpolated data
~Params ----------------------------------------------------
~Other -----------------------------------------------------
~ASCII -----------------------------------------------------
# ...
 1792.00000   12.94140   64.01740   10.86510    6.75890    0.38500
 1792.05000   13.18330   64.74630   10.87710    6.85160    0.39770
 1792.10000   13.45270   65.38450   10.88920    6.96530    0.40690
 1792.15000   13.72210   66.69910   10.90180    7.04400    0.41220
 1792.20000   13.88150   67.44500   10.91440    7.12280    0.41760
 1792.25000   14.04010   68.37660   10.92690    7.18180    0.42290
 1792.30000   14.15600   69.15630   10.93950    7.23710    0.42680
 1792.35000   14.19440   69.68080   10.95210    7.28410    0.42660
 1792.40000   14.23290   70.10260   10.96470    7.31090    0.42640
 1792.45000   14.27130   70.43870   10.98570    7.33760    0.42970
 1792.50000   14.30980   70.73250   11.01070    7.36580    0.43310
 1792.55000   14.32670   70.95400   11.01530    7.39660    0.42760
 1792.60000   14.21370   71.11780   11.00930    7.42750    0.41990
 1792.65000   14.10120   71.28150   11.00320    7.45720    0.41210
 1792.70000   14.02710   71.39050   11.00660    7.48670    0.40430
 1792.75000   13.95310   71.48000   11.01380    7.51470    0.39660
 1792.80000   13.87470   71.56940   11.02100    7.53130    0.38850
 1792.85000   13.73940   71.63050   11.02740    7.54780    0.38040
 1792.90000   13.60400   71.63950   11.02970    7.56440    0.37230
 1792.95000   13.44800   71.64850   11.03210    7.58090    0.36420
 1793.00000   13.24710   71.64060   11.03440    7.56890    0.35610
 1793.05000   13.04620   71.56130   11.02950    7.55190    0.34800
 1793.10000   12.87240   71.25660   11.02200    7.53490    0.33990
 1793.15000   12.76420   70.81930   11.01450    7.51580    0.33190
 1793.20000   12.65600   70.37670   11.00700    7.48100    0.32380
 1793.25000   12.54780   69.94710   10.99960    7.44630    0.31480
 1793.30000   12.43960   69.53740   10.99210    7.40660    0.30560
 1793.35000   12.33150   69.12600   10.99060    7.35710    0.29640
 1793.40000   12.24810   68.69140   10.99090    7.30750    0.28720
 1793.45000   12.21150   68.25690   10.99130    7.22940    0.30380
 1793.50000   12.17490   67.70890   11.02220    7.15010    0.30880
 1793.55000   12.13830   67.18480   11.03090    7.11860    0.29580
 1793.60000   12.22140   66.81620   11.01800    7.10500    0.28270
 1793.65000   12.35670   66.44750   11.00500    7.09140    0.27860
 1793.70000   12.49200   66.66530   11.02440    7.10670    0.27680
 1793.75000   12.62850   67.03780   11.04730    7.16930    0.27550
 1793.80000   12.84290   67.57880   11.07010    7.26980    0.29820
 1793.85000   13.05720   68.39250   11.10050    7.39840    0.32090
 1793.90000   13.33200   69.53860   11.13720    7.57610    0.34360
 1793.95000   13.66460   71.22850   11.17390    7.75370    0.30210
 1794.00000   14.04370   73.18530   11.21060    8.03160    0.31520
 1794.05000   14.44710   75.22110   11.24720    8.30810    0.32830
 1794.10000   14.85050   77.33460   11.27370    8.51990    0.34140
 1794.15000   15.15050   79.24980   11.29460    8.71170    0.35050
 1794.20000   15.37950   80.55500   11.31540    8.92470    0.35690
 1794.25000   15.60860   82.56230   11.33230    9.12350    0.36320
 1794.30000   15.84990   84.29030   11.34840    9.29810    0.36950
 1794.35000   16.09250   86.06110   11.36450    9.64710    0.37750
 1794.40000   16.33500   87.99140   11.37690    9.84980    0.38860
 1794.45000   16.28660   89.98890   11.36300   10.05410    0.39980
 1794.50000   16.24650   92.03560   11.34920   10.19190    0.41090
 1794.55000   16.30820   93.46510   11.33530   10.23940    0.41460
 1794.60000   16.36980   93.90430   11.32620   10.28700    0.41780
 1794.65000   16.28250   94.26450   11.32650   10.33450    0.41740
 1794.70000   16.15310   94.43730   11.32690   10.30580    0.41500
 1794.75000   16.02380   94.50190   11.30780   10.27380    0.41260
 1794.80000   15.89440   94.30720   11.28860   10.21040    0.40980
 1794.85000   15.76510   93.37200   11.26940   10.08600    0.40540
 1794.90000   15.56060   91.43990   11.25020    9.85250    0.40100
 1794.95000   15.08160   88.61160   11.23100    9.62030    0.39660
 1795.00000   14.65580   86.70170   11.21440    9.41010    0.38160
 1795.05000   14.23560   84.87060   11.19840    9.07680    0.36130
 1795.10000   13.92140   82.85000   11.18240    8.80820    0.35210
 1795.15000   13.66130   80.07760   11.16110    8.56170    0.34290
 1795.20000   13.42720   78.46540   11.13840    8.39640    0.33360
 1795.25000   13.27770   76.46660   11.11570    8.23990    0.32590
 1795.30000   13.12820   74.76900   11.10040    8.14090    0.31840
 1795.35000   12.99480   73.96900   11.08630    8.06160    0.31330
 1795.40000   12.93970   73.60460   11.07220    8.05360    0.30920
 1795.45000   12.88470   73.28790   11.06350    8.04700    0.30510
 1795.50000   12.82960   73.01770   11.05810    8.04530    0.30100
 1795.55000   12.77450   73.20260   11.05270    8.05650    0.30430
 1795.60000   12.87740   73.38750   11.05790    8.12820    0.30950
 1795.65000   12.99010   73.63260   11.06410    8.24590    0.31480
 1795.70000   13.10270   74.49340   11.07190    8.36230    0.32000
 1795.75000   13.31930   75.70600   11.08420    8.51990    0.32530
 1795.80000   13.56380   76.88760   11.09650    8.68130    0.33120
 1795.85000   13.79780   78.37570   11.10270    8.81320    0.34480
 1795.90000   14.00950   79.67290   11.09960    8.92890    0.35830
 1795.95000   14.22110   80.75180   11.09640    9.02290    0.37180
 1796.00000   14.45650   81.67070   11.09320    9.11900    0.39050
 1796.05000   14.72430   82.63800   11.09240    9.23400    0.41400
 1796.10000   14.92300   83.71030   11.09370    9.33110    0.43480
 1796.15000   15.02310   84.68340   11.09490    9.40180    0.44740
 1796.20000   15.12320   85.31820   11.08950    9.47210    0.46000
 1796.25000   15.22320   85.90670   11.07950    9.52810    0.47250
 1796.30000   15.32330   86.50800   11.06940    9.58410    0.47750
 1796.35000   15.41230   87.09740   11.05940    9.63590    0.48030
 1796.40000   15.43420   87.64800   11.04930    9.68290    0.48320
 1796.45000   15.45620   88.12380   11.03930    9.72990    0.52010
 1796.50000   15.46470   88.28590   11.02570    9.75270    0.52480
 1796.55000   15.28740   88.31200   11.01150    9.73790    0.51250
 1796.60000   15.11010   88.30620   10.99720    9.72300    0.50020
 1796.65000   14.95330   87.51770   11.00810    9.70820    0.48790
 1796.70000   14.83000   86.91940   11.01940    9.65960    0.47580
 1796.75000   14.70670   86.48470   11.00920    9.60720    0.46390
 1796.80000   14.56050   86.16860   10.98990    9.56410    0.46400
 1796.85000   14.35010   85.66580   10.96900    9.53050    0.47560
 1796.90000   14.13970   85.02170   10.94740    9.46990    0.48710
 1796.95000   14.02950   84.17390   10.94480    9.32290    0.44480
 1797.00000   13.92670   83.09940   10.94240    9.23140    0.43840
 1797.05000   13.82400   82.22920   10.84440    9.08590    0.44080
 1797.10000   13.72130   81.15850   10.84620    9.00780    0.44320
 1797.15000   13.61860   80.56030   10.84810    8.94190    0.44280
 1797.20000   13.51590   80.14110   10.85000    8.89090    0.44170
 1797.25000   13.46270   79.80920   10.85180    8.85540    0.44340
 1797.30000   13.43540   79.52430   10.85370    8.81940    0.44860
 1797.35000   13.40810   79.35940   10.85470    8.76730    0.45390
 1797.40000   13.40280   79.19460   10.85230    8.71520    0.46010
 1797.45000   13.43080   79.07790   10.84990    8.69540    0.46700
 1797.50000   13.45870   78.96970   10.84750    8.68500    0.47110
 1797.55000   13.62900   78.86160   10.85360    8.70530    0.47090
 1797.60000   13.81280   78.82180   10.86010    8.76590    0.47070
 1797.65000   14.00030   79.40400   10.86690    8.82910    0.47060
 1797.70000   14.21440   80.34480   10.87400    8.89850    0.47040
 1797.75000   14.44230   81.25510   10.88220    8.96780    0.47020
 1797.80000   14.71780   81.75620   10.89930    9.05780    0.47010
 1797.85000   14.99320   82.69740   10.91630    9.17950    0.50590
 1797.90000   15.26860   83.72280   10.93350    9.42860    0.54090
 1797.95000   15.54400   85.66080   10.96360    9.71990    0.56740
