~Version ---------------------------------------------------
VERS.   2.0 : CWLS log ASCII Standard -VERSION 2.0
WRAP.    NO : One line per depth step
DLM . SPACE : Column Data Section Delimiter
~Well ------------------------------------------------------
STRT.m 1682.00000 : START DEPTH
STOP.m 1742.00000 : STOP DEPTH
STEP.m    0.05000 : STEP
NULL.    -9999.25 : NULL VALUE
COMP.     Unknown : COMPANY
WELL.     Unknown : WELL
FLD .     Unknown : FIELD
LOC .             : LOCATION
PROV.             : PROVINCE
CNTY.             : COUNTY
STAT.             : STATE
CTRY.     Unknown : COUNTRY
SRVC.             : SERVICE COMPANY
DATE.     Unknown : DATE
UWI .     Unknown : UNIQUE WELL ID
API .             : API NUMBER
~Curve Information -----------------------------------------
DEPT    .m           : depths
Gamma   .api         : digitalized and interpolated data
SP      .millivolts  : digitalized and interpolated data
Caliper .inches      : digitalized and interpolated data
Bit Size.inches      : digitalized and interpolated data
Tens    .pounds      : digitalized and interpolated data
MSFL    .Ohm-m       : digitalized and interpolated data
LLD     .Ohm-m       : digitalized and interpolated data
LLS     .Ohm-m       : digitalized and interpolated data
~Params ----------------------------------------------------
~Other -----------------------------------------------------
~ASCII -----------------------------------------------------
# ...
 1710.00000    9.81830   30.23750    5.74500    5.91390 3372.09200   51.60721   69.68341   77.52383
 1710.05000    9.97030   30.02270    5.73380    5.93370 3371.48790   52.67105   70.14265   78.19579
 1710.10000   10.13940   29.80790    5.72250    5.95350 3372.13310   53.75680   71.17633   76.29077
 1710.15000   10.44310   29.66450    5.72370    5.95950 3372.77820   58.46296   72.36540   79.27627
 1710.20000   10.74680   29.52200    5.74420    5.96550 3370.73100   62.05406   73.27567   82.51156
 1710.25000   10.99900   29.37950    5.76470    5.95520 3368.33610   68.36833   73.78733   86.15030
 1710.30000   11.23260   29.23700    5.74600    5.92080 3365.94120   72.34281   74.30253   89.70201
 1710.35000   11.96670   29.09450    5.70840    5.95170 3380.49100   75.64754   76.10353   85.49419
 1710.40000   12.74580   28.95200    5.69140    5.95610 3395.76270   80.23222   78.77746   93.59671
 1710.45000   13.50180   28.78550    5.67430    5.91910 3406.30490   84.04537   82.71331   91.38535
 1710.50000   14.31890   28.61220    5.65850    5.94790 3406.95010   82.12224   87.02123   98.65638
 1710.55000   14.83480   28.43880    5.64990    5.94330 3407.59520   80.38596   89.90205   96.99139
 1710.60000   15.34780   28.29490    5.64130    5.90590 3408.24040   78.86865   91.93778   97.02021
 1710.65000   15.52990   28.23850    5.63280    5.93370 3408.88560   77.49352   93.95204  104.94255
 1710.70000   15.71200   28.18220    5.62530    5.96960 3409.53070   76.82883   95.94969  107.56708
 1710.75000   15.89410   28.06800    5.61890    5.97550 3410.17590   76.16980   99.05664  109.98812
 1710.80000   15.77600   27.87340    5.61260    5.90490 3410.82110   75.51642  101.93126  112.04627
 1710.85000   15.61030   27.67870    5.60620    5.90300 3409.85320   76.74604  104.55201  114.16585
 1710.90000   15.44460   27.51100    5.59990    5.90110 3404.99150   78.44986  106.75681  116.95559
 1710.95000   15.27890   27.34500    5.60160    5.89920 3400.12970   79.29566  108.82824  120.30315
 1711.00000   14.97080   27.17910    5.61050    5.89730 3395.26800   79.88937  110.99300  124.29910
 1711.05000   14.66160   27.01310    5.61940    5.90220 3394.83510   79.05377  113.32533  136.90629
 1711.10000   14.35240   26.86540    5.62840    5.91390 3400.94680   77.52379  115.80401  138.44000
 1711.15000   14.39030   26.72200    5.63670    5.91680 3407.05840   77.78553  124.06075  137.82678
 1711.20000   14.54180   26.57850    5.64430    5.91170 3413.17000   80.81619  129.83847  147.94292
 1711.25000   14.69330   26.43500    5.65190    5.94080 3413.85560   92.17917  135.28343  151.35954
 1711.30000   14.89890   26.29150    5.65950    5.97290 3408.79170   97.51535  139.24416  153.76589
 1711.35000   15.63200   26.14800    5.65700    5.97200 3403.72780  103.69600  142.88828  155.62401
 1711.40000   16.42430   26.00450    5.63100    5.97120 3399.06600  107.54128  145.59665  157.50458
 1711.45000   17.12070   26.12930    5.62650    5.96950 3396.75180  110.68898  148.35637  161.33099
 1711.50000   17.65300   26.29310    5.68020    5.96600 3394.43770  113.60180  149.75150  159.89777
 1711.55000   18.03630   26.45680    5.69370    5.96250 3392.12360  105.14059  150.93661  158.47735
 1711.60000   18.27910   25.91270    5.69710    5.89490 3391.48790   93.28422  151.83420  157.16238
 1711.65000   18.61330   25.32140    5.64820    5.92180 3392.13310   86.80133  150.81648  155.87612
 1711.70000   18.97620   25.14130    5.66000    5.94880 3392.77820   81.33072  149.80565  154.60039
 1711.75000   18.83860   24.96110    5.67540    5.90270 3388.91390   79.56081  148.80153  153.33518
 1711.80000   18.70110   24.78090    5.69080    5.96340 3384.73600   76.19807  147.80421  154.55740
 1711.85000   18.56460   24.66700    5.64740    5.96690 3380.55810   80.43628  146.81350  155.47165
 1711.90000   18.42890   24.56360    5.66330    5.95050 3375.64110   78.99784  145.82950  153.22104
 1711.95000   18.29310   24.48490    5.67910    5.93410 3370.60430   85.99543  146.56464  151.00301
 1712.00000   18.28900   24.45910    5.67860    5.91780 3365.56760   89.25275  147.35925  151.15886
 1712.05000   19.00790   24.43320    5.62760    5.90810 3362.66180   92.84899  146.69489  155.41388
 1712.10000   19.05790   24.25100    5.65720    5.94260 3360.54820   97.84170  144.82649  155.83665
 1712.15000   19.10790   24.01950    5.68680    5.89610 3358.43460  103.05304  149.29181  156.17582
 1712.20000   19.16580   23.77590    5.65890    5.88100 3356.32100  109.00660  150.22126  156.20848
 1712.25000   19.22860   23.47940    5.62620    5.88790 3353.78700  106.70456  150.39618  156.24114
 1712.30000   19.29130   23.25850    5.66920    5.89490 3350.69400  102.46336  150.57137  156.27374
 1712.35000   19.86740   23.11770    5.70260    5.89490 3347.60100   98.54178  150.62026  154.97926
 1712.40000   19.64390   22.97700    5.70280    5.89240 3344.50810   93.13750  150.42395  152.34387
 1712.45000   19.46990   22.83630    5.70300    5.88990 3343.14420   88.74715  150.22790  154.67246
 1712.50000   19.58390   22.69550    5.63970    5.88770 3343.78940   85.77908  147.67242  151.67116
 1712.55000   18.90130   22.44160    5.66260    5.88550 3344.43450   84.04177  145.19464  148.35726
 1712.60000   18.92670   22.17200    5.68540    5.91930 3345.07970   82.92896  143.37796  147.78535
 1712.65000   19.00570   21.90250    5.68910    5.95530 3345.72490   81.83088  141.58401  150.38544
 1712.70000   18.60260   21.63290    5.65320    5.95100 3346.37000   81.68776  141.70494  153.03135
 1712.75000   17.47310   21.55900    5.61730    5.90610 3347.01520   82.93644  142.23687  150.90631
 1712.80000   16.37600   21.53390    5.71120    5.94190 3347.66030   82.49602  142.77080  158.77846
 1712.85000   15.70200   21.50880    5.68010    5.95480 3348.30550   81.65857  143.36277  156.34046
 1712.90000   15.17890   21.57350    5.68840    5.92720 3348.95070   81.19409  146.87917  162.04916
 1712.95000   14.71220   21.70430    5.70780    5.89950 3349.59580   81.80367  150.20749  171.54292
 1713.00000   14.29530   21.83520    5.66290    5.87180 3348.02910   82.41783  153.16086  179.72314
 1713.05000   14.03350   20.78520    5.63190    5.86400 3345.74580   98.19464  156.17230  199.04295
 1713.10000   14.10570   20.50370    5.67650    5.87130 3343.46260  110.29225  165.96641  196.60746
 1713.15000   14.17790   20.22220    5.70500    5.87850 3350.00190  123.51662  178.00533  204.79049
 1713.20000   14.25010   19.94070    5.64710    5.88540 3360.01900  135.23883  190.41388  211.53225
 1713.25000   14.19700   19.64550    5.65370    5.88540 3367.87990  142.99103  195.89845  218.49595
 1713.30000   13.89650   19.31480    5.69840    5.88540 3366.29320  152.43293  201.03978  231.51023
 1713.35000   13.58990   18.98410    5.67600    5.88750 3364.70640  139.30259  206.31614  233.38707
 1713.40000   13.16520   18.65350    5.63950    5.89350 3363.11960  133.20686  211.73088  234.85889
 1713.45000   12.74050   18.15080    5.68980    5.89960 3361.76860  127.43209  220.88824  234.23274
 1713.50000   12.37570   17.62840    5.70930    5.91910 3360.78720  121.11412  222.52868  222.92932
 1713.55000   12.04150   17.23690    5.71260    5.95080 3359.80570  115.79052  223.72288  222.72296
 1713.60000   11.75600   17.08430    5.71200    5.94760 3358.82430  112.73007  214.67852  222.51679
 1713.65000   11.64370   16.93170    5.64110    5.90120 3358.62810  111.87102  212.56786  211.44664
 1713.70000   11.53140   16.77900    5.68060    5.89860 3359.27330  114.55820  208.39131  208.70641
 1713.75000   11.41910   16.16970    5.69550    5.95410 3359.91840  115.62555  204.13355  207.56159
 1713.80000   11.28450   15.42870    5.66890    5.96850 3360.56360  113.18138  201.20946  206.72233
 1713.85000   11.10890   14.90260    5.64240    5.96940 3361.20870  112.32665  198.32716  205.88656
 1713.90000   10.93330   14.64880    5.69760    5.97030 3361.85390  111.47831  197.26008  205.05407
 1713.95000   10.75760   14.39500    5.70840    5.97120 3362.49910  113.72187  196.84890  203.54770
