~Version ---------------------------------------------------
VERS.   2.0 : CWLS log ASCII Standard -VERSION 2.0
WRAP.    NO : One line per depth step
DLM . SPACE : Column Data Section Delimiter
~Well ------------------------------------------------------
STRT.m 1682.00000 : START DEPTH
STOP.m 1742.00000 : STOP DEPTH
STEP.m    0.05000 : STEP
NULL.    -9999.25 : NULL VALUE
COMP.     Unknown : COMPANY
WELL.     Unknown : WELL
FLD .     Unknown : FIELD
LOC .             : LOCATION
PROV.             : PROVINCE
CNTY.             : COUNTY
STAT.             : STATE
CTRY.     Unknown : COUNTRY
SRVC.             : SERVICE COMPANY
DATE.     Unknown : DATE
UWI .     Unknown : UNIQUE WELL ID
API .             : API NUMBER
~Curve Information -----------------------------------------
DEPT            .m            : depths
Bit Size        .inches       : digitalized and interpolated data
Caliper         .inches       : digitalized and interpolated data
GammaKUT        .api          : digitalized and interpolated data
GammaKT         .api          : digitalized and interpolated data
Density         .gram per cc  : digitalized and interpolated data
Neutron Porosity.pu           : digitalized and interpolated data
Pe              .unknown      : digitalized and interpolated data
DensityCorr     .gm per cc    : digitalized and interpolated data
Tension         .pounds       : digitalized and interpolated data
~Params ----------------------------------------------------
~Other -----------------------------------------------------
~ASCII -----------------------------------------------------
# ...
 1703.90000    6.00000    5.94000   18.93120    5.85450    2.54980   17.84970    3.34940    0.05660 2727.41590
 1703.95000    6.00000    5.94300   18.36310    5.57550    2.54660   18.11520    3.29490    0.05620 2735.60240
 1704.00000    6.00000    5.94200   17.96400    5.29650    2.54340   18.35680    3.26250    0.05590 2743.78890
 1704.05000    6.00000    5.93600   17.76370    5.13450    2.54020   18.47260    3.23010    0.05550 2751.97540
 1704.10000    6.00000    5.93010   17.56340    4.98320    2.53800   18.30990    3.19770    0.05510 2760.16190
 1704.15000    6.00000    5.92410   17.36310    4.83190    2.53650   18.14720    3.16520    0.05440 2768.34850
 1704.20000    6.00000    5.91820   17.16280    4.68060    2.53510   17.98460    3.13280    0.05350 2776.53500
 1704.25000    6.00000    5.91220   16.96240    4.52930    2.53370   17.82190    3.11110    0.05260 2784.72150
 1704.30000    6.00000    5.90630   16.76210    4.37800    2.53220   17.78780    3.09720    0.05170 2784.27000
 1704.35000    6.00000    5.90040   16.56180    4.22660    2.53080   17.78780    3.08330    0.05070 2778.17100
 1704.40000    6.00000    5.89440   16.55450    4.07530    2.52980   17.78780    3.06950    0.04980 2772.07190
 1704.45000    6.00000    5.88850   16.55910    3.92400    2.52870   17.78780    3.05560    0.04880 2765.97290
 1704.50000    6.00000    5.88250   16.56370    3.77270    2.52770   17.78780    3.04170    0.04740 2759.87390
 1704.55000    6.00000    5.89550   16.56830    3.62140    2.52660   17.80500    3.02780    0.04600 2753.77480
 1704.60000    6.00000    5.90930   16.57290    3.47010    2.52560   17.84190    3.01390    0.04460 2747.67580
 1704.65000    6.00000    5.92320   16.57760    3.35500    2.52520   17.87880    3.02530    0.04320 2741.57680
 1704.70000    6.00000    5.93710   16.58220    3.29060    2.52490   17.91570    3.05290    0.04170 2735.47770
 1704.75000    6.00000    5.95090   16.58680    3.22620    2.52450   17.95260    3.08060    0.04030 2729.37870
 1704.80000    6.00000    5.96480   16.59140    3.16170    2.52410   17.98940    3.10820    0.04000 2723.27970
 1704.85000    6.00000    5.97870   16.59600    3.09730    2.52370   17.89520    3.13590    0.04200 2717.18060
 1704.90000    6.00000    5.98880   16.72430    3.03280    2.52330   17.76210    3.16350    0.04400 2711.08160
 1704.95000    6.00000    5.99880   16.88400    2.90470    2.52290   17.62900    3.18640    0.04590 2704.98260
 1705.00000    6.00000    6.00870   17.04370    2.69530    2.52360   17.49590    3.20570    0.04790 2698.88350
 1705.05000    6.00000    6.01860   17.20340    2.48580    2.52910   17.33630    3.22500    0.04990 2692.78450
 1705.10000    6.00000    6.02860   17.36320    2.27640    2.53580   16.77030    3.24430    0.05300 2686.68550
 1705.15000    6.00000    6.02770   17.52290    2.06690    2.54570   16.71930    3.26370    0.05680 2680.58640
 1705.20000    6.00000    6.00790   17.68260    1.85750    2.55070   16.66820    3.28300    0.06060 2674.48740
 1705.25000    6.00000    5.98810   18.01660    1.64800    2.55570   16.61710    3.28380    0.06500 2673.82320
 1705.30000    6.00000    5.96830   18.38060    1.81650    2.55900   16.56610    3.28400    0.07020 2674.84720
 1705.35000    6.00000    5.94850   18.74450    2.01870    2.55080   16.51500    3.28420    0.07510 2675.87110
 1705.40000    6.00000    5.92880   19.19890    2.22100    2.54630   16.49840    3.28440    0.07870 2676.89500
 1705.45000    6.00000    5.90790   19.61810    2.42320    2.54180   16.61500    3.27980    0.08230 2677.91890
 1705.50000    6.00000    5.88700   18.47190    2.62550    2.53620   16.73150    3.27270    0.08590 2678.94290
 1705.55000    6.00000    5.86620   17.32570    2.84320    2.53020   16.84810    3.26550    0.08670 2679.96680
 1705.60000    6.00000    5.84530   17.14660    3.55120    2.52430   16.95470    3.25840    0.08710 2680.99070
 1705.65000    6.00000    5.82440   17.27500    4.25920    2.52510   16.90380    3.25120    0.08740 2682.01460
 1705.70000    6.00000    5.82550   17.40330    4.96720    2.53230   16.85280    3.24410    0.08770 2683.03860
 1705.75000    6.00000    5.82780   17.53160    4.82560    2.53450   16.80190    3.24460    0.08800 2684.06250
 1705.80000    6.00000    5.83020   17.66000    4.49150    2.53670   16.75090    3.26100    0.08820 2685.08640
 1705.85000    6.00000    5.83250   17.78830    4.15730    2.53890   16.70000    3.27740    0.08830 2686.11030
 1705.90000    6.00000    5.83490   17.91660    3.86660    2.54120   16.64910    3.29380    0.08840 2687.13430
 1705.95000    6.00000    5.83720   18.04500    3.82800    2.54380   16.59810    3.31020    0.08850 2688.15820
 1706.00000    6.00000    5.83960   18.17230    3.78950    2.54650   16.54720    3.32170    0.08860 2689.18210
 1706.05000    6.00000    5.83750   17.99960    3.75100    2.54910   16.43140    3.31920    0.08880 2690.20600
 1706.10000    6.00000    5.83170   17.82680    3.71240    2.55190   16.27300    3.31670    0.08890 2691.23000
 1706.15000    6.00000    5.82600   17.65410    3.67390    2.55530   16.11460    3.31420    0.08900 2692.34930
 1706.20000    6.00000    5.82020   17.48140    3.63530    2.55870   15.95620    3.31170    0.08760 2695.02120
 1706.25000    6.00000    5.81450   17.30860    3.59680    2.56220   15.78680    3.30910    0.08580 2697.69320
 1706.30000    6.00000    5.80880   17.13590    3.55830    2.56620   15.60260    3.30660    0.08390 2700.36520
 1706.35000    6.00000    5.80300   16.96320    3.52790    2.57020   15.41840    3.31240    0.08210 2703.03710
 1706.40000    6.00000    5.79730   16.98620    3.62700    2.57300   15.21500    3.32240    0.08030 2705.70910
 1706.45000    6.00000    5.79150   17.12100    3.72620    2.57380   14.98900    3.33230    0.07840 2708.38100
 1706.50000    6.00000    5.79130   17.25580    3.82530    2.57470   14.76290    3.34230    0.07660 2711.05300
 1706.55000    6.00000    5.79700   17.39050    3.92450    2.57550   14.63210    3.35230    0.07410 2713.72500
 1706.60000    6.00000    5.80260   17.52530    4.02360    2.57640   14.54810    3.36230    0.07120 2716.39690
 1706.65000    6.00000    5.80830   17.66010    4.12400    2.57730   14.46420    3.37220    0.06820 2719.06890
 1706.70000    6.00000    5.81390   17.79490    4.23030    2.57810   14.38030    3.38810    0.06530 2721.74080
 1706.75000    6.00000    5.81960   17.78660    4.33670    2.57900   14.29630    3.41420    0.05870 2724.41280
 1706.80000    6.00000    5.82520   17.52470    4.44300    2.58020   14.21240    3.44040    0.05240 2727.08470
 1706.85000    6.00000    5.83090   17.26270    4.54930    2.58150   14.12850    3.46660    0.04660 2729.75670
 1706.90000    6.00000    5.83650   17.00080    4.65570    2.58270   14.06400    3.49280    0.04320 2732.52510
 1706.95000    6.00000    5.84220   16.73890    4.77200    2.58390   14.00490    3.51890    0.04080 2735.33060
 1707.00000    6.00000    5.84850   16.43590    4.95330    2.58520   13.94590    3.54750    0.03830 2738.13620
 1707.05000    6.00000    5.86810   16.11370    5.13450    2.58640   13.88680    3.57640    0.03590 2740.94180
 1707.10000    6.00000    5.88770   15.79140    5.31580    2.58590   13.82770    3.60520    0.03340 2743.74730
 1707.15000    6.00000    5.90740   15.46920    5.49700    2.58450   13.81020    3.63410    0.03190 2746.55290
 1707.20000    6.00000    5.92700   15.14700    5.59150    2.58310   13.84340    3.63530    0.03200 2749.35840
 1707.25000    6.00000    5.94660   14.82480    5.48650    2.58180   13.87660    3.60990    0.03210 2752.16400
 1707.30000    6.00000    5.96430   14.60550    5.38160    2.58010   13.90980    3.58450    0.03230 2754.96950
 1707.35000    6.00000    5.97810   14.42970    5.27660    2.57830   13.94300    3.55910    0.03240 2757.77510
 1707.40000    6.00000    5.99190   14.25400    5.17160    2.57650   13.96970    3.53790    0.03250 2760.58060
 1707.45000    6.00000    6.00570   14.07820    5.06660    2.57480   13.99370    3.52530    0.03260 2763.38620
 1707.50000    6.00000    6.01950   13.90250    4.96170    2.57300   14.01780    3.51270    0.03270 2766.19180
