~Version ---------------------------------------------------
VERS.   2.0 : CWLS log ASCII Standard -VERSION 2.0
WRAP.    NO : One line per depth step
DLM . SPACE : Column Data Section Delimiter
~Well ------------------------------------------------------
STRT.m 1682.00000 : START DEPTH
STOP.m 1742.00000 : STOP DEPTH
STEP.m    0.05000 : STEP
NULL.    -9999.25 : NULL VALUE
COMP.     Unknown : COMPANY
WELL.     Unknown : WELL
FLD .     Unknown : FIELD
LOC .             : LOCATION
PROV.             : PROVINCE
CNTY.             : COUNTY
STAT.             : STATE
CTRY.     Unknown : COUNTRY
SRVC.             : SERVICE COMPANY
DATE.     Unknown : DATE
UWI .     Unknown : UNIQUE WELL ID
API .             : API NUMBER
~Curve Information -----------------------------------------
DEPT            .m            : depths
Bit Size        .inches       : digitalized and interpolated data
Caliper         .inches       : digitalized and interpolated data
GammaKUT        .api          : digitalized and interpolated data
GammaKT         .api          : digitalized and interpolated data
Density         .gram per cc  : digitalized and interpolated data
Neutron Porosity.pu           : digitalized and interpolated data
Pe              .unknown      : digitalized and interpolated data
DensityCorr     .gm per cc    : digitalized and interpolated data
Tension         .pounds       : digitalized and interpolated data
~Params ----------------------------------------------------
~Other -----------------------------------------------------
~ASCII -----------------------------------------------------
 1682.00000    6.00000    6.91610   15.77970    9.29760    2.63530    4.45870    4.77240    0.15030 2656.25000
 1682.05000    6.00000    6.91550   15.77970    8.64610    2.63010    4.43030    4.78050    0.15010 2656.25000
 1682.10000    6.00000    6.88550   15.77970    8.05840    2.62460    4.40180    4.78850    0.14570 2656.25000
 1682.15000    6.00000    6.85560   15.77970    7.47060    2.61840    4.37340    4.79650    0.14130 2656.25000
 1682.20000    6.00000    6.82560   15.77970    6.88290    2.61120    4.34490    4.80450    0.13690 2656.25000
 1682.25000    6.00000    6.79570   15.77970    6.29520    2.60250    4.31650    4.78400    0.13250 2656.25000
 1682.30000    6.00000    6.76580   15.77970    5.70740    2.58970    4.28800    4.75180    0.12790 2656.25000
 1682.35000    6.00000    6.73580   15.87930    5.24610    2.58200    4.25950    4.71960    0.12340 2656.25000
 1682.40000    6.00000    6.70590   16.17280    4.80590    2.57920    4.20440    4.68740    0.11780 2656.25000
 1682.45000    6.00000    6.67590   16.46630    4.36570    2.57650    4.13910    4.65510    0.11190 2656.25000
 1682.50000    6.00000    6.64600   16.75980    3.92550    2.57500    4.07380    4.62230    0.10610 2656.25000
 1682.55000    6.00000    6.62740   17.05330    3.93990    2.57970    4.00860    4.58960    0.10020 2656.25000
 1682.60000    6.00000    6.61260   17.34680    4.19720    2.58490    3.94330    4.55680    0.09440 2656.25000
 1682.65000    6.00000    6.59780   18.39390    4.45460    2.59440    3.87800    4.52400    0.08450 2656.25000
 1682.70000    6.00000    6.58300   19.46610    4.71190    2.60040    3.86650    4.49120    0.07220 2729.81580
 1682.75000    6.00000    6.56820   20.73150    4.96930    2.60690    3.86650    4.46170    0.05030 2807.23840
 1682.80000    6.00000    6.55340   21.89110    5.22660    2.61520    3.86650    4.48850    0.03960 2781.60850
 1682.85000    6.00000    6.53860   22.85110    5.57720    2.62360    3.86650    4.51530    0.02940 2755.97850
 1682.90000    6.00000    6.52380   23.75410    6.50520    2.61540    3.92440    4.54210    0.02180 2730.34850
 1682.95000    6.00000    6.50900   24.35280    7.43320    2.60890    4.07490    4.56890    0.01830 2704.71860
 1683.00000    6.00000    6.49420   24.95150    8.08100    2.60030    4.22540    4.59570    0.01490 2679.08860
 1683.05000    6.00000    6.49590   24.68100    8.68860    2.58510    4.37580    4.62250    0.01140 2659.68750
 1683.10000    6.00000    6.49930   24.21700    9.29620    2.57790    4.70180    4.64930    0.01220 2691.25000
 1683.15000    6.00000    6.50280   23.75300    9.70010    2.57380    5.27880    4.66340    0.01510 2722.81250
 1683.20000    6.00000    6.50620   23.26720   10.01850    2.57170    6.24360    4.66660    0.01800 2754.37500
 1683.25000    6.00000    6.50960   22.30720   10.18960    2.56950    6.76350    4.66980    0.02090 2785.93750
 1683.30000    6.00000    6.51300   21.34720    9.44200    2.56740    7.04090    4.67300    0.02520 2812.50000
 1683.35000    6.00000    6.51640   20.54680    8.69450    2.56550    7.17200    4.67620    0.03000 2812.50000
 1683.40000    6.00000    6.52440   19.77350    8.02620    2.56750    7.30300    4.67940    0.03690 2812.50000
 1683.45000    6.00000    6.53360   19.03450    7.36940    2.56950    7.43410    4.65620    0.04470 2812.50000
 1683.50000    6.00000    6.54280   18.50990    6.71260    2.57140    7.54640    4.61680    0.04840 2812.50000
 1683.55000    6.00000    6.55200   17.98540    6.05580    2.57340    7.45060    4.57740    0.05200 2812.50000
 1683.60000    6.00000    6.56120   17.46090    5.39900    2.57720    7.35480    4.53800    0.05560 2812.50000
 1683.65000    6.00000    6.57130   16.93640    4.95860    2.59610    7.25900    4.50440    0.05790 2812.50000
 1683.70000    6.00000    6.58710   16.94260    4.89640    2.60190    7.16320    4.47530    0.05990 2812.50000
 1683.75000    6.00000    6.60290   17.08320    4.83420    2.60750    7.06730    4.44620    0.06180 2812.50000
 1683.80000    6.00000    6.61860   17.22380    4.77200    2.61220    6.97070    4.41710    0.06340 2812.50000
 1683.85000    6.00000    6.63440   17.36440    4.70970    2.61700    6.87320    4.38800    0.06230 2812.50000
 1683.90000    6.00000    6.65020   17.50500    4.64750    2.62170    6.77570    4.35880    0.06110 2812.50000
 1683.95000    6.00000    6.66590   17.64560    4.58530    2.61280    6.67830    4.32970    0.06000 2812.50000
 1684.00000    6.00000    6.68170   18.18760    4.52550    2.60810    6.58080    4.35180    0.05890 2812.50000
 1684.05000    6.00000    6.69160   19.03120    4.46630    2.60340    6.48330    4.39190    0.05780 2812.50000
 1684.10000    6.00000    6.69400   19.84930    4.40700    2.59500    6.43650    4.43200    0.05670 2812.50000
 1684.15000    6.00000    6.69630   20.37460    4.34780    2.57850    6.41460    4.47210    0.05560 2812.50000
 1684.20000    6.00000    6.69870   20.89990    4.28860    2.56730    6.39270    4.51220    0.05440 2812.50000
 1684.25000    6.00000    6.70100   21.42520    4.22940    2.55970    6.61960    4.53920    0.05320 2812.50000
 1684.30000    6.00000    6.70340   21.90860    4.17020    2.55070    6.91200    4.56130    0.05200 2805.00000
 1684.35000    6.00000    6.70570   21.90860    4.11100    2.54690    7.46460    4.58330    0.05080 2783.95830
 1684.40000    6.00000    6.70810   21.90860    4.05180    2.54440    7.98970    4.60540    0.04960 2762.91670
 1684.45000    6.00000    6.71050   21.90860    4.20810    2.54180    8.40540    4.62750    0.04850 2741.87500
 1684.50000    6.00000    6.71280   21.90860    4.57750    2.53930    8.74410    4.64960    0.04920 2720.83330
 1684.55000    6.00000    6.71520   21.90860    4.94690    2.53780    8.82490    4.66760    0.04980 2699.79170
 1684.60000    6.00000    6.71750   21.90860    5.27930    2.53850    8.77640    4.68130    0.05050 2678.75000
 1684.65000    6.00000    6.71990   21.90860    5.33200    2.53920    8.72790    4.69490    0.05120 2657.70830
 1684.70000    6.00000    6.72220   21.90860    5.38470    2.53980    8.67950    4.70860    0.05190 2656.25000
 1684.75000    6.00000    6.72460   21.87750    5.43750    2.54050    8.63100    4.72230    0.05250 2656.25000
 1684.80000    6.00000    6.72080   21.82110    5.49020    2.54110    8.58250    4.73590    0.05320 2656.25000
 1684.85000    6.00000    6.71470   21.76470    5.54290    2.54180    8.48780    4.76110    0.05390 2656.25000
 1684.90000    6.00000    6.70860   21.70830    5.59560    2.54470    8.15380    4.79070    0.05450 2656.25000
 1684.95000    6.00000    6.70250   21.65200    5.50470    2.54990    7.81990    4.82020    0.05520 2645.22250
 1685.00000    6.00000    6.69630   21.59560    5.25480    2.55640    7.52430    4.84970    0.05880 2633.97230
 1685.05000    6.00000    6.69070   21.53920    5.00500    2.56360    7.30650    4.87920    0.06350 2622.72200
 1685.10000    6.00000    6.69230   21.37680    4.75520    2.56610    7.08870    4.90300    0.06820 2611.47180
 1685.15000    6.00000    6.69400   20.97250    4.50530    2.56870    6.93140    4.90970    0.07710 2600.22150
 1685.20000    6.00000    6.69570   20.56830    4.25480    2.57130    6.85230    4.91630    0.08260 2588.97130
 1685.25000    6.00000    6.69730   20.16400    4.00370    2.57380    6.77320    4.92290    0.08440 2577.72100
 1685.30000    6.00000    6.69900   20.10670    3.75260    2.57470    6.69410    4.92960    0.08630 2566.47080
 1685.35000    6.00000    6.70070   20.05520    3.50150    2.57560    6.61500    4.93620    0.08820 2560.41330
 1685.40000    6.00000    6.70230   20.00360    3.25040    2.57620    6.53590    4.92830    0.09010 2569.26920
 1685.45000    6.00000    6.70400   19.95210    2.99930    2.56780    6.51540    4.91460    0.09200 2578.12510
 1685.50000    6.00000    6.70560   19.90050    2.94350    2.55690    6.52220    4.90090    0.09420 2586.98100
 1685.55000    6.00000    6.70730   19.84900    2.95040    2.54310    6.52910    4.88720    0.09630 2595.83690
 1685.60000    6.00000    6.70910   19.78910    2.95740    2.52410    6.53600    4.87350    0.09850 2604.69280
