~Version ---------------------------------------------------
VERS.   2.0 : CWLS log ASCII Standard -VERSION 2.0
WRAP.    NO : One line per depth step
DLM . SPACE : Column Data Section Delimiter
~Well ------------------------------------------------------
STRT.m 1682.00000 : START DEPTH
STOP.m 1742.00000 : STOP DEPTH
STEP.m    0.05000 : STEP
NULL.    -9999.25 : NULL VALUE
COMP.     Unknown : COMPANY
WELL.     Unknown : WELL
FLD .     Unknown : FIELD
LOC .             : LOCATION
PROV.             : PROVINCE
CNTY.             : COUNTY
STAT.             : STATE
CTRY.     Unknown : COUNTRY
SRVC.             : SERVICE COMPANY
DATE.     Unknown : DATE
UWI .     Unknown : UNIQUE WELL ID
API .             : API NUMBER
~Curve Information -----------------------------------------
DEPT            .m            : depths
Bit Size        .inches       : digitalized and interpolated data
Caliper         .inches       : digitalized and interpolated data
GammaKUT        .api          : digitalized and interpolated data
GammaKT         .api          : digitalized and interpolated data
Density         .gram per cc  : digitalized and interpolated data
Neutron Porosity.pu           : digitalized and interpolated data
Pe              .unknown      : digitalized and interpolated data
DensityCorr     .gm per cc    : digitalized and interpolated data
Tension         .pounds       : digitalized and interpolated data
~Params ----------------------------------------------------
~Other -----------------------------------------------------
~ASCII -----------------------------------------------------
# ...
 1733.10000    6.00000    6.38890   22.86030    9.61750    2.74480    3.61720    3.75760    0.00700 2794.06430
 1733.15000    6.00000    6.37990   23.18030    9.58570    2.74610    3.57940    3.76340    0.00710 2798.86330
 1733.20000    6.00000    6.37320   23.42980    9.55400    2.74740    3.54160    3.76920    0.00730 2803.66230
 1733.25000    6.00000    6.36690   23.63150    9.52220    2.74870    3.50370    3.77500    0.00740 2808.46130
 1733.30000    6.00000    6.36070   23.83320    9.49040    2.74990    3.44850    3.78080    0.00760 2812.09720
 1733.35000    6.00000    6.35440   24.03500    9.29410    2.75120    3.39060    3.78660    0.00770 2809.55470
 1733.40000    6.00000    6.34820   24.23670    8.95730    2.75320    3.33280    3.79240    0.00790 2807.01220
 1733.45000    6.00000    6.34040   24.43850    8.62050    2.75640    3.27490    3.79820    0.00930 2804.46960
 1733.50000    6.00000    6.32850   24.66770    8.28370    2.75950    3.21710    3.80400    0.01090 2801.92710
 1733.55000    6.00000    6.31650   24.92240    7.94700    2.76260    3.15700    3.78820    0.01250 2799.38450
 1733.60000    6.00000    6.30460   25.17700    7.61160    2.76660    3.09390    3.77200    0.01410 2796.84200
 1733.65000    6.00000    6.29270   25.43160    7.27650    2.76880    3.03080    3.75580    0.01570 2794.29950
 1733.70000    6.00000    6.28080   25.68630    6.94140    2.76900    2.96770    3.73970    0.01730 2791.75690
 1733.75000    6.00000    6.26890   25.94090    6.60630    2.76930    2.90460    3.72350    0.02230 2789.21440
 1733.80000    6.00000    6.25700   26.25050    6.27120    2.76950    2.84140    3.70730    0.03150 2789.18090
 1733.85000    6.00000    6.24500   26.67100    5.93610    2.76970    2.77830    3.69110    0.04180 2791.59900
 1733.90000    6.00000    6.23310   27.09160    5.60880    2.76650    2.69510    3.70480    0.05520 2794.01710
 1733.95000    6.00000    6.22220   27.51210    5.39050    2.76250    2.60570    3.72520    0.06210 2796.43520
 1734.00000    6.00000    6.22220   27.93260    5.17230    2.75840    2.51620    3.74570    0.07000 2798.85330
 1734.05000    6.00000    6.22220   28.59480    4.95410    2.75370    2.42670    3.76610    0.07920 2801.27140
 1734.10000    6.00000    6.22220   29.73760    4.73590    2.74900    2.33720    3.78650    0.08540 2803.68950
 1734.15000    6.00000    6.22220   29.31620    4.51770    2.74080    2.24770    3.80690    0.09140 2806.10760
 1734.20000    6.00000    6.22220   28.50930    4.29950    2.73540    2.15830    3.82860    0.08210 2808.52570
 1734.25000    6.00000    6.22570   27.50850    4.89560    2.73410    2.08220    3.85860    0.07610 2810.94380
 1734.30000    6.00000    6.23200   25.79320    5.51860    2.73270    2.01140    3.88850    0.07010 2810.25330
 1734.35000    6.00000    6.23830   24.32790    6.14150    2.73130    1.94050    3.91850    0.05830 2803.95010
 1734.40000    6.00000    6.24450   23.50300    6.48790    2.72990    1.86970    3.94840    0.04950 2797.64680
 1734.45000    6.00000    6.25080   22.85550    6.71990    2.72860    1.79890    3.97840    0.04300 2791.34360
 1734.50000    6.00000    6.25700   22.20810    6.95190    2.72720    1.72810    4.01100    0.03740 2785.04030
 1734.55000    6.00000    6.25990   21.82380    7.18390    2.72610    1.65730    4.06100    0.03180 2778.73710
 1734.60000    6.00000    6.26270   21.66600    7.38870    2.72640    1.60490    4.11090    0.02670 2772.43380
 1734.65000    6.00000    6.26560   21.50830    7.46830    2.72680    1.59610    4.16080    0.02280 2766.13060
 1734.70000    6.00000    6.26850   21.35050    7.54790    2.72720    1.58720    4.20570    0.02160 2759.82730
 1734.75000    6.00000    6.27140   21.19270    7.62750    2.72750    1.57830    4.22820    0.02040 2753.52410
 1734.80000    6.00000    6.27420   21.03500    7.70710    2.72790    1.56940    4.25080    0.01910 2747.22080
 1734.85000    6.00000    6.27790   20.87720    7.78670    2.72830    1.56060    4.27340    0.01790 2740.91760
 1734.90000    6.00000    6.28160   20.71950    7.87140    2.72870    1.55950    4.29600    0.01660 2734.61440
 1734.95000    6.00000    6.28530   20.79030    8.21080    2.72900    1.57120    4.31860    0.01540 2728.31110
 1735.00000    6.00000    6.28900   21.14010    8.55020    2.72950    1.58280    4.34120    0.01420 2722.00790
 1735.05000    6.00000    6.29270   21.48980    8.88960    2.73000    1.59450    4.36200    0.01460 2715.70460
 1735.10000    6.00000    6.29640   21.83960    9.22890    2.73050    1.60620    4.38240    0.01510 2709.40140
 1735.15000    6.00000    6.30010   22.18940    9.56830    2.73090    1.60760    4.40270    0.01560 2703.09810
 1735.20000    6.00000    6.30380   22.53920    9.90770    2.73140    1.60760    4.42310    0.01610 2702.48910
 1735.25000    6.00000    6.30730   22.97430    9.91160    2.73190    1.60760    4.43620    0.01660 2703.39890
 1735.30000    6.00000    6.31090   23.43070    9.78810    2.73150    1.60760    4.43780    0.01710 2704.30860
 1735.35000    6.00000    6.31450   23.88700    9.66460    2.73050    1.60760    4.43940    0.01750 2705.21830
 1735.40000    6.00000    6.31810   24.34340    9.54120    2.72950    1.60760    4.44100    0.01800 2706.12800
 1735.45000    6.00000    6.32170   24.80160    9.41770    2.72850    1.60760    4.44260    0.02100 2707.03780
 1735.50000    6.00000    6.32530   25.26720    9.06110    2.72750    1.60760    4.44420    0.02420 2707.94750
 1735.55000    6.00000    6.33240   25.73270    8.24300    2.72650    1.60760    4.44580    0.02730 2708.85720
 1735.60000    6.00000    6.34080   26.19830    7.42500    2.72830    1.59890    4.44740    0.03050 2709.76700
 1735.65000    6.00000    6.34920   26.66380    7.10210    2.73090    1.58440    4.46510    0.03370 2710.67670
 1735.70000    6.00000    6.35760   28.08140    6.96780    2.73350    1.56990    4.48840    0.03680 2711.58640
 1735.75000    6.00000    6.36600   29.67380    6.83340    2.73610    1.55540    4.51180    0.04000 2712.49610
 1735.80000    6.00000    6.37440   28.28180    6.69910    2.74110    1.54100    4.53520    0.04340 2713.40590
 1735.85000    6.00000    6.38280   27.43450    6.56480    2.74480    1.52650    4.55860    0.04690 2714.31560
 1735.90000    6.00000    6.39110   26.61570    6.43050    2.74230    1.51200    4.58120    0.05040 2715.22530
 1735.95000    6.00000    6.39390   25.95200    6.29620    2.73980    1.50190    4.58780    0.05470 2716.13500
 1736.00000    6.00000    6.39010   25.53730    6.45490    2.73770    1.50020    4.59440    0.05930 2717.04480
 1736.05000    6.00000    6.38630   25.12260    6.84980    2.73620    1.49850    4.60100    0.06350 2717.95450
 1736.10000    6.00000    6.38240   24.70790    7.24460    2.73470    1.49680    4.60760    0.06750 2718.86420
 1736.15000    6.00000    6.37860   24.29320    7.63950    2.73320    1.49510    4.61420    0.07160 2719.60080
 1736.20000    6.00000    6.38410   23.98750    8.03440    2.73170    1.49330    4.60430    0.07650 2720.30480
 1736.25000    6.00000    6.39040   24.19230    8.30650    2.73020    1.49160    4.57490    0.08150 2721.00880
 1736.30000    6.00000    6.39660   24.39710    8.17320    2.72870    1.48990    4.54540    0.08330 2721.71280
 1736.35000    6.00000    6.40280   24.60190    8.03990    2.73000    1.48820    4.51600    0.08480 2722.41680
 1736.40000    6.00000    6.40900   24.80670    7.90650    2.73170    1.48650    4.50180    0.08630 2723.12080
 1736.45000    6.00000    6.41400   25.01160    7.65050    2.73350    1.48230    4.49050    0.08740 2723.82480
 1736.50000    6.00000    6.41660   25.21640    7.38780    2.73530    1.46480    4.47920    0.08630 2724.52880
 1736.55000    6.00000    6.41920   25.40960    7.12520    2.73700    1.44730    4.46790    0.08510 2725.23280
 1736.60000    6.00000    6.42180   25.38650    6.86260    2.73700    1.42980    4.45660    0.08400 2725.93680
 1736.65000    6.00000    6.42440   25.36340    6.59990    2.73610    1.41230    4.44530    0.08280 2726.64080
 1736.70000    6.00000    6.42700   25.34040    6.33730    2.73520    1.39480    4.43400    0.08170 2727.34480
