~Version ---------------------------------------------------
VERS.   2.0 : CWLS log ASCII Standard -VERSION 2.0
WRAP.    NO : One line per depth step
DLM . SPACE : Column Data Section Delimiter
~Well ------------------------------------------------------
STRT.m 1682.00000 : START DEPTH
STOP.m 1742.00000 : STOP DEPTH
STEP.m    0.05000 : STEP
NULL.    -9999.25 : NULL VALUE
COMP.     Unknown : COMPANY
WELL.     Unknown : WELL
FLD .     Unknown : FIELD
LOC .             : LOCATION
PROV.             : PROVINCE
CNTY.             : COUNTY
STAT.             : STATE
CTRY.     Unknown : COUNTRY
SRVC.             : SERVICE COMPANY
DATE.     Unknown : DATE
UWI .     Unknown : UNIQUE WELL ID
API .             : API NUMBER
~Curve Information -----------------------------------------
DEPT    .m           : depths
Gamma   .api         : digitalized and interpolated data
SP      .millivolts  : digitalized and interpolated data
Caliper .inches      : digitalized and interpolated data
Bit Size.inches      : digitalized and interpolated data
Tens    .pounds      : digitalized and interpolated data
MSFL    .Ohm-m       : digitalized and interpolated data
LLD     .Ohm-m       : digitalized and interpolated data
LLS     .Ohm-m       : digitalized and interpolated data
~Params ----------------------------------------------------
~Other -----------------------------------------------------
~ASCII -----------------------------------------------------
# ...
 1694.00000   12.93570   29.66780    5.76060    5.90630 3009.51170   79.89802  224.51285  275.67158
 1694.05000   12.86130   29.39850    5.78910    5.90840 3006.21550   62.09477  224.70513  282.86030
 1694.10000   13.18850   28.82750    5.80980    5.95390 3002.91940   59.57889  224.89759  287.95445
 1694.15000   13.51570   28.32970    5.82030    5.90140 3000.84420   58.11363  225.09020  293.38479
 1694.20000   14.39060   27.94090    5.83080    5.93300 2998.88590   56.61094  228.56988  302.60033
 1694.25000   16.59460   27.55200    5.78170    5.96800 2998.11770   59.12236  234.23986  322.02486
 1694.30000   18.70530   27.01240    5.81410    5.92180 3014.49480   65.63450  240.38745  326.36817
 1694.35000   20.92890   26.41210    5.87180    5.90240 3030.87190   74.90638  246.69639  344.45778
 1694.40000   24.11000   25.82450    5.82420    5.90240 3047.24900   92.29386  256.63530  357.93107
 1694.45000   28.04060   25.58320    5.80020    5.90240 3066.90680  121.24443  269.05347  365.06853
 1694.50000   31.23710   25.34180    5.79080    5.90240 3086.72080  147.79706  277.77605  387.45708
 1694.55000   33.39270   25.10050    5.78140    5.90240 3097.34860  167.16579  285.79445  395.47806
 1694.60000   34.57970   24.89480    5.77890    5.90180 3097.99380  179.06413  297.19589  406.06036
 1694.65000   35.33210   24.82000    5.77640    5.89950 3098.63890  171.46891  308.00346  449.07326
 1694.70000   35.66130   24.74520    5.77540    5.89720 3099.28410  153.91700  319.05474  497.17513
 1694.75000   33.73480   24.67040    5.77490    5.96420 3099.92930  128.03455  330.58580  538.05268
 1694.80000   31.63690   24.59550    5.77450    5.97050 3100.57440  118.78352  347.61459  580.69220
 1694.85000   29.26400   24.52070    5.77410    5.97050 3101.21960  124.03790  362.89584  631.31106
 1694.90000   26.12500   24.44590    5.76640    5.97050 3101.86470  126.14133  395.91613  706.91630
 1694.95000   21.50110   24.34730    5.75790    5.97050 3098.00290  128.24434  430.67553  763.53895
 1695.00000   19.12260   24.24740    5.74940    5.97050 3093.61190  129.92712  452.78058  954.21710
 1695.05000   17.67160   24.14760    5.73510    5.95440 3089.22090  133.12561  493.41346 1034.27778
 1695.10000   16.11480   24.11620    5.72060    5.91460 3085.87070  143.47578  536.31111  917.32366
 1695.15000   15.19930   24.15900    5.70610    5.95490 3082.57460  293.10525  579.05924 1069.65764
 1695.20000   14.56040   24.25180    5.69570    5.94140 3079.27840  420.09682  621.35815 1201.07851
 1695.25000   14.23370   24.45870    5.68580    5.91230 3076.72520  384.50341  692.68311 1234.20356
 1695.30000   13.90700   24.66560    5.67590    5.96760 3077.37030  370.69711  785.69537 1311.81984
 1695.35000   13.75630   24.89880    5.73080    5.92410 3075.66390  352.37152  886.53849 1345.82749
 1695.40000   13.64170   25.20990    5.71030    5.93220 3068.26700  330.49903  931.00539 1376.63179
 1695.45000   13.52720   25.52530    5.68980    5.95660 3060.87010  297.90308  972.83009 1384.59129
 1695.50000   13.51320   25.87300    5.66920    5.90770 3056.27020  281.44180 1024.07790 1392.59617
 1695.55000   13.60570   26.22070    5.72510    5.95010 3054.18350  271.53074 1089.00079 1400.83955
 1695.60000   13.69810   26.56830    5.71930    5.94020 3052.09680  265.26576 1128.19247 1417.92283
 1695.65000   13.79060   26.91600    5.71350    5.91460 3050.48960  271.90362 1148.64280 1450.45011
 1695.70000   14.16850   27.26360    5.68200    5.96810 3048.99270  289.69780 1167.71160 1510.53432
 1695.75000   14.57770   27.58300    5.66260    5.92380 3047.49580  300.35523 1184.78131 1554.88472
 1695.80000   14.86340   27.88850    5.68090    5.93250 3051.87060  323.33431 1202.10000 1632.13093
 1695.85000   15.06380   28.19410    5.69920    5.95640 3067.06830  358.27870 1222.89845 1598.67578
 1695.90000   15.26430   28.60970    5.64310    5.90740 3082.26610  388.25477 1245.14978 1496.95104
 1695.95000   15.33950   29.05800    5.66340    5.95500 3090.04620  402.91904 1266.44518 1482.25047
 1696.00000   15.26060   29.49430    5.68370    5.93720 3096.02290  398.66012 1284.03776 1467.69426
 1696.05000   15.18170   29.85940    5.70400    5.91340 3101.99820  392.75742 1258.22930 1352.75453
 1696.10000   14.07800   30.22450    5.65260    5.96020 3107.91460  386.21505 1227.11876 1167.61858
 1696.15000   13.02900   30.54280    5.64910    5.92080 3113.83090  379.75159 1201.49674 1025.13484
 1696.20000   11.76000   30.76100    5.64560    5.92910 3119.74720  368.72722 1164.87680  956.52075
 1696.25000   10.33520   30.97930    5.64210    5.94930 3123.84170  329.97193 1113.54352  974.70545
 1696.30000    9.09780   30.99620    5.63870    5.90650 3108.33550  292.26068 1047.13481  825.05670
 1696.35000    8.23970   30.99990    5.69440    5.94480 3092.82930  251.69663  964.93930  716.17111
 1696.40000    7.88020   31.00360    5.69460    5.93490 3089.38370  221.89330  921.09960  625.23488
 1696.45000    7.52080   31.00730    5.68640    5.91370 3087.55610  198.97266  831.36167  641.58824
 1696.50000    7.31100   31.01100    5.64140    5.96050 3085.72850  167.23162  775.41964  633.29899
 1696.55000    7.44680   30.90340    5.67660    5.92060 3082.48960  144.45128  740.11805  534.35318
 1696.60000    7.58270   30.69610    5.66620    5.92940 3077.56080  129.71321  704.84171  497.84964
 1696.65000    7.71860   30.48910    5.65370    5.94900 3072.63210  125.48765  616.95487  509.49907
 1696.70000    7.78540   30.28400    5.68890    5.90620 3067.70330  122.95608  547.80500  420.73554
 1696.75000    7.78540   30.07890    5.63700    5.93080 3085.33950  121.52152  520.16269  429.40945
 1696.80000    7.79100   29.85640    5.62670    5.96200 3114.87220  120.10370  480.42057  388.99570
 1696.85000    7.85680   29.50100    5.61640    5.90710 3144.40500  120.08788  418.63409  355.45350
 1696.90000    7.92270   29.14570    5.60600    5.93390 3171.74470  122.06552  385.70138  315.76573
 1696.95000    7.52820   28.83900    5.70010    5.96080 3197.46360  124.07572  340.62631  325.83535
 1697.00000    7.25950   28.56650    5.70520    5.91610 3223.18250  128.92407  319.17039  323.07711
 1697.05000    7.14040   28.29390    5.71040    5.94290 3236.76490  125.14122  295.54349  308.01013
 1697.10000    7.02140   28.09530    5.69570    5.96980 3242.85070  120.60197  280.02899  304.22114
 1697.15000    7.10250   27.96860    5.67400    5.92510 3248.93650  115.50431  269.56257  301.10447
 1697.20000    7.36220   27.84200    5.71820    5.95200 3235.67200  113.77237  261.51945  308.49760
 1697.25000    7.62180   27.71540    5.76250    5.90740 3220.08370  112.06634  248.87415  316.00256
 1697.30000    8.18660   27.58880    5.72100    5.93550 3204.49530  111.93672  244.76133  323.14809
 1697.35000    9.14630   27.46210    5.71780    5.96370 3201.36470  112.97678  240.71646  330.45505
 1697.40000   10.20370   27.33550    5.72740    5.90240 3198.62110  115.59584  243.39654  345.17839
 1697.45000   11.23880   27.18530    5.73690    5.90240 3195.87750  126.50672  246.82855  359.59016
 1697.50000   12.42750   26.96400    5.74460    5.91220 3190.73660  144.20456  251.96151  402.16586
 1697.55000   13.61640   26.74260    5.74270    5.95640 3182.88570  164.73072  259.16371  408.55073
 1697.60000   14.86660   26.52130    5.74090    5.92730 3175.03490  191.02711  266.57192  441.26451
 1697.65000   16.49860   26.28750    5.73900    5.89820 3167.18400  214.98066  274.97094  431.72042
 1697.70000   18.21970   25.97080    5.81060    5.92370 3157.04280  238.29734  295.98275  455.67646
 1697.75000   19.30170   25.65410    5.81850    5.94820 3146.85220  265.53673  312.85262  439.38234
 1697.80000   21.86140   25.33740    5.82270    5.91740 3136.66160  254.67798  330.45353  429.89441
 1697.85000   23.82540   24.99290    5.82690    5.96040 3126.47100  227.14218  337.84570  419.84636
 1697.90000   25.48320   24.62890    5.79620    5.92490 3135.68890  175.38143  331.59089  410.02203
 1697.95000   36.03750   24.28750    5.80130    5.90240 3154.11940  127.72638  328.42832  373.45854
