~Version ---------------------------------------------------
VERS.   2.0 : CWLS log ASCII Standard -VERSION 2.0
WRAP.    NO : One line per depth step
DLM . SPACE : Column Data Section Delimiter
~Well ------------------------------------------------------
STRT.m 1682.00000 : START DEPTH
STOP.m 1742.00000 : STOP DEPTH
STEP.m    0.05000 : STEP
NULL.    -9999.25 : NULL VALUE
COMP.     Unknown : COMPANY
WELL.     Unknown : WELL
FLD .     Unknown : FIELD
LOC .             : LOCATION
PROV.             : PROVINCE
CNTY.             : COUNTY
STAT.             : STATE
CTRY.     Unknown : COUNTRY
SRVC.             : SERVICE COMPANY
DATE.     Unknown : DATE
UWI .     Unknown : UNIQUE WELL ID
API .             : API NUMBER
~Curve Information -----------------------------------------
DEPT    .m           : depths
Gamma   .api         : digitalized and interpolated data
SP      .millivolts  : digitalized and interpolated data
Caliper .inches      : digitalized and interpolated data
Bit Size.inches      : digitalized and interpolated data
Tens    .pounds      : digitalized and interpolated data
MSFL    .Ohm-m       : digitalized and interpolated data
LLD     .Ohm-m       : digitalized and interpolated data
LLS     .Ohm-m       : digitalized and interpolated data
~Params ----------------------------------------------------
~Other -----------------------------------------------------
~ASCII -----------------------------------------------------
# ...
 1702.00000   16.39710   10.61750    5.67720    5.91020 3248.01010   81.69182  121.41099  132.60625
 1702.05000   15.31470   10.44150    5.71600    5.93440 3215.66670   81.70695  121.74322  134.94531
 1702.10000   14.23330   10.26550    5.70390    5.95860 3183.32340   83.07378  122.21502  137.32569
 1702.15000   13.37310   10.22340    5.67000    5.92350 3158.92780   84.46348  123.95527  139.91098
 1702.20000   12.59930   10.20110    5.69380    5.94570 3135.44050   82.90005  125.72024  142.59562
 1702.25000   11.82540   10.17870    5.71750    5.96780 3111.95320   82.97346  129.49071  148.88563
 1702.30000   11.28770   10.15640    5.70070    5.95540 3092.38350   83.43752  133.27908  152.11610
 1702.35000   11.04760   10.13410    5.69590    5.92990 3087.47850   83.90414  136.64212  160.73076
 1702.40000   10.80740   10.11180    5.72440    5.97180 3082.57350   86.74199  140.30579  164.96112
 1702.45000   10.66380   10.33030    5.70580    5.93940 3077.66850   89.25320  144.33525  167.38957
 1702.50000   10.85720   10.56070    5.68250    5.94390 3076.62360   91.09199  147.50121  165.18910
 1702.55000   11.05070   10.79120    5.71280    5.97120 3090.69620   93.11610  150.58212  169.04378
 1702.60000   11.28080   10.95350    5.74260    5.92330 3104.76880   95.26439  153.40192  176.22690
 1702.65000   11.79670   11.10930    5.70340    5.95800 3118.84830   98.61791  156.19006  179.44882
 1702.70000   12.30040   11.27300    5.72070    5.95520 3140.33600  100.92645  160.50701  181.30651
 1702.75000   12.71000   11.45110    5.67850    5.92500 3161.82380  101.69551  164.59893  190.74001
 1702.80000   13.11970   11.62920    5.71300    5.94700 3183.31150   99.11528  168.50027  192.93170
 1702.85000   13.55440   11.98240    5.72790    5.96890 3203.32640   93.44968  171.75564  183.34632
 1702.90000   14.00580   12.36760    5.68440    5.90230 3219.01830   91.81994  174.41233  178.60647
 1702.95000   14.59280   12.75280    5.71550    5.92640 3234.71010   90.21862  176.00200  174.64598
 1703.00000   16.13770   13.65050    5.72050    5.95060 3250.40200   91.32439  176.26748  179.96407
 1703.05000   17.00830   14.26180    5.67520    5.92060 3243.48830   93.37254  176.53336  152.59566
 1703.10000   17.71600   14.52980    5.66660    5.92560 3235.85780   95.43516  176.79965  171.35248
 1703.15000   18.38360   14.79790    5.67700    5.95030 3233.62690   99.83228  170.19484  149.29566
 1703.20000   19.01680   15.06600    5.68020    5.97510 3245.16720  103.72613  158.38097  143.91233
 1703.25000   19.80380   15.33400    5.68050    5.92320 3256.70760   99.66590  149.17505  120.54977
 1703.30000   20.54840   15.65850    5.68090    5.93320 3268.24790   96.28619  140.11473  112.69862
 1703.35000   20.71480   16.15150    5.68160    5.94310 3256.82020   91.55498  135.61302  118.73310
 1703.40000   20.48590   16.64460    5.68410    5.95310 3242.23900   80.59832  121.72310  112.64761
 1703.45000   20.25710   17.18130    5.68650    5.93640 3247.48940   70.38757  111.13038  100.76845
 1703.50000   19.77540   17.75860    5.70720    5.91870 3254.19530   62.04089  104.94085   95.01829
 1703.55000   19.27790   18.34090    5.72910    5.91260 3261.07160   53.42759   99.08976   90.42064
 1703.60000   18.79640   19.02960    5.75090    5.96310 3269.03500   49.32254   89.43951   88.24624
 1703.65000   18.31720   19.71830    5.69400    5.94880 3276.99840   46.72400   88.37459   81.17117
 1703.70000   17.88240   20.76670    5.71420    5.93440 3284.96180   45.79339   83.37265   83.90835
 1703.75000   17.44870   21.46000    5.73440    5.97850 3291.99280   44.98331   81.25925   83.02192
 1703.80000   17.14870   21.69490    5.68120    5.97540 3297.45440   46.07248   79.40572   78.32915
 1703.85000   16.90360   21.92980    5.68360    5.97230 3302.91600   47.41588   77.98208   77.61020
 1703.90000   16.65850   22.16470    5.70500    5.95210 3302.48230   50.22459   75.25951   76.89781
 1703.95000   16.41270   22.39960    5.71150    5.90670 3287.90100   54.20753   73.69109   79.10556
 1704.00000   16.16590   22.64020    5.69400    5.92800 3277.03740   59.61781   74.02834   78.36241
 1704.05000   15.91900   23.10030    5.67650    5.94990 3273.18580   64.04703   74.36713   77.62625
 1704.10000   15.67220   23.56030    5.66570    5.97180 3269.11770   66.20921   73.40621   76.52275
 1704.15000   15.82860   24.00010    5.66320    5.91100 3263.80510   67.56923   71.89793   74.13362
 1704.20000   16.02320   24.42310    5.66070    5.90110 3258.49250   70.21637   72.54656   73.57851
 1704.25000   16.24880   24.84610    5.65820    5.89960 3253.17990   62.29979   71.04285   73.02759
 1704.30000   16.92830   25.27160    5.65430    5.95030 3252.81080   53.77624   69.57032   74.10116
 1704.35000   17.49450   25.69790    5.62540    5.92310 3253.45590   43.72876   70.64870   72.04794
 1704.40000   17.96660   26.12420    5.60260    5.96820 3254.65160   36.33373   70.05482   70.61452
 1704.45000   18.48590   26.49270    5.61080    5.93980 3258.89620   31.80856   69.46592   71.27575
 1704.50000   19.08770   26.86120    5.61890    5.91150 3263.14070   28.96296   68.05474   69.43525
 1704.55000   18.74530   27.10460    5.62710    5.96070 3267.38520   27.16208   66.88479   67.64230
 1704.60000   19.11850   27.19190    5.62570    5.93700 3270.76400   25.88169   66.18497   71.53517
 1704.65000   19.55040   27.27920    5.62260    5.91330 3249.07830   24.65981   65.49247   70.70823
 1704.70000   19.17530   27.36650    5.61950    5.97050 3228.56480   23.48008   65.52512   70.96036
 1704.75000   18.91730   27.45390    5.61640    5.97050 3235.21590   22.26543   66.55915   72.93040
 1704.80000   18.65940   27.53980    5.65330    5.93540 3241.86710   21.90336   67.60951   75.66283
 1704.85000   18.42860   27.53630    5.65430    5.94200 3248.51820   21.65210   68.64021   77.79584
 1704.90000   18.20560   27.53270    5.62520    5.92220 3252.93390   21.40373   69.67802   79.35732
 1704.95000   17.98270   27.52920    5.67360    5.90300 3255.23960   21.35408   71.78141   84.96123
 1705.00000   17.75970   27.27870    5.63090    5.90390 3257.54530   21.56881   74.14045   87.74141
 1705.05000   17.64570   26.89670    5.62050    5.90470 3259.85100   22.66902   76.69612   84.17401
 1705.10000   17.68930   26.55700    5.62770    5.90550 3262.15680   24.19862   78.14280   85.64086
 1705.15000   17.73300   26.44710    5.63490    5.96540 3262.23890   25.90235   79.61681   87.73413
 1705.20000   17.77660   26.33710    5.64190    5.94040 3259.14590   30.81116   83.31604   91.48839
 1705.25000   17.82030   26.20460    5.64860    5.91540 3256.05290   34.72858   83.32283   91.73524
 1705.30000   17.78900   25.78860    5.65530    5.92640 3252.96000   35.39150   86.02970   92.13838
 1705.35000   17.70730   25.37270    5.66430    5.97030 3251.53130   36.26940   88.15537   93.17521
 1705.40000   17.62550   25.04610    5.67410    5.91670 3252.17650   37.37479   89.49974   94.22375
 1705.45000   17.37300   24.80070    5.68390    5.92930 3250.09210   38.79084   91.08570   94.90891
 1705.50000   16.90680   24.55520    5.62750    5.96590 3242.36690   41.00387   92.79270   95.59672
 1705.55000   16.31310   24.30980    5.66110    5.90740 3234.64160   43.88190   94.63762   96.28951
 1705.60000   15.65380   24.06440    5.69470    5.96380 3227.72480   47.98589   96.51917   97.93704
 1705.65000   14.88000   23.28900    5.68620    5.96700 3221.49010   52.61670  100.18830  100.60681
 1705.70000   14.17360   22.74980    5.65650    5.97030 3215.25540   58.79186  101.09270  101.94741
 1705.75000   13.56730   22.45310    5.65720    5.94670 3209.02070   61.88369  102.00531  103.09082
 1705.80000   13.25970   22.15640    5.65790    5.92550 3213.04300   63.40434  102.92612  104.24701
 1705.85000   12.95210   21.86740    5.65860    5.94670 3233.39450   61.18185  104.33399  105.41621
 1705.90000   12.64460   21.76010    5.66090    5.96800 3253.74600   60.14576  105.96543  106.59848
 1705.95000   12.64410   21.65270    5.67340    5.90520 3267.53620   59.51277  107.59161  108.08121
