~Version ---------------------------------------------------
VERS.   2.0 : CWLS log ASCII Standard -VERSION 2.0
WRAP.    NO : One line per depth step
DLM . SPACE : Column Data Section Delimiter
~Well ------------------------------------------------------
STRT.m 1682.00000 : START DEPTH
STOP.m 1742.00000 : STOP DEPTH
STEP.m    0.05000 : STEP
NULL.    -9999.25 : NULL VALUE
COMP.     Unknown : COMPANY
WELL.     Unknown : WELL
FLD .     Unknown : FIELD
LOC .             : LOCATION
PROV.             : PROVINCE
CNTY.             : COUNTY
STAT.             : STATE
CTRY.     Unknown : COUNTRY
SRVC.             : SERVICE COMPANY
DATE.     Unknown : DATE
UWI .     Unknown : UNIQUE WELL ID
API .             : API NUMBER
~Curve Information -----------------------------------------
DEPT            .m            : depths
Bit Size        .inches       : digitalized and interpolated data
Caliper         .inches       : digitalized and interpolated data
GammaKUT        .api          : digitalized and interpolated data
GammaKT         .api          : digitalized and interpolated data
Density         .gram per cc  : digitalized and interpolated data
Neutron Porosity.pu           : digitalized and interpolated data
Pe              .unknown      : digitalized and interpolated data
DensityCorr     .gm per cc    : digitalized and interpolated data
Tension         .pounds       : digitalized and interpolated data
~Params ----------------------------------------------------
~Other -----------------------------------------------------
~ASCII -----------------------------------------------------
# ...
 1714.85000    6.00000    5.90470   15.44760    5.56970    2.63830   12.24480    3.25940    0.05920 2642.91680
 1714.90000    6.00000    5.89400   15.46970    5.91520    2.63730   12.28480    3.25150    0.06090 2640.06370
 1714.95000    6.00000    5.88330   15.49190    6.26070    2.63620   12.32490    3.24360    0.06270 2637.21060
 1715.00000    6.00000    5.87400   15.51400    6.28160    2.63520   12.36500    3.23570    0.06440 2634.35750
 1715.05000    6.00000    5.86860   15.53620    6.23010    2.63820   12.40500    3.22780    0.06610 2631.50440
 1715.10000    6.00000    5.86330   15.55830    6.17850    2.64220   12.44510    3.22290    0.06790 2628.65130
 1715.15000    6.00000    5.85790   15.58050    6.03540    2.64530   12.48450    3.22400    0.06960 2625.79820
 1715.20000    6.00000    5.85250   15.60260    5.76640    2.64710   12.51660    3.22520    0.07190 2622.94510
 1715.25000    6.00000    5.84720   15.82850    5.49740    2.64890   12.54860    3.22630    0.07420 2620.09200
 1715.30000    6.00000    5.84180   16.07410    5.22850    2.65080   12.58060    3.22740    0.07640 2617.23890
 1715.35000    6.00000    5.83650   16.31980    4.95950    2.65260   12.61270    3.22850    0.07870 2616.20860
 1715.40000    6.00000    5.83110   16.56540    4.74060    2.65100   12.64470    3.22970    0.08100 2617.69590
 1715.45000    6.00000    5.82580   16.81110    4.70670    2.64810   12.67680    3.23080    0.08100 2619.18310
 1715.50000    6.00000    5.82040   17.05670    4.67280    2.64530   12.72800    3.23190    0.08070 2620.67040
 1715.55000    6.00000    5.81510   17.52910    4.63900    2.64180   12.79660    3.23310    0.08050 2622.15760
 1715.60000    6.00000    5.81920   18.23220    4.60510    2.63560   12.86520    3.23420    0.08010 2623.64480
 1715.65000    6.00000    5.82990   18.93520    4.57120    2.63130   12.93380    3.24270    0.07650 2625.13210
 1715.70000    6.00000    5.84060   19.63820    4.53740    2.62890   13.00240    3.26130    0.07280 2626.61930
 1715.75000    6.00000    5.85130   20.34130    4.50350    2.62650   13.07110    3.27990    0.06870 2628.10660
 1715.80000    6.00000    5.86200   18.91420    4.46960    2.62410   13.08790    3.29840    0.06380 2629.59380
 1715.85000    6.00000    5.87270   18.45950    4.43580    2.62420   12.94600    3.31700    0.05950 2631.08100
 1715.90000    6.00000    5.88340   18.00490    4.40190    2.62720   12.80400    3.33560    0.05750 2632.56830
 1715.95000    6.00000    5.89410   17.55030    4.78520    2.63030   12.66210    3.35050    0.05540 2634.05550
 1716.00000    6.00000    5.90590   17.14220    5.22940    2.63510   12.49720    3.36300    0.05340 2635.26690
 1716.05000    6.00000    5.92010   16.93690    5.67370    2.64370   12.12760    3.37540    0.05130 2636.24510
 1716.10000    6.00000    5.93430   16.73150    5.88740    2.64740   11.93010    3.38790    0.04930 2637.22330
 1716.15000    6.00000    5.94280   16.52610    5.62220    2.65120   11.88090    3.40030    0.04820 2638.20150
 1716.20000    6.00000    5.93570   16.32070    5.35710    2.65380   11.83160    3.41280    0.05080 2639.17970
 1716.25000    6.00000    5.92850   16.11530    5.09200    2.65570   11.78230    3.41800    0.05330 2640.15800
 1716.30000    6.00000    5.92140   15.91000    4.82680    2.65750   11.73310    3.42110    0.05580 2641.13620
 1716.35000    6.00000    5.91430   15.70460    4.55750    2.65940   11.68380    3.42420    0.05840 2642.11440
 1716.40000    6.00000    5.90720   15.38820    4.19280    2.65840   11.66610    3.42740    0.06280 2643.09260
 1716.45000    6.00000    5.90000   14.96630    3.82810    2.65650   11.84440    3.43050    0.06720 2644.07080
 1716.50000    6.00000    5.89150   14.54450    3.46340    2.65460   12.02260    3.43360    0.06910 2645.04900
 1716.55000    6.00000    5.88260   14.12270    3.09870    2.65020   12.20090    3.43670    0.07100 2646.02730
 1716.60000    6.00000    5.87370   13.73630    3.24940    2.64400   12.37910    3.43980    0.07290 2647.00550
 1716.65000    6.00000    5.86490   13.41250    3.60020    2.63660   12.55900    3.43810    0.07480 2647.98370
 1716.70000    6.00000    5.85600   13.08860    3.95100    2.62980   12.73950    3.43340    0.07680 2648.96190
 1716.75000    6.00000    5.84710   12.76470    4.30180    2.62390   12.92000    3.42870    0.07760 2649.94010
 1716.80000    6.00000    5.83820   12.44090    4.65250    2.61950   13.10040    3.42400    0.07490 2650.91840
 1716.85000    6.00000    5.82930   12.11700    4.94290    2.61580   13.24860    3.41920    0.07220 2651.89660
 1716.90000    6.00000    5.82430   11.89990    5.03000    2.61200   13.39450    3.41450    0.06940 2652.87480
 1716.95000    6.00000    5.82750   11.83370    5.11710    2.61040   13.54030    3.40980    0.06680 2653.85300
 1717.00000    6.00000    5.83070   11.76760    5.20430    2.60910   13.70290    3.40510    0.06430 2651.58590
 1717.05000    6.00000    5.83390   11.70140    5.29140    2.60780   13.89910    3.40080    0.06180 2649.19370
 1717.10000    6.00000    5.83710   11.63530    5.21450    2.60640   14.09520    3.39880    0.05940 2646.80140
 1717.15000    6.00000    5.84030   11.56910    5.04350    2.60510   14.29140    3.39690    0.05710 2644.40920
 1717.20000    6.00000    5.83780   11.50290    4.87260    2.60380   14.39240    3.39500    0.05640 2642.01700
 1717.25000    6.00000    5.83460   11.43680    4.70170    2.60070   14.47680    3.39310    0.05580 2639.62470
 1717.30000    6.00000    5.83140   11.32060    4.53080    2.59750   14.56120    3.39120    0.05520 2637.23250
 1717.35000    6.00000    5.82820   11.14900    4.35990    2.59290   14.64560    3.38930    0.05460 2634.84030
 1717.40000    6.00000    5.82500   10.97730    4.18890    2.58690   14.73000    3.38740    0.05400 2632.44800
 1717.45000    6.00000    5.82180   10.80570    4.13800    2.58150   14.81440    3.38550    0.05330 2630.05580
 1717.50000    6.00000    5.81860   10.63400    4.66610    2.57620   14.89880    3.37360    0.05270 2627.66360
 1717.55000    6.00000    5.82200   10.46230    5.19420    2.57110   15.00370    3.35610    0.05130 2625.27130
 1717.60000    6.00000    5.82890   10.29070    5.14500    2.56600   15.14180    3.33860    0.04990 2622.87910
 1717.65000    6.00000    5.83580   10.22080    4.99430    2.56020   15.27980    3.32100    0.04850 2620.48690
 1717.70000    6.00000    5.84280   10.18660    4.84370    2.55400   15.41790    3.30350    0.04710 2618.09460
 1717.75000    6.00000    5.84970   10.15230    4.69300    2.54880   15.58690    3.28600    0.04570 2615.70240
 1717.80000    6.00000    5.85660   10.11810    4.54240    2.54370   15.77850    3.27190    0.04330 2614.41100
 1717.85000    6.00000    5.86360   10.08380    4.39170    2.54100   15.97020    3.26010    0.04090 2613.17690
 1717.90000    6.00000    5.87050   10.04950    4.24110    2.53870   16.16180    3.24840    0.03850 2611.94280
 1717.95000    6.00000    5.87690   10.01530    4.09040    2.53630   16.35930    3.23660    0.03620 2610.70860
 1718.00000    6.00000    5.88210    9.96760    4.02270    2.53400   16.73390    3.22480    0.03630 2609.47450
 1718.05000    6.00000    5.88720    9.91050    4.49570    2.53560   16.58890    3.21310    0.03660 2608.24040
 1718.10000    6.00000    5.89240    9.85340    4.96880    2.53820   16.44390    3.19810    0.03700 2607.00630
 1718.15000    6.00000    5.89760    9.79630    5.44180    2.54090   16.29890    3.18120    0.03730 2605.77220
 1718.20000    6.00000    5.90270    9.73910    5.91490    2.54350   16.15390    3.16430    0.03760 2604.53810
 1718.25000    6.00000    5.90790    9.68200    6.30750    2.54320   16.00890    3.14730    0.03800 2603.30390
 1718.30000    6.00000    5.91300    9.62490    6.68870    2.54200   15.86400    3.13040    0.03830 2602.06980
 1718.35000    6.00000    5.91820    9.56780    7.06990    2.54090   15.70340    3.11980    0.03870 2600.83570
 1718.40000    6.00000    5.92280    9.53420    7.45110    2.53980   15.54030    3.11840    0.03920 2599.60160
 1718.45000    6.00000    5.91980    9.51530    7.83240    2.53920   15.37730    3.11700    0.04060 2598.36750
