~Version ---------------------------------------------------
VERS.   2.0 : CWLS log ASCII Standard -VERSION 2.0
WRAP.    NO : One line per depth step
DLM . SPACE : Column Data Section Delimiter
~Well ------------------------------------------------------
STRT.m            1285.0 : START DEPTH
STOP.m            1340.0 : STOP DEPTH
STEP.m           0.05000 : STEP
NULL.           -9999.25 : NULL VALUE
COMP.               TPAO : COMPANY
WELL.     BATIRAMAN #241 : WELL
FLD .          BATIRAMAN : FIELD
LOC .                    : LOCATION
PROV.                    : PROVINCE
CNTY.                    : COUNTY
STAT.                    : STATE
CTRY.             TURKEY : COUNTRY
SRVC.                    : SERVICE COMPANY
DATE. 02-Aug-09 16:36:59 : DATE
UWI .                241 : UNIQUE WELL ID
API .                    : API NUMBER
~Curve Information -----------------------------------------
DEPT   .m          : depths
Caliper.inches     : Caliper, digitalized and interpolated data
GR     .api        : Gamma-Ray, digitalized and interpolated data
GRS    .api        : Gamma-Ray Spectral, digitalized and interpolated data
DT     .mu-sec/ft  : Sonic log, digitalized and interpolated data
Pe     .           : PhotoElectric Effect, digitalized and interpolated data
NEU    .decp       : Neutron log, digitalized and interpolated data
RHOB   .gram/cc    : Density log, digitalized and interpolated data
DenCorr.gram/cc    : Density correction log, digitalized and interpolated data
~Params ----------------------------------------------------
~Other -----------------------------------------------------
~ASCII -----------------------------------------------------
# ...
 1321.00000    8.52310   71.70370   15.32450   62.86990    4.82390    0.07320    2.56620    0.03820
 1321.05000    8.51750   71.57280   15.32310   63.20890    4.83280    0.07460    2.56220    0.04180
 1321.10000    8.51750   71.44200   15.32170   63.50330    4.84170    0.07600    2.55700    0.04500
 1321.15000    8.51750   71.31110   15.32030   63.79780    4.85060    0.07740    2.55260    0.04680
 1321.20000    8.51750   71.18020   15.31890   64.09220    4.85920    0.07880    2.54920    0.04710
 1321.25000    8.51750   71.11110   15.29990   64.31230    4.85920    0.07930    2.53930    0.04370
 1321.30000    8.51750   71.11110   15.12030   64.50860    4.85920    0.07890    2.54480    0.03370
 1321.35000    8.51750   71.11110   14.94070   64.45060    4.85920    0.07860    2.54570    0.03190
 1321.40000    8.51750   71.11110   14.76110   64.35240    4.85920    0.07820    2.54930    0.03020
 1321.45000    8.51750   70.56300   14.57290   64.25430    4.85920    0.07790    2.55290    0.02840
 1321.50000    8.51750   69.77780   14.33390   64.14870    4.85920    0.07750    2.55650    0.02740
 1321.55000    8.51750   64.97040   14.09490   63.95240    4.85920    0.07840    2.55740    0.02830
 1321.60000    8.51750   63.79260   13.85600   63.82750    4.85920    0.08000    2.55650    0.02920
 1321.65000    8.51750   61.52590   13.61700   64.02380    4.85920    0.08150    2.55570    0.03010
 1321.70000    8.51750   62.13330   13.37800   64.22010    4.85920    0.08310    2.55480    0.03070
 1321.75000    8.51750   59.77780   13.15200   64.41640    4.85920    0.08570    2.55010    0.03070
 1321.80000    8.51750   52.47410   12.97240   64.69000    4.85920    0.08880    2.54320    0.03070
 1321.85000    8.51750   51.68890   12.79280   65.08250    4.85920    0.10020    2.53520    0.03070
 1321.90000    8.51750   49.52590   12.61320   67.97920    4.85920    0.10330    2.52670    0.03240
 1321.95000    8.51150   49.13330   12.48080   68.17550    4.85920    0.10700    2.51810    0.03690
 1322.00000    8.49980   48.59260   12.47940   68.60970    4.85920    0.11120    2.50950    0.04140
 1322.05000    8.48800   47.80740   12.47800   69.19850    4.85920    0.11530    2.50450    0.04590
 1322.10000    8.47630   47.40740   12.47660   69.87960    4.86100    0.11940    2.50270    0.05170
 1322.15000    8.46450   47.40740   12.47520   70.07580    4.86810    0.12360    2.50100    0.05900
 1322.20000    8.45280   47.17040   12.47380   70.11150    4.87530    0.12770    2.49920    0.06320
 1322.25000    8.43780   46.77780   12.47240   70.11150    4.88240    0.13070    2.49560    0.06500
 1322.30000    8.42010   46.66670   12.47100   69.99060    4.88950    0.13230    2.49040    0.06310
 1322.35000    8.40250   46.66670   12.46960   69.85970    4.89670    0.13390    2.48520    0.05880
 1322.40000    8.38490   46.66670   12.46820   69.72890    4.90380    0.13550    2.48000    0.05440
 1322.45000    8.37070   46.66670   12.46680   69.59800    4.91100    0.13560    2.47560    0.05010
 1322.50000    8.35900   46.66670   12.46530   69.46720    4.91810    0.13400    2.47210    0.04570
 1322.55000    8.34720   46.66670   12.46390   67.80970    4.92520    0.13230    2.46520    0.04140
 1322.60000    8.33550   46.66670   12.46250   67.51520    4.92610    0.13070    2.46170    0.03710
 1322.65000    8.32370   45.72590   12.38440   67.22080    4.91720    0.12760    2.46250    0.03270
 1322.70000    8.31200   44.54810   12.20480   66.92640    4.90830    0.12320    2.46790    0.02930
 1322.75000    8.33010   43.59260   12.02520   66.40890    4.89940    0.11880    2.47340    0.02670
 1322.80000    8.36530   43.20000   11.84560   65.62380    4.89050    0.11440    2.47880    0.02410
 1322.85000    8.40060   42.80740   11.58080   65.11380    4.88160    0.11010    2.48240    0.02150
 1322.90000    8.43580   42.41480   11.22310   64.81930    4.87270    0.10570    2.50360    0.02010
 1322.95000    8.45930   41.62220   10.86530   64.52490    4.86380    0.10390    2.50190    0.01970
 1323.00000    8.47690   40.44440   10.50760   64.23050    4.85920    0.09720    2.52310    0.01920
 1323.05000    8.49450   39.76300   10.27470   62.60070    4.85920    0.09540    2.52490    0.01880
 1323.10000    8.51220   38.19260   10.15450   62.50260    4.85920    0.09430    2.53600    0.01840
 1323.15000    8.51750   34.97780   10.03440   62.40450    4.85920    0.09520    2.53950    0.01790
 1323.20000    8.51750   34.19260    9.91420   62.30630    4.85920    0.09620    2.54220    0.01750
 1323.25000    8.51750   34.24070    9.79400   62.69140    4.85920    0.10010    2.54490    0.01710
 1323.30000    8.51750   34.43700    9.67380   64.19930    4.85920    0.10420    2.54760    0.01840
 1323.35000    8.51750   34.63330    9.76630   64.59180    4.85920    0.10840    2.54420    0.02080
 1323.40000    8.51750   34.84440   10.00240   64.98440    4.85410    0.11250    2.54070    0.02320
 1323.45000    8.51750   35.23700   10.23860   65.37700    4.84520    0.11580    2.49970    0.02560
 1323.50000    8.51750   35.62960   10.47470   66.14130    4.83630    0.11890    2.49280    0.02800
 1323.55000    8.51750   36.02220   10.71090   66.53380    4.82740    0.12210    2.47230    0.03040
 1323.60000    8.51750   36.41480   10.94700   67.46910    4.81850    0.12520    2.46540    0.03440
 1323.65000    8.50380   36.80740   11.10380   67.37100    4.80960    0.12750    2.45970    0.03890
 1323.70000    8.48620   39.58520   11.22120   67.27290    4.80080    0.12960    2.45450    0.04340
 1323.75000    8.46850   40.37040   11.33860   67.17470    4.79190    0.12830    2.45690    0.04790
 1323.80000    8.45090   41.36300   11.45600   66.77170    4.80610    0.12610    2.46230    0.05330
 1323.85000    8.41900   42.54070   11.57330   66.18290    4.83300    0.12390    2.47370    0.05870
 1323.90000    8.38380   46.44440   11.69070   66.02230    4.85990    0.12180    2.48680    0.06410
 1323.95000    8.34850   48.40740   11.78610   66.02230    4.88670    0.11760    2.48550    0.06960
 1324.00000    8.31330   48.44440   11.87380   66.02230    4.91360    0.11320    2.49470    0.07690
 1324.05000    8.27800   50.80000   11.96150   66.02230    4.94050    0.11100    2.49600    0.08370
 1324.10000    8.24280   53.61480   12.04910   65.74570    4.96730    0.10890    2.49690    0.08640
 1324.15000    8.23780   54.79260   12.13680   65.45130    4.99420    0.10670    2.49780    0.08910
 1324.20000    8.23780   54.42960   12.22450   65.15690    4.98610    0.10450    2.49880    0.09180
 1324.25000    8.25310   54.00000   12.31220   64.90710    4.96830    0.10240    2.50610    0.09310
 1324.30000    8.27080   53.21480   12.39990   64.90710    4.95060    0.10020    2.50640    0.08880
 1324.35000    8.28840   52.34810   12.48750   64.75540    4.93280    0.09800    2.51750    0.08450
 1324.40000    8.30600   51.17040   12.57520   64.16650    4.91510    0.09590    2.52710    0.08010
 1324.45000    8.33960   50.45430   12.66290   63.75610    4.89730    0.09370    2.52890    0.06160
 1324.50000    8.37480   50.71600   12.75060   63.65800    4.87950    0.09160    2.53070    0.05300
 1324.55000    8.41010   50.97780   12.83820   63.55990    4.86180    0.08940    2.53250    0.04460
 1324.60000    8.44530   51.23950   12.92590   63.46170    4.87440    0.08620    2.53510    0.03770
 1324.65000    8.44760   51.50120   13.01360   63.08100    4.89230    0.08070    2.54060    0.03110
 1324.70000    8.44760   51.76300   13.10130   62.49220    4.91010    0.07670    2.53890    0.03230
 1324.75000    8.44760   52.62960   12.99590   61.90330    4.92800    0.07490    2.54430    0.03350
 1324.80000    8.44760   53.80740   12.87570   61.31450    4.94590    0.07310    2.54980    0.03470
 1324.85000    8.42480   54.52960   12.75550   60.88030    4.96380    0.07130    2.55520    0.03590
 1324.90000    8.40130   55.11850   12.63530   60.48770    4.98170    0.06950    2.55920    0.03710
 1324.95000    8.37780   55.70740   12.51510   60.09520    4.99950    0.06770    2.56100    0.03800
