~Version ---------------------------------------------------
VERS.   2.0 : CWLS log ASCII Standard -VERSION 2.0
WRAP.    NO : One line per depth step
DLM . SPACE : Column Data Section Delimiter
~Well ------------------------------------------------------
STRT.m 1682.00000 : START DEPTH
STOP.m 1742.00000 : STOP DEPTH
STEP.m    0.05000 : STEP
NULL.    -9999.25 : NULL VALUE
COMP.     Unknown : COMPANY
WELL.     Unknown : WELL
FLD .     Unknown : FIELD
LOC .             : LOCATION
PROV.             : PROVINCE
CNTY.             : COUNTY
STAT.             : STATE
CTRY.     Unknown : COUNTRY
SRVC.             : SERVICE COMPANY
DATE.     Unknown : DATE
UWI .     Unknown : UNIQUE WELL ID
API .             : API NUMBER
~Curve Information -----------------------------------------
DEPT    .m           : depths
Gamma   .api         : digitalized and interpolated data
SP      .millivolts  : digitalized and interpolated data
Caliper .inches      : digitalized and interpolated data
Bit Size.inches      : digitalized and interpolated data
Tens    .pounds      : digitalized and interpolated data
MSFL    .Ohm-m       : digitalized and interpolated data
LLD     .Ohm-m       : digitalized and interpolated data
LLS     .Ohm-m       : digitalized and interpolated data
~Params ----------------------------------------------------
~Other -----------------------------------------------------
~ASCII -----------------------------------------------------
# ...
 1734.00000   25.56250   61.69440    5.96200    5.92810 3594.65440  159.33838  697.57867  719.47879
 1734.05000   26.41910   62.03420    5.96590    5.94490 3608.49720  173.79273  720.16696  768.34168
 1734.10000   27.10750   62.37530    5.96970    5.96170 3612.50300  182.08803  772.36395  721.64598
 1734.15000   27.05250   62.71640    5.86870    5.96020 3611.48770  194.56656  816.01435  795.91519
 1734.20000   26.99760   63.00360    5.89030    5.93840 3610.47240  204.83077  892.10833  845.68455
 1734.25000   26.92550   63.28640    5.94960    6.00150 3608.98950  212.45639  910.95221  905.22428
 1734.30000   26.49750   63.56450    5.87710    5.99990 3602.78440  219.28201  956.93579  935.48235
 1734.35000   26.06950   63.83750    5.87380    5.98290 3596.57940  236.48543  969.93715  975.75368
 1734.40000   25.57570   64.01750    5.87050    5.94300 3590.37430  264.23394 1022.37918 1023.69597
 1734.45000   25.06920   64.13260    5.95290    5.97420 3588.52360  295.21539 1048.12094 1057.19377
 1734.50000   24.44930   64.24770    5.94970    6.00540 3596.73300  338.22071 1107.58278 1087.27548
 1734.55000   23.77930   64.36270    5.92270    5.93400 3604.94240  360.48234 1141.44449 1116.29915
 1734.60000   23.02630   64.63140    5.90530    5.93720 3613.15170  387.31061 1163.19251 1141.15069
 1734.65000   22.27340   64.94650    5.93340    5.95470 3622.66000  399.31148 1185.35489 1166.20580
 1734.70000   21.62980   65.26160    5.87970    5.97760 3636.82200  393.96006 1203.85948 1145.52876
 1734.75000   21.10830   65.35870    5.91100    5.93740 3650.98400  389.64131 1216.88068 1155.40275
 1734.80000   20.64810   65.38720    5.94240    5.95920 3665.14610  385.64384 1230.04329 1165.36185
 1734.85000   20.26960   65.41670    5.87570    5.91250 3682.94860  381.42872 1234.67483 1175.57515
 1734.90000   19.89100   65.44700    5.91680    5.91060 3703.59350  376.58342 1238.11446 1186.16197
 1734.95000   19.48200   65.47730    5.94440    5.90870 3724.23830  371.79967 1241.61627 1196.84413
 1735.00000   19.06960   65.48760    5.88600    5.90690 3726.18430  370.29291 1250.66730 1207.62306
 1735.05000   19.55310   65.47740    5.87040    5.90500 3717.85550  374.70233 1259.78489 1279.44964
 1735.10000   19.97310   65.46710    5.85470    5.90320 3709.52050  380.49171 1269.48156 1304.92513
 1735.15000   19.94640   65.45690    5.95290    5.99780 3697.46130  394.39154 1280.38741 1282.54436
 1735.20000   19.91970   65.44430    5.90450    5.96040 3685.40210  396.38371 1292.64001 1306.51077
 1735.25000   19.36000   65.41860    5.85600    5.92310 3669.02960  399.47039 1341.06799 1348.12883
 1735.30000   19.59810   65.39290    5.96420    5.99050 3650.50720  407.94724 1358.82271 1394.73852
 1735.35000   19.83620   65.36720    5.96710    5.95010 3631.98490  414.88468 1394.60942 1471.21111
 1735.40000   20.46650   65.34140    5.95870    5.93790 3614.85390  419.36772 1452.58313 1509.25282
 1735.45000   21.05020   65.46410    5.87200    5.98680 3598.75970  423.89900 1494.20572 1574.48235
 1735.50000   21.50960   65.66610    5.87080    5.91320 3582.66550  423.82463 1567.10608 1662.49136
 1735.55000   22.17290   65.86820    5.90080    5.94970 3566.57140  422.93497 1627.42430 1729.88007
 1735.60000   22.67310   66.07030    5.92710    5.98620 3550.47720  412.25202 1708.74633 1859.16697
 1735.65000   23.09310   65.75270    5.89790    5.95640 3562.85550  389.26772 1762.71945 1827.20635
 1735.70000   23.42180   65.41330    5.86880    5.98090 3593.25010  355.85871 1815.56832 1952.87298
 1735.75000   23.62460   65.50680    5.91840    5.97720 3623.64470  339.53926 1866.25677 1882.06230
 1735.80000   23.82730   65.52510    5.93420    5.94800 3646.71530  327.89696 1910.10480 2010.03304
 1735.85000   23.71190   65.07750    5.92340    5.97090 3665.33320  314.42133 1948.17513 2003.23729
 1735.90000   23.55210   64.62990    5.95100    5.98160 3686.43390  292.96706 1973.15951 2122.50047
 1735.95000   23.25010   64.22920    5.97000    5.91700 3710.25850  282.00110 2020.60115 2084.99105
 1736.00000   22.65140   63.87590    5.93990    5.91560 3734.08300  244.19018 2074.63068 2072.66253
 1736.05000   21.94110   63.52250    5.96330    5.92810 3754.50480  225.67445 2086.86327 2165.00945
 1736.10000   21.17320   63.16910    5.96080    5.94070 3766.10500  210.11226 2099.16799 2160.29468
 1736.15000   20.48080   62.47930    5.91860    5.94170 3777.70520  187.59022 2053.14771 2104.02355
 1736.20000   20.16550   61.69430    5.92220    5.93670 3789.30540  185.11687 2057.85228 2103.03933
 1736.25000   19.96690   61.11540    5.92570    5.93170 3779.18140  179.07584 2062.56857 2102.05655
 1736.30000   19.76820   60.71590    5.93310    5.94090 3766.49690  182.21025 2067.29567 2101.07423
 1736.35000   19.75650   60.31650    5.94370    5.99030 3753.81240  191.90151 2071.38485 2100.09140
 1736.40000   19.97140   59.93990    5.95440    5.95360 3740.62290  192.22311 2068.64704 2099.57985
 1736.45000   20.24840   59.68670    5.94040    5.95760 3725.68030  192.54524 2065.91189 2099.08196
 1736.50000   21.43820   59.43350    5.91680    5.96160 3710.73770  186.69530 2063.18036 2098.58515
 1736.55000   22.22430   59.18030    5.93900    6.01100 3695.79510  179.90938 2072.64153 2114.31356
 1736.60000   22.47870   58.73290    5.96120    6.00780 3686.33340  161.28003 2085.68922 2137.65884
 1736.65000   22.73310   58.22240    5.91470    6.00460 3695.38720  146.69895 2098.82001 2162.55119
 1736.70000   22.88940   57.71190    5.96060    5.93650 3704.44100  140.17656 2108.02907 2196.04076
 1736.75000   22.83380   57.20140    5.91840    5.93650 3713.49490  136.78290 2116.83202 2195.37946
 1736.80000   22.77810   56.69090    5.93300    5.93650 3728.85170  137.94063 2125.67172 2146.31171
 1736.85000   22.72250   56.38060    5.95220    6.00350 3746.88930  141.95294 2136.97379 2197.05635
 1736.90000   22.66680   56.13150    5.91200    5.97410 3764.92690  154.84743 2168.51682 2252.91806
 1736.95000   22.80440   55.86450    5.90430    5.94470 3771.73360  171.06966 2200.52545 2327.96365
 1737.00000   22.94320   55.46520    5.91350    5.92630 3751.23190  198.23740 2230.58201 2337.44390
 1737.05000   23.08200   55.06590    5.92240    5.95980 3735.31300  237.50349 2260.75446 2349.92605
 1737.10000   24.05440   54.66670    5.92880    5.99330 3739.20580  264.39607 2291.33504 2434.20750
 1737.15000   24.59600   54.21810    5.93520    5.97950 3743.09860  274.80435 2352.48680 2447.57831
 1737.20000   25.10620   53.73640    5.93900    5.94430 3747.56900  284.06348 2424.87745 2662.55260
 1737.25000   25.73690   53.25470    5.93810    5.98580 3755.47100  297.53591 2512.58172 2680.87643
 1737.30000   25.78660   52.91100    5.93730    5.98630 3763.37290  301.88435 2598.06131 2771.75600
 1737.35000   25.81880   52.77910    5.93650    5.94230 3771.27490  306.29633 2701.31479 2779.99744
 1737.40000   25.67710   52.64730    5.99550    5.98650 3781.12150  311.14168 2825.44329 2885.70941
 1737.45000   25.53530   52.51540    5.98520    5.95790 3792.25200  317.04901 2954.62655 3085.74331
 1737.50000   25.27390   52.38350    5.97490    5.93090 3803.38250  323.06849 3107.60346 3409.94203
 1737.55000   24.92410   52.25160    5.96460    5.94470 3814.51310  337.38875 3309.80491 3628.57577
 1737.60000   24.57940   52.11970    5.95900    5.95850 3822.65200  352.10889 3505.86990 3793.93072
 1737.65000   24.25840   52.07900    5.95570    5.97330 3830.55020  366.87963 3749.69718 4303.04409
 1737.70000   23.93730   52.33100    5.95240    5.98820 3838.44850  384.01112 4017.33266 4561.96339
 1737.75000   23.61630   52.58300    5.94910    6.00300 3846.34670  401.80616 4257.73469 4863.49413
 1737.80000   23.71530   52.83600    5.94580    5.95290 3850.72270  419.31249 4577.18847 5143.27796
 1737.85000   23.91270   53.10810    5.99940    5.96890 3850.39080  426.15147 4893.60595 5359.25715
 1737.90000   24.11050   53.38010    5.99280    5.98500 3850.05890  424.56110 5182.19792 5685.75308
 1737.95000   24.85450   53.65210    5.98630    5.97650 3858.22540  422.97685 5492.75206 6319.15482
