~Version ---------------------------------------------------
VERS.   2.0 : CWLS log ASCII Standard -VERSION 2.0
WRAP.    NO : One line per depth step
DLM . SPACE : Column Data Section Delimiter
~Well ------------------------------------------------------
STRT.m            1285.0 : START DEPTH
STOP.m            1340.0 : STOP DEPTH
STEP.m           0.05000 : STEP
NULL.           -9999.25 : NULL VALUE
COMP.               TPAO : COMPANY
WELL.     BATIRAMAN #241 : WELL
FLD .          BATIRAMAN : FIELD
LOC .                    : LOCATION
PROV.                    : PROVINCE
CNTY.                    : COUNTY
STAT.                    : STATE
CTRY.             TURKEY : COUNTRY
SRVC.                    : SERVICE COMPANY
DATE. 02-Aug-09 16:36:59 : DATE
UWI .                241 : UNIQUE WELL ID
API .                    : API NUMBER
~Curve Information -----------------------------------------
DEPT   .m          : depths
Caliper.inches     : Caliper, digitalized and interpolated data
GR     .api        : Gamma-Ray, digitalized and interpolated data
GRS    .api        : Gamma-Ray Spectral, digitalized and interpolated data
DT     .mu-sec/ft  : Sonic log, digitalized and interpolated data
Pe     .           : PhotoElectric Effect, digitalized and interpolated data
NEU    .decp       : Neutron log, digitalized and interpolated data
RHOB   .gram/cc    : Density log, digitalized and interpolated data
DenCorr.gram/cc    : Density correction log, digitalized and interpolated data
~Params ----------------------------------------------------
~Other -----------------------------------------------------
~ASCII -----------------------------------------------------
# ...
 1297.00000    8.55610   56.14810   45.57800   66.08180    4.87490    0.08430    2.68120    0.01280
 1297.05000    8.56310   56.73700   45.57660   66.17990    4.88210    0.08590    2.68300    0.01170
 1297.10000    8.57020   56.65190   45.57520   66.27810    4.88920    0.08740    2.68480    0.01050
 1297.15000    8.57720   55.86670   45.46250   66.37620    4.89630    0.08830    2.68660    0.00930
 1297.20000    8.58430   55.31850   45.10480   66.44760    4.90350    0.08880    2.68640    0.00820
 1297.25000    8.58250   54.92590   44.74700   66.51300    4.91060    0.08930    2.68120    0.00700
 1297.30000    8.57370   54.95560   44.38930   66.57840    4.91780    0.08990    2.66950    0.00580
 1297.35000    8.56490   55.15190   43.98880   66.64390    4.92490    0.08920    2.66600    0.00470
 1297.40000    8.55610   55.34810   43.51230   66.70930    4.92350    0.08810    2.66290    0.00350
 1297.45000    8.54730   55.54440   43.03580   66.73900    4.90570    0.08710    2.66120    0.00230
 1297.50000    8.53850   55.92590   42.55920   66.54280    4.88800    0.08600    2.66000    0.00120
 1297.55000    8.52970   56.31850   42.08270   66.34650    4.87020    0.08540    2.66060    0.00000
 1297.60000    8.52080   56.71110   41.60620   66.15020    4.85250    0.08480    2.66120   -0.00070
 1297.65000    8.52480   57.00370   41.18080   66.02230    4.83470    0.08430    2.66180   -0.00070
 1297.70000    8.53650   56.80740   40.82310   66.02230    4.81690    0.08370    2.66240   -0.00070
 1297.75000    8.54830   56.61110   40.46530   66.02230    4.79920    0.08320    2.66300   -0.00070
 1297.80000    8.56000   56.41480   40.10760   66.02230    4.78140    0.08270    2.66520   -0.00060
 1297.85000    8.57170   55.98520   39.74990   66.02230    4.76370    0.08210    2.67060   -0.00060
 1297.90000    8.58350   55.20000   39.39210   66.02230    4.74590    0.08160    2.67460   -0.00040
 1297.95000    8.58740   55.01480   39.16850   66.02230    4.72820    0.08160    2.67640    0.00000
 1298.00000    8.58740   55.40740   39.07800   66.02230    4.72230    0.08160    2.67820    0.00050
 1298.05000    8.58740   55.80000   38.98750   66.02230    4.73120    0.08160    2.68000    0.00090
 1298.10000    8.58740   56.19260   38.89700   66.02230    4.74010    0.08160    2.68100    0.00140
 1298.15000    8.58740   56.44070   38.80650   65.93610    4.74900    0.08160    2.68100    0.00180
 1298.20000    8.58740   56.63700   38.71600   65.83790    4.75800    0.08160    2.68100    0.00230
 1298.25000    8.58740   56.83330   38.62560   65.73980    4.76690    0.08160    2.68100    0.00270
 1298.30000    8.58740   57.02960   38.53510   65.63870    4.77580    0.08160    2.68100    0.00400
 1298.35000    8.58740   57.03700   38.42680   65.50780    4.78470    0.08160    2.68100    0.00580
 1298.40000    8.58740   57.03700   38.30670   65.37700    4.78220    0.08150    2.68100    0.00760
 1298.45000    8.58220   57.03700   38.18650   65.24610    4.77030    0.07990    2.68100    0.00930
 1298.50000    8.57510   57.11110   38.06630   65.11520    4.75850    0.07830    2.68100    0.01030
 1298.55000    8.56810   57.50370   37.94610   64.98440    4.74660    0.07660    2.68100    0.01090
 1298.60000    8.56100   57.89630   37.82590   64.74650    4.73480    0.07500    2.68050    0.01150
 1298.65000    8.55400   58.28890   37.70570   64.35390    4.72290    0.07340    2.67960    0.01210
 1298.70000    8.54690   58.84440   37.58550   63.96130    4.73290    0.07180    2.67880    0.01270
 1298.75000    8.53990   59.62960   37.46530   63.56880    4.75670    0.07020    2.67790    0.01330
 1298.80000    8.53280   60.20740   37.34520   62.93230    4.78060    0.06820    2.67870    0.01310
 1298.85000    8.52580   60.60000   37.22500   62.14720    4.80450    0.06490    2.68050    0.01270
 1298.90000    8.51870   60.99260   37.10480   61.36210    4.82830    0.06160    2.68170    0.01230
 1298.95000    8.51750   61.38520   36.15060   60.57700    4.85220    0.05840    2.68260    0.01180
 1299.00000    8.51750   61.48150   34.90200   60.57990    4.86760    0.05550    2.68350    0.01140
 1299.05000    8.51750   61.48150   33.65340   59.40220    4.87950    0.05340    2.68440    0.01100
 1299.10000    8.51750   60.80000   32.40480   59.14650    4.89140    0.05120    2.68330    0.01050
 1299.15000    8.51750   60.01480   32.28790   58.95020    4.90330    0.04900    2.68160    0.01010
 1299.20000    8.51750   59.22960   29.79210   58.75390    4.91520    0.04770    2.67730    0.00950
 1299.25000    8.51750   53.62960   28.16250   58.60220    4.92710    0.04740    2.67210    0.00880
 1299.30000    8.51750   48.91850   26.73580   58.70040    4.93900    0.04700    2.66690    0.00810
 1299.35000    8.52530   47.65930   25.60620   58.79850    4.95090    0.04670    2.66170    0.00740
 1299.40000    8.53410   45.30370   24.53580   58.89670    4.96280    0.04630    2.64490    0.00670
 1299.45000    8.54290   41.22960   23.15970   59.03050    4.97480    0.04590    2.64320    0.00600
 1299.50000    8.55170   40.44440   21.73300   59.22680    4.98670    0.04580    2.64140    0.00530
 1299.55000    8.56060   39.65930   20.93440   59.46910    4.99860    0.04580    2.63970    0.00460
 1299.60000    8.56940   38.87410   20.22030   59.76360    4.98130    0.04550    2.64030    0.00390
 1299.65000    8.57820   38.73330   19.82870   60.05800    4.96000    0.04490    2.64210    0.00320
 1299.70000    8.58700   39.12590   19.47100   60.35240    4.93870    0.04440    2.64380    0.00350
 1299.75000    8.58740   39.51850   19.11320   60.44610    4.91740    0.04390    2.64560    0.00400
 1299.80000    8.58740   39.91110   18.75550   60.44610    4.89610    0.04400    2.64480    0.00440
 1299.85000    8.58740   40.60740   18.39770   60.44610    4.87480    0.04460    2.64310    0.00490
 1299.90000    8.58740   41.39260   18.04000   60.44610    4.85350    0.04510    2.64130    0.00530
 1299.95000    8.58740   41.82960   17.56630   60.56310    4.83220    0.04560    2.63960    0.00580
 1300.00000    8.58740   42.22220   17.08980   60.69390    4.81100    0.04720    2.63520    0.00620
 1300.05000    8.57860   42.61480   16.61320   60.82480    4.78970    0.04930    2.63000    0.00670
 1300.10000    8.56980   42.91850   16.13670   60.95560    4.78870    0.05210    2.62350    0.00710
 1300.15000    8.56100   42.52590   15.66020   61.08650    4.78870    0.05520    2.61660    0.00760
 1300.20000    8.55220   42.31110   15.18930   61.20350    4.78870    0.05700    2.60970    0.00800
 1300.25000    8.54340   42.70370   14.83150   61.26890    4.78870    0.05810    2.60280    0.00850
 1300.30000    8.53450   43.09630   14.47380   61.33430    4.78870    0.05910    2.59710    0.00890
 1300.35000    8.52570   43.48890   14.11600   61.39980    4.78950    0.06020    2.59190    0.00940
 1300.40000    8.51750   44.23700   13.82590   61.46520    4.81630    0.06050    2.59050    0.00980
 1300.45000    8.51750   45.41480   14.18080   61.53060    4.84320    0.06050    2.59110    0.01030
 1300.50000    8.51750   51.40740   14.53580   61.49190    4.87010    0.06050    2.59170    0.01090
 1300.55000    8.51750   54.54810   14.89070   61.36110    4.89690    0.06050    2.59230    0.01150
 1300.60000    8.51750   56.20740   16.70480   61.23020    4.92380    0.05900    2.59290    0.01210
 1300.65000    8.51750   59.34810   17.41600   61.09940    4.95070    0.05680    2.59350    0.01270
 1300.70000    8.51750   73.86670   18.12730   60.96850    4.97750    0.05290    2.60480    0.01330
 1300.75000    8.51750   80.14810   18.83860   60.83770    5.00000    0.04860    2.61980    0.01380
 1300.80000    8.51750   79.14070   19.54990   60.31820    5.00000    0.04420    2.62290    0.01380
 1300.85000    8.51750   83.71850   20.26110   59.72940    5.00000    0.03980    2.64620    0.01380
 1300.90000    8.51750   84.50370   20.82030   59.14050    5.00000    0.04110    2.64270    0.01380
 1300.95000    8.51750   86.45930   20.81890   58.53980    5.00000    0.03320    2.65380    0.01380
