~Version ---------------------------------------------------
VERS.   2.0 : CWLS log ASCII Standard -VERSION 2.0
WRAP.    NO : One line per depth step
DLM . SPACE : Column Data Section Delimiter
~Well ------------------------------------------------------
STRT.m 1786.00000 : START DEPTH
STOP.m 1840.00000 : STOP DEPTH
STEP.m    0.05000 : STEP
NULL.    -9999.25 : NULL VALUE
COMP.     Unknown : COMPANY
WELL.     Unknown : WELL
FLD .     Unknown : FIELD
LOC .             : LOCATION
PROV.             : PROVINCE
CNTY.             : COUNTY
STAT.             : STATE
CTRY.     Unknown : COUNTRY
SRVC.             : SERVICE COMPANY
DATE.     Unknown : DATE
UWI .     Unknown : UNIQUE WELL ID
API .             : API NUMBER
~Curve Information -----------------------------------------
DEPT      .m              : depths
GammaKT   .api            : digitalized and interpolated data
GammaTotal.api            : digitalized and interpolated data
Thorium   .parts-per-mil  : digitalized and interpolated data
Uranium   .parts-per-mil  : digitalized and interpolated data
Potassium .percent        : digitalized and interpolated data
~Params ----------------------------------------------------
~Other -----------------------------------------------------
~ASCII -----------------------------------------------------
# ...
 1816.00000   31.45820   41.22790   12.00350    1.55490    1.20250
 1816.05000   31.64030   41.65730   12.06650    1.54690    1.20890
 1816.10000   31.93490   41.97490   12.11410    1.54540    1.21520
 1816.15000   32.29570   42.22960   12.14000    1.54600    1.22150
 1816.20000   32.64980   42.48980   12.16600    1.54660    1.22820
 1816.25000   32.99900   42.79820   12.19190    1.54930    1.23820
 1816.30000   33.27980   43.10650   12.21780    1.55600    1.24810
 1816.35000   33.46060   43.71050   12.24370    1.56280    1.31120
 1816.40000   33.52160   43.93640   12.25570    1.57240    1.30370
 1816.45000   33.58260   43.93530   12.26040    1.58550    1.29620
 1816.50000   33.64360   44.11660   12.26510    1.59860    1.28860
 1816.55000   33.70460   44.29790   12.26940    1.60850    1.28330
 1816.60000   33.74120   43.91980   12.26980    1.61080    1.27830
 1816.65000   33.73780   43.99760   12.27010    1.61320    1.27330
 1816.70000   33.73440   44.07540   12.26610    1.61550    1.27640
 1816.75000   33.80490   44.07820   12.25980    1.59570    1.28360
 1816.80000   33.91110   43.86300   12.24980    1.57570    1.28720
 1816.85000   33.80070   43.97240   12.23080    1.55640    1.28060
 1816.90000   33.50750   43.71900   12.21180    1.53740    1.27390
 1816.95000   33.27810   43.12750   12.19850    1.51830    1.26720
 1817.00000   33.05350   42.81450   12.18600    1.49790    1.26060
 1817.05000   32.82890   42.65690   12.17340    1.47700    1.26230
 1817.10000   32.82410   42.49920   12.14440    1.45600    1.26600
 1817.15000   33.01720   42.36500   12.10420    1.43850    1.26970
 1817.20000   33.21030   42.25410   12.06390    1.42160    1.27340
 1817.25000   33.08750   42.10810   12.04150    1.40480    1.28420
 1817.30000   32.92310   41.50430   12.02210    1.40390    1.29560
 1817.35000   32.69320   41.06900   12.00280    1.40340    1.30700
 1817.40000   32.38770   40.72150   11.97340    1.40290    1.30890
 1817.45000   32.36040   41.05380   11.93920    1.40310    1.28250
 1817.50000   32.59060   41.38610   11.95350    1.40930    1.28540
 1817.55000   32.82080   41.86230   11.99200    1.41550    1.30190
 1817.60000   33.14100   42.32550   12.02840    1.42640    1.31850
 1817.65000   33.47220   42.45170   12.06240    1.44340    1.33500
 1817.70000   33.84630   43.32840   12.09640    1.46030    1.37630
 1817.75000   34.42260   43.85390   12.12360    1.47810    1.39760
 1817.80000   35.19480   44.53730   12.14440    1.49650    1.40610
 1817.85000   35.33380   45.07950   12.16510    1.51490    1.41420
 1817.90000   35.37730   45.20460   12.18580    1.52850    1.40620
 1817.95000   35.42070   45.32970   12.20650    1.51900    1.39830
 1818.00000   35.05370   44.38580   12.22730    1.50960    1.39030
 1818.05000   34.39630   43.52610   12.13200    1.50010    1.35410
 1818.10000   33.84490   42.22410   12.11860    1.49110    1.29970
 1818.15000   33.04540   41.35800   12.10510    1.48240    1.25420
 1818.20000   32.06600   40.77520   12.08720    1.47360    1.20900
 1818.25000   31.23450   40.04960   12.04340    1.47030    1.16750
 1818.30000   30.47400   39.26950   12.01080    1.47060    1.12600
 1818.35000   29.86570   38.82190   11.99630    1.47090    1.07340
 1818.40000   29.47570   38.72380   11.98170    1.49080    1.06790
 1818.45000   29.14990   38.96580   11.96720    1.52420    1.08240
 1818.50000   29.19080   39.36340   12.00540    1.55760    1.09690
 1818.55000   29.38280   40.20400   12.07170    1.61630    1.11140
 1818.60000   29.57480   40.88480   12.10130    1.68290    1.05570
 1818.65000   30.03290   42.43350   12.13090    1.75720    1.08840
 1818.70000   30.61310   43.82880   12.16000    1.84260    1.12110
 1818.75000   31.40870   44.71510   12.17760    1.92360    1.15380
 1818.80000   31.98090   45.23320   12.19560    1.98820    1.17330
 1818.85000   32.37530   45.90440   12.21530    2.05290    1.18760
 1818.90000   32.76960   46.61230   12.23500    2.10160    1.20010
 1818.95000   33.68170   47.22660   12.25470    2.11970    1.21090
 1819.00000   33.42070   47.81620   12.27680    2.13780    1.22170
 1819.05000   33.50590   47.97440   12.29890    2.15590    1.21750
 1819.10000   33.72370   48.03890   12.32090    2.16510    1.20910
 1819.15000   33.55570   47.69030   12.34300    2.14300    1.20070
 1819.20000   33.38770   46.83280   12.34120    2.12090    1.18550
 1819.25000   32.83550   45.82610   12.32950    2.09670    1.16510
 1819.30000   32.19570   44.72940   12.31780    2.03650    1.13320
 1819.35000   31.60460   43.99260   12.29740    1.97630    1.09000
 1819.40000   31.54600   43.49410   12.25140    1.92480    1.05330
 1819.45000   31.48740   43.36800   12.21760    1.87910    1.04940
 1819.50000   31.25140   42.67900   12.26810    1.83350    1.04540
 1819.55000   30.64570   42.81500   12.31850    1.80660    1.04150
 1819.60000   30.72470   42.95100   12.35620    1.79880    1.04030
 1819.65000   30.80360   43.09270   12.38670    1.79110    1.04200
 1819.70000   31.78420   43.82760   12.41720    1.78330    1.04370
 1819.75000   32.22250   44.67580   12.46400    1.79950    1.05920
 1819.80000   32.66070   45.71320   12.51290    1.82370    1.12170
 1819.85000   33.42510   46.09360   12.56180    1.84780    1.13130
 1819.90000   34.07480   46.99890   12.57160    1.87390    1.13300
 1819.95000   33.99610   47.01000   12.56620    1.90040    1.13470
 1820.00000   33.70740   47.00170   12.56090    1.92690    1.13640
 1820.05000   33.01480   45.96850   12.53170    1.95160    1.11980
 1820.10000   32.39000   45.23820   12.47160    1.96470    1.09720
 1820.15000   31.96500   44.55370   12.42360    1.97790    1.07470
 1820.20000   31.48540   44.06730   12.39070    1.99110    1.05210
 1820.25000   30.92140   43.64520   12.35780    2.00450    1.04040
 1820.30000   30.71380   43.63930   12.32490    2.01820    1.03540
 1820.35000   30.60370   43.85350   12.29650    2.04750    1.03040
 1820.40000   30.49350   44.55640   12.31030    2.08950    1.02540
 1820.45000   30.94590   45.47110   12.32410    2.13290    1.06540
 1820.50000   31.33590   46.17760   12.34010    2.19400    1.08050
 1820.55000   31.57000   46.83770   12.35680    2.25500    1.08790
 1820.60000   31.80410   47.69290   12.37340    2.32700    1.09530
 1820.65000   32.03820   48.64330   12.39010    2.40100    1.09610
 1820.70000   32.27230   49.30150   12.37840    2.45390    1.09590
 1820.75000   32.30460   48.84740   12.36550    2.48700    1.09290
 1820.80000   32.07050   48.89090   12.35260    2.51890    1.08870
 1820.85000   31.76490   48.79730   12.31790    2.53490    1.08300
 1820.90000   31.45390   48.34790   12.28060    2.55090    1.07060
 1820.95000   31.03800   47.95150   12.24440    2.56680    1.05820
 1821.00000   30.61710   47.62460   12.21620    2.58500    1.05290
 1821.05000   30.16140   47.29770   12.18810    2.60610    1.04980
 1821.10000   29.70040   47.79310   12.15990    2.62730    1.05350
 1821.15000   29.81560   47.82010   12.15080    2.64810    1.05720
 1821.20000   30.05420   47.84700   12.16400    2.66840    1.06090
 1821.25000   30.29280   48.41510   12.17730    2.68870    1.06460
 1821.30000   30.53140   49.08730   12.18990    2.70340    1.12060
 1821.35000   30.91240   49.74050   12.20230    2.71020    1.13880
 1821.40000   31.54270   50.21790   12.21470    2.71700    1.15690
 1821.45000   32.06980   50.61130   12.23940    2.72060    1.17510
 1821.50000   32.57500   50.73110   12.27150    2.71030    1.19460
 1821.55000   32.96880   51.18350   12.30380    2.70470    1.21610
 1821.60000   33.46790   51.72840   12.33720    2.71440    1.23760
 1821.65000   34.15460   52.01230   12.37060    2.72410    1.26190
 1821.70000   34.75830   52.71280   12.39860    2.73400    1.28790
 1821.75000   35.04960   53.04780   12.39150    2.74690    1.30560
 1821.80000   35.34100   53.29350   12.38450    2.75980    1.32110
 1821.85000   35.63230   53.95090   12.38880    2.77270    1.33660
 1821.90000   35.90910   54.49790   12.39610    2.79990    1.39360
 1821.95000   36.16660   55.31130   12.43180    2.83040    1.40490
