~Version ---------------------------------------------------
VERS.   2.0 : CWLS log ASCII Standard -VERSION 2.0
WRAP.    NO : One line per depth step
DLM . SPACE : Column Data Section Delimiter
~Well ------------------------------------------------------
STRT.m 1682.00000 : START DEPTH
STOP.m 1742.00000 : STOP DEPTH
STEP.m    0.05000 : STEP
NULL.    -9999.25 : NULL VALUE
COMP.     Unknown : COMPANY
WELL.     Unknown : WELL
FLD .     Unknown : FIELD
LOC .             : LOCATION
PROV.             : PROVINCE
CNTY.             : COUNTY
STAT.             : STATE
CTRY.     Unknown : COUNTRY
SRVC.             : SERVICE COMPANY
DATE.     Unknown : DATE
UWI .     Unknown : UNIQUE WELL ID
API .             : API NUMBER
~Curve Information -----------------------------------------
DEPT            .m            : depths
Bit Size        .inches       : digitalized and interpolated data
Caliper         .inches       : digitalized and interpolated data
GammaKUT        .api          : digitalized and interpolated data
GammaKT         .api          : digitalized and interpolated data
Density         .gram per cc  : digitalized and interpolated data
Neutron Porosity.pu           : digitalized and interpolated data
Pe              .unknown      : digitalized and interpolated data
DensityCorr     .gm per cc    : digitalized and interpolated data
Tension         .pounds       : digitalized and interpolated data
~Params ----------------------------------------------------
~Other -----------------------------------------------------
~ASCII -----------------------------------------------------
# ...
 1689.30000    6.00000    6.48090   14.54600    6.01640    2.62730    3.70890    4.99800    0.05620 2744.50310
 1689.35000    6.00000    6.48910   14.73180    5.87370    2.62530    3.70890    4.98910    0.05650 2739.24270
 1689.40000    6.00000    6.49740   14.92510    5.74390    2.62340    3.70890    4.98020    0.05670 2733.98220
 1689.45000    6.00000    6.50570   15.11850    5.61400    2.62050    3.70890    4.97130    0.05730 2730.49990
 1689.50000    6.00000    6.51390   15.31180    5.48420    2.61610    3.90760    4.96240    0.05810 2730.49990
 1689.55000    6.00000    6.50520   15.50510    5.35430    2.61160    4.11560    4.95350    0.05900 2730.49990
 1689.60000    6.00000    6.48590   15.59070    5.22450    2.60410    4.40160    4.94080    0.05980 2730.49990
 1689.65000    6.00000    6.46660   15.56210    5.09460    2.59520    4.69310    4.91970    0.06070 2730.49990
 1689.70000    6.00000    6.44730   15.53340    4.96480    2.58420    5.07170    4.89860    0.06150 2730.49990
 1689.75000    6.00000    6.42800   15.50480    4.78130    2.56100    5.48520    4.87740    0.06200 2730.49990
 1689.80000    6.00000    6.40870   15.47610    4.57230    2.55010    5.93280    4.85630    0.06260 2730.49990
 1689.85000    6.00000    6.38940   15.44750    4.36320    2.54410    6.38050    4.83520    0.06310 2730.49990
 1689.90000    6.00000    6.37010   15.46500    4.15420    2.53890    6.68250    4.82170    0.06360 2730.49990
 1689.95000    6.00000    6.35080   15.56050    3.94520    2.53430    6.76270    4.81020    0.06420 2730.49990
 1690.00000    6.00000    6.33150   15.65590    3.73620    2.53080    6.84290    4.79880    0.06470 2730.49990
 1690.05000    6.00000    6.31710   15.75140    3.52720    2.52870    6.92310    4.78740    0.06530 2730.49990
 1690.10000    6.00000    6.30440   15.84690    3.31940    2.53110    7.00330    4.77600    0.06580 2730.49990
 1690.15000    6.00000    6.29180   15.94230    3.11170    2.53340    7.08350    4.76460    0.06530 2730.49990
 1690.20000    6.00000    6.27910   16.01090    2.90390    2.53580    7.16370    4.75320    0.06490 2730.49990
 1690.25000    6.00000    6.26650   16.00180    2.69610    2.53820    7.10210    4.75810    0.06440 2730.49990
 1690.30000    6.00000    6.25380   15.99270    2.48840    2.54200    6.99380    4.76560    0.06390 2730.49990
 1690.35000    6.00000    6.24120   15.98360    2.28060    2.54790    6.88550    4.77310    0.06350 2730.49990
 1690.40000    6.00000    6.22850   15.97450    2.07280    2.55560    6.77720    4.78060    0.06300 2730.49990
 1690.45000    6.00000    6.22440   15.96550    1.86640    2.56580    6.66890    4.78810    0.06260 2730.49990
 1690.50000    6.00000    6.22880   15.95640    1.66220    2.57640    6.56060    4.79560    0.06210 2730.49990
 1690.55000    6.00000    6.23320   15.94730    1.45790    2.58450    6.39930    4.80310    0.06170 2730.49990
 1690.60000    6.00000    6.23760   15.93820    1.25360    2.59060    6.22950    4.81060    0.06120 2730.49990
 1690.65000    6.00000    6.24190   15.94210    1.04930    2.59670    6.05980    4.81520    0.06080 2730.49990
 1690.70000    6.00000    6.24630   16.11480    0.84510    2.60280    5.89000    4.81340    0.06030 2730.49990
 1690.75000    6.00000    6.25070   16.28750    0.72870    2.60140    5.71450    4.81160    0.05990 2730.49990
 1690.80000    6.00000    6.25510   16.46020    0.75050    2.59480    5.53380    4.80980    0.05940 2730.49990
 1690.85000    6.00000    6.25440   16.63290    0.77230    2.59050    5.35320    4.80800    0.05900 2730.49990
 1690.90000    6.00000    6.25000   16.80560    0.79410    2.58460    5.30300    4.80620    0.05850 2730.49990
 1690.95000    6.00000    6.24560   16.29970    0.81590    2.57310    5.72760    4.80440    0.05810 2730.49990
 1691.00000    6.00000    6.24130   15.68030    0.83770    2.56160    6.13650    4.80270    0.05760 2730.49990
 1691.05000    6.00000    6.22240   15.06090    0.85940    2.55400    6.77960    4.80090    0.05720 2730.49990
 1691.10000    6.00000    6.19440   14.35690    0.88120    2.55030    7.71400    4.78820    0.05800 2730.49990
 1691.15000    6.00000    6.16640   13.62430    0.93310    2.54660    8.24500    4.75370    0.05880 2730.49990
 1691.20000    6.00000    6.13840   12.89170    1.04060    2.54430    8.42730    4.71920    0.05960 2730.49990
 1691.25000    6.00000    6.11550   12.66040    1.14810    2.54470    8.60960    4.68460    0.06040 2730.49990
 1691.30000    6.00000    6.10570   12.49830    1.25560    2.54500    8.79200    4.65010    0.06120 2730.49990
 1691.35000    6.00000    6.09600   12.33630    1.36320    2.54540    8.89660    4.62610    0.06200 2730.49990
 1691.40000    6.00000    6.08620   12.17420    1.47070    2.54570    8.85960    4.60660    0.06280 2730.49990
 1691.45000    6.00000    6.07650   12.01210    1.57820    2.54610    8.82260    4.58710    0.06360 2730.49990
 1691.50000    6.00000    6.06670   11.85000    1.75750    2.54640    8.78570    4.56760    0.06440 2730.49990
 1691.55000    6.00000    6.05700   11.68800    2.10980    2.54680    8.74870    4.54810    0.06530 2730.49990
 1691.60000    6.00000    6.04720   11.52590    2.46210    2.55080    8.71180    4.52860    0.06640 2730.49990
 1691.65000    6.00000    6.03750   11.36380    2.81440    2.55590    8.67480    4.50910    0.06740 2730.49990
 1691.70000    6.00000    6.03760   11.39620    3.16670    2.56260    8.56170    4.48960    0.06850 2730.49990
 1691.75000    6.00000    6.03800   11.69140    3.51900    2.57040    8.21860    4.51420    0.06950 2730.49990
 1691.80000    6.00000    6.03850   11.98670    3.87130    2.57920    7.81860    4.54160    0.07060 2730.49990
 1691.85000    6.00000    6.03890   12.28200    4.26500    2.58630    7.33400    4.56910    0.07160 2730.49990
 1691.90000    6.00000    6.03930   12.57720    4.70000    2.59440    6.82290    4.59650    0.07250 2730.49990
 1691.95000    6.00000    6.03970   12.98530    5.13500    2.60500    6.45780    4.62390    0.07290 2730.49990
 1692.00000    6.00000    6.04060   13.75870    5.57000    2.62810    6.09740    4.65140    0.07340 2730.49990
 1692.05000    6.00000    6.04400   14.53200    5.62330    2.63730    5.34150    4.71060    0.07380 2730.49990
 1692.10000    6.00000    6.04740   15.29450    5.62330    2.64610    4.87080    4.78570    0.07420 2730.49990
 1692.15000    6.00000    6.05090   16.04690    5.62330    2.65130    3.96980    4.86080    0.07460 2730.49990
 1692.20000    6.00000    6.05430   16.79930    5.72180    2.65550    4.23090    4.98270    0.07500 2730.49990
 1692.25000    6.00000    6.05770   17.49850    5.96450    2.65940    4.48550    4.91810    0.07530 2730.49990
 1692.30000    6.00000    6.06120   18.17750    6.20730    2.66330    4.70440    4.82610    0.07560 2730.49990
 1692.35000    6.00000    6.06460   18.85650    6.45010    2.66570    4.92330    4.75130    0.07590 2730.49990
 1692.40000    6.00000    6.06470   19.40840    6.69290    2.66810    5.14220    4.67640    0.07620 2730.49990
 1692.45000    6.00000    6.06230   19.88600    6.93570    2.67060    5.36110    4.55590    0.07650 2726.48480
 1692.50000    6.00000    6.05980   20.30940    7.17850    2.67290    5.68500    4.35270    0.07680 2719.39820
 1692.55000    6.00000    6.05730   19.95390    8.12720    2.67290    6.02480    4.16390    0.07710 2712.31160
 1692.60000    6.00000    6.05490   19.59830    8.26120    2.67300    6.16670    3.97690    0.07720 2705.22490
 1692.65000    6.00000    6.05240   19.24270    8.02920    2.67310    6.27600    3.92830    0.07690 2698.13830
 1692.70000    6.00000    6.04990   18.88240    7.79720    2.67320    6.38530    3.87960    0.07660 2691.05170
 1692.75000    6.00000    6.04920   18.48860    7.56520    2.67330    6.49460    3.83100    0.07630 2683.96500
 1692.80000    6.00000    6.04990   18.09470    7.33880    2.67330    6.60400    3.79430    0.07600 2676.87840
 1692.85000    6.00000    6.05060   17.70090    7.13830    2.67340    6.60940    3.83630    0.07570 2669.79180
 1692.90000    6.00000    6.05140   17.30710    6.93780    2.67350    6.57690    3.87820    0.07480 2662.70510
