~Version ---------------------------------------------------
VERS.   2.0 : CWLS log ASCII Standard -VERSION 2.0
WRAP.    NO : One line per depth step
DLM . SPACE : Column Data Section Delimiter
~Well ------------------------------------------------------
STRT.m 1682.00000 : START DEPTH
STOP.m 1742.00000 : STOP DEPTH
STEP.m    0.05000 : STEP
NULL.    -9999.25 : NULL VALUE
COMP.     Unknown : COMPANY
WELL.     Unknown : WELL
FLD .     Unknown : FIELD
LOC .             : LOCATION
PROV.             : PROVINCE
CNTY.             : COUNTY
STAT.             : STATE
CTRY.     Unknown : COUNTRY
SRVC.             : SERVICE COMPANY
DATE.     Unknown : DATE
UWI .     Unknown : UNIQUE WELL ID
API .             : API NUMBER
~Curve Information -----------------------------------------
DEPT            .m            : depths
Bit Size        .inches       : digitalized and interpolated data
Caliper         .inches       : digitalized and interpolated data
GammaKUT        .api          : digitalized and interpolated data
GammaKT         .api          : digitalized and interpolated data
Density         .gram per cc  : digitalized and interpolated data
Neutron Porosity.pu           : digitalized and interpolated data
Pe              .unknown      : digitalized and interpolated data
DensityCorr     .gm per cc    : digitalized and interpolated data
Tension         .pounds       : digitalized and interpolated data
~Params ----------------------------------------------------
~Other -----------------------------------------------------
~ASCII -----------------------------------------------------
# ...
 1692.95000    6.00000    6.05210   16.95940    6.73730    2.67540    6.54440    3.92020    0.07380 2656.25000
 1693.00000    6.00000    6.05290   16.76260    6.53680    2.67950    6.51190    3.96220    0.07290 2656.25000
 1693.05000    6.00000    6.05360   16.56590    6.33630    2.68350    6.47940    3.99900    0.07200 2656.25000
 1693.10000    6.00000    6.05440   16.36910    6.13040    2.68810    6.44690    4.02900    0.07110 2656.25000
 1693.15000    6.00000    6.05510   16.17230    5.84460    2.69280    6.41440    4.05900    0.07040 2656.25000
 1693.20000    6.00000    6.05630   15.97560    5.55890    2.70010    6.38300    4.08900    0.06970 2656.25000
 1693.25000    6.00000    6.05980   15.77880    5.27320    2.70710    6.35620    4.04690    0.06900 2656.25000
 1693.30000    6.00000    6.06320   15.58200    4.98750    2.71070    6.32950    3.99100    0.06830 2656.25000
 1693.35000    6.00000    6.06670   15.60890    4.91190    2.71430    6.30280    3.91730    0.06760 2656.25000
 1693.40000    6.00000    6.07020   15.79730    5.07560    2.71920    6.27600    3.80130    0.06690 2656.25000
 1693.45000    6.00000    6.07370   15.98570    5.23940    2.72060    6.24930    3.71720    0.06630 2656.25000
 1693.50000    6.00000    6.07710   16.17410    5.40310    2.71720    6.22250    3.67170    0.06600 2656.25000
 1693.55000    6.00000    6.08060   16.36240    5.56680    2.71380    6.19580    3.62620    0.06580 2656.25000
 1693.60000    6.00000    6.08420   16.55080    5.73060    2.70770    6.16910    3.58080    0.06560 2656.25000
 1693.65000    6.00000    6.08810   16.73920    5.89430    2.69940    6.14230    3.54970    0.06540 2656.25000
 1693.70000    6.00000    6.09210   16.97000    5.81180    2.69090    6.12820    3.59940    0.06520 2656.25000
 1693.75000    6.00000    6.09610   17.24070    5.49830    2.68400    6.13560    3.64910    0.06330 2656.25000
 1693.80000    6.00000    6.10000   17.51130    5.18480    2.68110    6.14300    3.69870    0.06070 2656.25000
 1693.85000    6.00000    6.10400   17.78200    4.73750    2.67830    6.15040    3.76030    0.05810 2654.38740
 1693.90000    6.00000    6.10800   18.05270    4.23910    2.67550    6.15780    3.87480    0.05620 2651.94430
 1693.95000    6.00000    6.11190   17.84410    3.74060    2.67130    6.16520    3.97310    0.05430 2649.50120
 1694.00000    6.00000    6.11590   17.62930    3.24210    2.66480    6.17260    4.03510    0.05230 2647.05810
 1694.05000    6.00000    6.12600   17.41450    3.23390    2.66850    6.19490    4.09710    0.05040 2644.61500
 1694.10000    6.00000    6.14400   17.19960    3.48020    2.67220    6.25670    4.15910    0.04850 2642.17180
 1694.15000    6.00000    6.16210   16.88570    3.72650    2.67580    6.31840    4.28090    0.04670 2639.72870
 1694.20000    6.00000    6.18010   16.56220    3.97290    2.67950    6.38020    4.24630    0.04840 2637.28560
 1694.25000    6.00000    6.19820   16.23870    4.21920    2.68350    6.44190    4.19350    0.05020 2634.84250
 1694.30000    6.00000    6.21620   15.91510    4.46560    2.68780    6.50370    4.14070    0.05190 2632.39940
 1694.35000    6.00000    6.23420   15.96740    4.71190    2.69230    6.42790    4.04060    0.05370 2629.95630
 1694.40000    6.00000    6.25700   16.43820    5.56790    2.69980    6.26160    3.94620    0.05540 2627.51310
 1694.45000    6.00000    6.28170   16.90890    6.52790    2.70970    6.09540    3.90060    0.05720 2625.07000
 1694.50000    6.00000    6.30640   17.37960    7.40660    2.72310    5.92910    3.85500    0.05900 2622.62690
 1694.55000    6.00000    6.33110   18.27540    8.24440    2.73340    5.61600    3.80940    0.06070 2620.18380
 1694.60000    6.00000    6.35590   20.07730    9.08210    2.74710    5.22010    3.76380    0.06250 2617.74070
 1694.65000    6.00000    6.38060   21.62400   10.73870    2.75310    4.84200    3.78400    0.06120 2595.70070
 1694.70000    6.00000    6.39690   23.42310   12.13360    2.76120    4.47500    3.81650    0.05790 2500.00000
 1694.75000    6.00000    6.40000   25.47440   13.25210    2.76750    4.14540    3.84910    0.05470 2500.00000
 1694.80000    6.00000    6.40300   27.19790   13.68100    2.76420    3.85190    3.88160    0.05150 2500.00000
 1694.85000    6.00000    6.40610   28.45120   14.10980    2.76090    3.63750    3.91420    0.04840 2500.00000
 1694.90000    6.00000    6.40920   29.14490   14.53870    2.75790    3.42320    3.94670    0.04500 2500.00000
 1694.95000    6.00000    6.41230   29.83870   14.96750    2.75480    3.21730    3.98820    0.04150 2500.00000
 1695.00000    6.00000    6.40360   30.53250   16.13800    2.75180    3.01660    4.03410    0.03800 2500.00000
 1695.05000    6.00000    6.39090   29.62460   15.93620    2.74350    2.81600    4.08010    0.03550 2500.00000
 1695.10000    6.00000    6.37820   28.70160   14.81360    2.73560    2.61530    4.12610    0.03460 2500.00000
 1695.15000    6.00000    6.36560   27.42450   13.71940    2.72990    2.23880    4.17200    0.03370 2500.00000
 1695.20000    6.00000    6.35290   25.96620   12.65880    2.72790    1.87550    4.27700    0.03270 2516.87500
 1695.25000    6.00000    6.34010   24.02540   11.59820    2.72580    1.72090    4.38290    0.03180 2548.43750
 1695.30000    6.00000    6.32660   22.28540   10.14150    2.72380    1.56620    4.44100    0.03080 2580.00000
 1695.35000    6.00000    6.31320   20.73580    9.02750    2.72180    1.41160    4.49690    0.02990 2611.56250
 1695.40000    6.00000    6.29980   19.24010    7.95680    2.72170    1.32200    4.55290    0.02890 2643.12500
 1695.45000    6.00000    6.28640   17.91170    7.60890    2.72310    1.28160    4.58200    0.02800 2656.25000
 1695.50000    6.00000    6.27300   17.15930    7.30170    2.72450    1.24120    4.57630    0.02700 2656.25000
 1695.55000    6.00000    6.25960   16.40680    6.99440    2.72590    1.20080    4.57070    0.02750 2656.25000
 1695.60000    6.00000    6.24620   15.87500    6.68720    2.72470    1.16040    4.56500    0.02870 2656.25000
 1695.65000    6.00000    6.23280   15.67510    6.38000    2.72260    1.12290    4.55930    0.02990 2656.25000
 1695.70000    6.00000    6.22110   15.47520    6.07280    2.72050    1.09040    4.55370    0.03110 2656.25000
 1695.75000    6.00000    6.21560   15.27520    5.76550    2.71840    1.05790    4.54800    0.03230 2656.25000
 1695.80000    6.00000    6.21010   15.07530    5.45830    2.71580    1.02540    4.54230    0.03340 2656.25000
 1695.85000    6.00000    6.20470   14.87540    5.27230    2.71320    0.99290    4.54910    0.03460 2656.25000
 1695.90000    6.00000    6.19920   14.67550    5.48200    2.71060    0.96050    4.58290    0.03760 2656.25000
 1695.95000    6.00000    6.19370   14.47560    5.69180    2.70790    0.92800    4.61670    0.04120 2656.25000
 1696.00000    6.00000    6.18820   14.37710    5.90160    2.70590    0.89550    4.65050    0.04480 2656.25000
 1696.05000    6.00000    6.18950   14.29420    6.11140    2.70380    0.88810    4.68430    0.04790 2657.28550
 1696.10000    6.00000    6.19170   14.21140    6.32120    2.70170    0.94500    4.71810    0.05060 2662.26560
 1696.15000    6.00000    6.19390   14.12850    6.46610    2.69970    1.00200    4.75290    0.05340 2667.24580
 1696.20000    6.00000    6.19620   14.04570    6.25200    2.69760    1.05890    4.79480    0.05610 2672.22590
 1696.25000    6.00000    6.19840   13.79820    6.03780    2.69450    1.11590    4.83670    0.05880 2677.20610
 1696.30000    6.00000    6.20060   13.50820    5.82370    2.69120    1.17280    4.87870    0.05980 2682.18620
 1696.35000    6.00000    6.20280   13.21820    5.60950    2.68800    1.29320    4.92060    0.05910 2687.16640
 1696.40000    6.00000    6.20510   12.89220    5.30200    2.68220    1.43530    4.94960    0.05830 2692.14650
 1696.45000    6.00000    6.20730   12.39180    4.70960    2.67480    1.57730    4.96030    0.05750 2697.12670
 1696.50000    6.00000    6.20950   11.89140    4.11730    2.66620    1.72790    4.97100    0.05670 2702.10680
 1696.55000    6.00000    6.20840   11.39100    3.52500    2.65660    1.94100    4.98170    0.05590 2707.08700
