~Version ---------------------------------------------------
VERS.   2.0 : CWLS log ASCII Standard -VERSION 2.0
WRAP.    NO : One line per depth step
DLM . SPACE : Column Data Section Delimiter
~Well ------------------------------------------------------
STRT.m 1682.00000 : START DEPTH
STOP.m 1742.00000 : STOP DEPTH
STEP.m    0.05000 : STEP
NULL.    -9999.25 : NULL VALUE
COMP.     Unknown : COMPANY
WELL.     Unknown : WELL
FLD .     Unknown : FIELD
LOC .             : LOCATION
PROV.             : PROVINCE
CNTY.             : COUNTY
STAT.             : STATE
CTRY.     Unknown : COUNTRY
SRVC.             : SERVICE COMPANY
DATE.     Unknown : DATE
UWI .     Unknown : UNIQUE WELL ID
API .             : API NUMBER
~Curve Information -----------------------------------------
DEPT            .m            : depths
Bit Size        .inches       : digitalized and interpolated data
Caliper         .inches       : digitalized and interpolated data
GammaKUT        .api          : digitalized and interpolated data
GammaKT         .api          : digitalized and interpolated data
Density         .gram per cc  : digitalized and interpolated data
Neutron Porosity.pu           : digitalized and interpolated data
Pe              .unknown      : digitalized and interpolated data
DensityCorr     .gm per cc    : digitalized and interpolated data
Tension         .pounds       : digitalized and interpolated data
~Params ----------------------------------------------------
~Other -----------------------------------------------------
~ASCII -----------------------------------------------------
# ...
 1707.55000    6.00000    6.03070   13.72670    4.77040    2.57240   14.04180    3.50010    0.03320 2768.99730
 1707.60000    6.00000    6.02560   13.55100    4.52880    2.57180   14.06580    3.48760    0.03380 2771.80290
 1707.65000    6.00000    6.02050   13.37520    4.28710    2.57120   14.08980    3.47500    0.03440 2774.60840
 1707.70000    6.00000    6.01540   13.19940    4.04540    2.57060   14.12680    3.46240    0.03500 2777.41400
 1707.75000    6.00000    6.01030   13.23360    3.80380    2.56990   14.24200    3.44980    0.03570 2780.21950
 1707.80000    6.00000    6.00520   13.34310    3.56210    2.56930   14.35720    3.44120    0.03630 2783.02510
 1707.85000    6.00000    6.00010   13.45250    3.32040    2.56870   14.47240    3.43840    0.03690 2785.83060
 1707.90000    6.00000    5.99500   13.56190    3.07880    2.56690   14.58760    3.43560    0.03740 2785.72980
 1707.95000    6.00000    5.98990   13.67140    3.28330    2.56420   14.70270    3.43270    0.03800 2776.51450
 1708.00000    6.00000    5.98730   13.78080    3.71730    2.56150   14.81790    3.42990    0.03860 2767.29920
 1708.05000    6.00000    5.99060   13.89020    4.15130    2.55880   14.90400    3.42710    0.03920 2758.08380
 1708.10000    6.00000    5.99390   13.99970    4.58530    2.55640   14.98080    3.42420    0.03970 2748.86850
 1708.15000    6.00000    5.99720   14.07130    5.02480    2.55400   15.05760    3.42140    0.04030 2739.65320
 1708.20000    6.00000    6.00040   14.12930    5.48360    2.55160   15.13440    3.42020    0.04090 2730.43780
 1708.25000    6.00000    6.00370   14.18730    5.94230    2.54920   15.21120    3.42040    0.04140 2721.22250
 1708.30000    6.00000    6.00700   14.24530    6.40110    2.55020   15.28800    3.42060    0.04200 2712.00720
 1708.35000    6.00000    6.01030   14.30330    6.85980    2.55160   15.36480    3.42080    0.04260 2702.79190
 1708.40000    6.00000    6.01360   14.36130    7.31860    2.55310   15.43490    3.42100    0.04310 2693.57650
 1708.45000    6.00000    6.01410   14.35590    7.51460    2.55450   15.48280    3.42120    0.04370 2702.35220
 1708.50000    6.00000    6.01410   14.32300    7.67420    2.55590   15.53060    3.42140    0.04490 2714.30160
 1708.55000    6.00000    6.01410   14.29010    7.83370    2.55710   15.57850    3.41580    0.04640 2726.25110
 1708.60000    6.00000    6.01410   14.25720    7.99330    2.55700   15.62630    3.39870    0.04800 2738.20050
 1708.65000    6.00000    6.01410   14.22430    8.15290    2.55680   15.68170    3.38160    0.04950 2750.14990
 1708.70000    6.00000    6.01350   14.10480    8.21690    2.55660   15.79740    3.36450    0.05100 2762.09940
 1708.75000    6.00000    6.01200   13.84150    7.82100    2.55640   15.91310    3.34740    0.05250 2774.04880
 1708.80000    6.00000    6.01050   13.57820    7.42510    2.55450   16.02890    3.33030    0.05400 2785.99830
 1708.85000    6.00000    6.00910   13.31500    7.02920    2.55220   16.14460    3.31560    0.05510 2797.94770
 1708.90000    6.00000    6.00760   13.05170    6.63340    2.54990   16.32120    3.31580    0.05610 2809.89720
 1708.95000    6.00000    6.00620   12.79370    6.23750    2.54760   16.50660    3.31600    0.05710 2808.59020
 1709.00000    6.00000    6.00770   12.62650    5.84160    2.54520   16.69210    3.31620    0.05810 2803.59160
 1709.05000    6.00000    6.01240   12.45930    5.44580    2.54290   17.01020    3.31640    0.05910 2798.59290
 1709.10000    6.00000    6.01710   12.29210    5.00160    2.54060   17.36830    3.31660    0.06010 2793.59430
 1709.15000    6.00000    6.02180   12.12490    4.52010    2.53940   17.45540    3.31680    0.06110 2788.59570
 1709.20000    6.00000    6.02650   11.95770    4.03860    2.53960   17.54240    3.31700    0.06170 2783.59700
 1709.25000    6.00000    6.03110   11.79050    3.55710    2.53970   17.62950    3.31760    0.06210 2778.59840
 1709.30000    6.00000    6.03410   11.62330    3.32190    2.53990   17.71660    3.32210    0.06260 2773.59980
 1709.35000    6.00000    6.03700   11.45600    3.27750    2.54010   17.80370    3.32650    0.06300 2768.60110
 1709.40000    6.00000    6.03990   11.44330    3.23310    2.54030   17.85630    3.33100    0.06350 2763.60250
 1709.45000    6.00000    6.04270   11.50430    3.18870    2.54040   17.88400    3.33550    0.06380 2758.60390
 1709.50000    6.00000    6.04560   11.56540    3.14430    2.54060   17.91160    3.33990    0.06350 2753.60530
 1709.55000    6.00000    6.04850   11.62640    3.09990    2.54080   17.93930    3.34440    0.06320 2748.60660
 1709.60000    6.00000    6.04550   11.68750    3.05550    2.54100   17.96700    3.34890    0.06290 2743.60800
 1709.65000    6.00000    6.04190   11.74850    3.01110    2.54120   17.99460    3.35340    0.06260 2738.60940
 1709.70000    6.00000    6.03830   11.80960    3.12250    2.54140   18.02230    3.34930    0.06230 2733.61070
 1709.75000    6.00000    6.03480   11.87060    3.30850    2.54160   18.04990    3.34230    0.06200 2730.83430
 1709.80000    6.00000    6.03160   11.94590    3.49450    2.54140   18.07760    3.33540    0.06220 2731.71980
 1709.85000    6.00000    6.03400   12.20360    3.68050    2.54120   18.01330    3.32840    0.06240 2732.60530
 1709.90000    6.00000    6.03640   12.46140    3.86660    2.54100   17.93840    3.32150    0.06260 2733.49080
 1709.95000    6.00000    6.03880   12.61350    4.05260    2.54090   17.86350    3.31520    0.06280 2734.37630
 1710.00000    6.00000    6.04120   12.57330    4.24820    2.54040   17.78860    3.30910    0.06300 2735.26180
 1710.05000    6.00000    6.04360   12.53310    4.54480    2.53900   17.71380    3.30300    0.06320 2736.14720
 1710.10000    6.00000    6.04600   12.49300    4.84130    2.53760   17.63890    3.29690    0.06340 2737.03270
 1710.15000    6.00000    6.04840   12.45280    5.13790    2.53610   17.52160    3.29080    0.06360 2737.91820
 1710.20000    6.00000    6.04880   12.41260    5.43440    2.53550   17.37630    3.28590    0.06420 2738.80370
 1710.25000    6.00000    6.04880   12.37240    5.73100    2.53770   17.23100    3.29650    0.06550 2739.68920
 1710.30000    6.00000    6.04880   12.41930    6.02750    2.53990   17.08570    3.30700    0.06680 2740.57460
 1710.35000    6.00000    6.04880   12.60760    6.32410    2.54210   16.93580    3.31760    0.06690 2741.46010
 1710.40000    6.00000    6.04880   12.79600    6.61490    2.54430   16.69080    3.32810    0.06660 2746.34310
 1710.45000    6.00000    6.04880   12.98440    6.89730    2.54810   16.44590    3.33870    0.06620 2757.22520
 1710.50000    6.00000    6.04880   13.17280    7.17970    2.55310   16.20090    3.34930    0.06580 2768.10730
 1710.55000    6.00000    6.04520   13.36110    7.46220    2.55790   15.96520    3.35980    0.06550 2778.98950
 1710.60000    6.00000    6.03990   13.54950    7.71340    2.56230   15.73540    3.37040    0.06510 2789.87160
 1710.65000    6.00000    6.03460   13.78310    7.55340    2.56660   15.50560    3.38100    0.06470 2800.75370
 1710.70000    6.00000    6.02980   14.11450    7.39340    2.56920   15.29170    3.39370    0.06420 2811.63590
 1710.75000    6.00000    6.02600   14.44590    7.23340    2.57190   15.08650    3.40800    0.06330 2822.51800
 1710.80000    6.00000    6.02210   14.77740    7.07340    2.57460   14.88130    3.42220    0.06230 2833.40010
 1710.85000    6.00000    6.01820   15.10880    6.84560    2.57640   14.73780    3.43640    0.06140 2844.28230
 1710.90000    6.00000    6.01440   15.41990    6.58780    2.57800   14.60720    3.44650    0.06050 2855.16440
 1710.95000    6.00000    6.01050   15.71520    6.33010    2.57960   14.47660    3.43290    0.05950 2866.04650
 1711.00000    6.00000    6.00660   16.01050    6.07230    2.58120   14.34600    3.41940    0.05860 2876.92860
 1711.05000    6.00000    6.00500   16.30580    5.82600    2.58270   14.26670    3.40580    0.05760 2887.81080
 1711.10000    6.00000    6.00730   16.55320    5.72400    2.58450   14.19980    3.39230    0.05690 2898.69290
 1711.15000    6.00000    6.00960   16.73170    5.62200    2.58750   14.13290    3.37870    0.05730 2897.16270
