~Version ---------------------------------------------------
VERS.   2.0 : CWLS log ASCII Standard -VERSION 2.0
WRAP.    NO : One line per depth step
DLM . SPACE : Column Data Section Delimiter
~Well ------------------------------------------------------
STRT.m            1285.0 : START DEPTH
STOP.m            1340.0 : STOP DEPTH
STEP.m           0.05000 : STEP
NULL.           -9999.25 : NULL VALUE
COMP.               TPAO : COMPANY
WELL.     BATIRAMAN #241 : WELL
FLD .          BATIRAMAN : FIELD
LOC .                    : LOCATION
PROV.                    : PROVINCE
CNTY.                    : COUNTY
STAT.                    : STATE
CTRY.             TURKEY : COUNTRY
SRVC.                    : SERVICE COMPANY
DATE. 02-Aug-09 16:36:59 : DATE
UWI .                241 : UNIQUE WELL ID
API .                    : API NUMBER
~Curve Information -----------------------------------------
DEPT   .m          : depths
Caliper.inches     : Caliper, digitalized and interpolated data
GR     .api        : Gamma-Ray, digitalized and interpolated data
GRS    .api        : Gamma-Ray Spectral, digitalized and interpolated data
DT     .mu-sec/ft  : Sonic log, digitalized and interpolated data
Pe     .           : PhotoElectric Effect, digitalized and interpolated data
NEU    .decp       : Neutron log, digitalized and interpolated data
RHOB   .gram/cc    : Density log, digitalized and interpolated data
DenCorr.gram/cc    : Density correction log, digitalized and interpolated data
~Params ----------------------------------------------------
~Other -----------------------------------------------------
~ASCII -----------------------------------------------------
# ...
 1329.00000    8.44760   51.03700    9.58740   62.29000    4.75530    0.07910    2.54850    0.01420
 1329.05000    8.44760   50.44810    9.46720   63.07510    4.73760    0.09680    2.52570    0.01420
 1329.10000    8.44760   43.65930    9.23150   62.78660    4.71980    0.09840    2.51960    0.01420
 1329.15000    8.44760   39.34070    8.99260   62.98290    4.71830    0.10000    2.51360    0.01330
 1329.20000    8.44760   40.62220    8.75360   63.17920    4.71830    0.10160    2.50750    0.01240
 1329.25000    8.44760   37.66670    8.51460   63.37550    4.71830    0.10280    2.50130    0.01160
 1329.30000    8.44760   36.48890    8.27570   63.49590    4.71830    0.10330    2.49430    0.01080
 1329.35000    8.44760   35.14810    8.04190   63.59410    4.71830    0.10390    2.48680    0.01200
 1329.40000    8.44760   33.18520    7.92170   63.69220    4.71830    0.10440    2.49410    0.01320
 1329.45000    8.44760   33.20740    7.80150   63.79030    4.72710    0.10490    2.49300    0.01440
 1329.50000    8.44760   32.81480    7.68130   63.88850    4.73600    0.10550    2.49570    0.01560
 1329.55000    8.44760   32.42220    7.56110   63.98660    4.74500    0.10600    2.49840    0.01680
 1329.60000    8.44760   32.02960    7.44090   64.08480    4.75390    0.10650    2.50110    0.01460
 1329.65000    8.44760   32.06670    7.33440   64.16360    4.76280    0.10770    2.49090    0.01640
 1329.70000    8.44760   32.45930    7.33300   64.16360    4.77170    0.10980    2.48570    0.01810
 1329.75000    8.44760   32.85190    7.33150   64.16360    4.78070    0.11190    2.48050    0.01990
 1329.80000    8.43860   33.24440    7.33010   64.16360    4.78940    0.11400    2.47530    0.02140
 1329.85000    8.42690   33.63700    7.32870   64.11000    4.79650    0.12320    2.46400    0.02200
 1329.90000    8.41510   34.02960    7.32730   63.97920    4.80370    0.12160    2.46220    0.02260
 1329.95000    8.40340   34.24810    7.34800   63.84830    4.81080    0.11990    2.46200    0.02320
 1330.00000    8.39160   34.44440    7.46530   63.71750    4.81800    0.11830    2.46650    0.02380
 1330.05000    8.37990   34.64070    7.58270   63.58660    4.82510    0.11650    2.47100    0.02440
 1330.10000    8.37050   34.85930    7.70010   63.45580    4.83220    0.11430    2.47550    0.02600
 1330.15000    8.36170   35.25190    7.81750   61.41860    4.83940    0.11220    2.46960    0.02960
 1330.20000    8.35290   35.64440    7.93480   61.22230    4.84650    0.11000    2.47510    0.03320
 1330.25000    8.34410   36.03700    8.02170   61.27140    4.85360    0.10840    2.48050    0.03680
 1330.30000    8.33520   36.69630    8.02030   61.36950    4.85920    0.10730    2.48600    0.03890
 1330.35000    8.32640   37.87410    8.01890   61.46770    4.85920    0.10630    2.48660    0.03890
 1330.40000    8.31760   38.51850    8.01750   61.57470    4.85920    0.10520    2.49770    0.03890
 1330.45000    8.30880   38.51850    8.01600   61.86910    4.85920    0.10470    2.51090    0.03890
 1330.50000    8.32310   38.51850    8.01460   62.16360    4.85920    0.10470    2.52600    0.03810
 1330.55000    8.34070   38.51850    8.01320   62.45800    4.85920    0.10470    2.52380    0.03630
 1330.60000    8.35830   38.65190    8.01180   62.70190    4.85920    0.10470    2.53490    0.03460
 1330.65000    8.37590   38.84810    8.04180   62.80000    4.85920    0.10540    2.54330    0.03280
 1330.70000    8.37760   39.04440    8.12940   62.89810    4.85920    0.10650    2.55070    0.03070
 1330.75000    8.37760   39.24070    8.21710   62.99630    4.85920    0.10720    2.54790    0.02800
 1330.80000    8.37760   38.90370    8.30480   62.86390    4.85920    0.10770    2.55160    0.02540
 1330.85000    8.37760   38.51110    8.39250   62.47140    4.85920    0.10820    2.55520    0.02280
 1330.90000    8.37760   38.11850    8.48010   62.34250    4.85920    0.10880    2.55880    0.02150
 1330.95000    8.37760   37.77780    8.56780   62.40790    4.85920    0.10860    2.55480    0.02150
 1331.00000    8.37760   37.77780    8.65550   62.47340    4.85920    0.10800    2.54960    0.02150
 1331.05000    8.37760   37.97040    8.75640   62.53880    4.85920    0.10750    2.53060    0.02150
 1331.10000    8.37760   38.75560    8.87380   62.60420    4.85180    0.10700    2.52540    0.02250
 1331.15000    8.37760   39.54070    8.99120   62.66960    4.83400    0.10720    2.51430    0.02420
 1331.20000    8.36610   40.32590    9.10850   62.50110    4.81620    0.10780    2.51520    0.02600
 1331.25000    8.35430   40.18520    9.22590   62.30480    4.79850    0.10830    2.51610    0.02780
 1331.30000    8.34260   42.14810    9.34330   61.71600    4.79680    0.10880    2.51700    0.02850
 1331.35000    8.33080   43.65190    9.52220   61.14800    4.81470    0.10950    2.51220    0.02850
 1331.40000    8.31910   44.82960    9.75830   60.75540    4.83250    0.11020    2.51950    0.02850
 1331.45000    8.30770   46.94070    9.99450   60.48770    4.85040    0.11090    2.51860    0.02850
 1331.50000    8.30770   47.33330   10.23060   60.68400    4.85920    0.11160    2.51590    0.02680
 1331.55000    8.30770   47.72590   10.46680   60.88030    4.85920    0.11230    2.51330    0.02420
 1331.60000    8.30770   48.11850   10.70290   61.07660    4.85280    0.11300    2.51070    0.02160
 1331.65000    8.30880   47.42220   10.93910   64.66320    4.84100    0.11360    2.49690    0.01890
 1331.70000    8.32640   46.65930   11.17520   65.84090    4.82910    0.11410    2.49340    0.01630
 1331.75000    8.34410   46.46300   11.41140   66.81040    4.81730    0.11470    2.47140    0.01370
 1331.80000    8.36170   46.26670   11.64750   67.59550    4.80540    0.11520    2.46620    0.01110
 1331.85000    8.37760   46.07040   11.88370   68.38070    4.79360    0.11340    2.47110    0.00850
 1331.90000    8.37760   45.82220   12.11980   69.16580    4.78170    0.11130    2.48030    0.00640
 1331.95000    8.37760   45.42960   12.27760   69.65950    4.76990    0.10910    2.48950    0.00470
 1332.00000    8.37760   45.03700   12.39490   70.05200    4.75800    0.10690    2.49870    0.00350
 1332.05000    8.37760   44.64440   12.51230   69.44540    4.74620    0.10480    2.48610    0.00270
 1332.10000    8.37760   44.05930   12.62970   68.66020    4.73430    0.10260    2.49530    0.00180
 1332.15000    8.37760   43.27410   12.74700   67.50040    4.72250    0.10160    2.50450    0.00090
 1332.20000    8.37760   42.72590   12.86440   66.32270    4.70910    0.10050    2.51380    0.00320
 1332.25000    8.37760   42.33330   12.89490   65.14500    4.69490    0.09940    2.51120    0.00680
 1332.30000    8.37760   41.94070   12.89350   64.06540    4.68060    0.09850    2.50860    0.00770
 1332.35000    8.37760   41.54810   12.89210   63.47660    4.66640    0.09900    2.50600    0.00770
 1332.40000    8.37760   41.64440   12.89070   63.10190    4.65220    0.09950    2.50330    0.00770
 1332.45000    8.37090   41.84070   12.88930   63.29810    4.63800    0.10010    2.49290    0.00770
 1332.50000    8.33570   42.03700   12.88790   63.49440    4.62380    0.10060    2.48940    0.00700
 1332.55000    8.30040   42.20000   12.74350   63.69070    4.60960    0.10110    2.47400    0.00610
 1332.60000    8.26520   41.80740   12.56390   63.88700    4.59540    0.10160    2.46880    0.00520
 1332.65000    8.22210   41.41480   12.38440   64.08330    4.58120    0.10220    2.46200    0.00440
 1332.70000    8.15160   41.02220   12.20480   64.27960    4.59870    0.10280    2.45510    0.00420
 1332.75000    8.11470   40.51850   12.02520   64.47580    4.62740    0.10410    2.43740    0.00420
 1332.80000    8.18520   39.73330   11.84560   64.67210    4.65600    0.10550    2.43390    0.00420
 1332.85000    8.24220   37.31110   11.66600   64.86840    4.68470    0.10680    2.43620    0.00430
 1332.90000    8.25990   36.13330   11.48650   65.37990    4.71340    0.10810    2.43980    0.00750
 1332.95000    8.27750   35.35560   11.25360   65.96880    4.74200    0.10940    2.44340    0.01110
