~Version ---------------------------------------------------
VERS.   2.0 : CWLS log ASCII Standard -VERSION 2.0
WRAP.    NO : One line per depth step
DLM . SPACE : Column Data Section Delimiter
~Well ------------------------------------------------------
STRT.m 1682.00000 : START DEPTH
STOP.m 1742.00000 : STOP DEPTH
STEP.m    0.05000 : STEP
NULL.    -9999.25 : NULL VALUE
COMP.     Unknown : COMPANY
WELL.     Unknown : WELL
FLD .     Unknown : FIELD
LOC .             : LOCATION
PROV.             : PROVINCE
CNTY.             : COUNTY
STAT.             : STATE
CTRY.     Unknown : COUNTRY
SRVC.             : SERVICE COMPANY
DATE.     Unknown : DATE
UWI .     Unknown : UNIQUE WELL ID
API .             : API NUMBER
~Curve Information -----------------------------------------
DEPT    .m           : depths
Gamma   .api         : digitalized and interpolated data
SP      .millivolts  : digitalized and interpolated data
Caliper .inches      : digitalized and interpolated data
Bit Size.inches      : digitalized and interpolated data
Tens    .pounds      : digitalized and interpolated data
MSFL    .Ohm-m       : digitalized and interpolated data
LLD     .Ohm-m       : digitalized and interpolated data
LLS     .Ohm-m       : digitalized and interpolated data
~Params ----------------------------------------------------
~Other -----------------------------------------------------
~ASCII -----------------------------------------------------
# ...
 1722.00000    8.17120   39.93650    6.04960    5.93580 3481.02920  103.42182  181.30467  203.11453
 1722.05000    7.68850   39.69120    6.07310    5.91860 3496.14770  111.08126  189.55559  228.53830
 1722.10000    7.61360   39.41210    6.05360    5.91890 3505.15940  117.60148  195.23874  230.76375
 1722.15000    7.61360   39.13300    6.03410    5.91920 3502.78750  148.56695  203.32679  217.46762
 1722.20000    7.61360   38.81170    6.01690    5.91940 3500.41560  159.62628  220.34053  279.29399
 1722.25000    7.68550   38.47920    6.00570    5.91940 3499.25160  172.89801  234.21764  261.37653
 1722.30000    7.79610   38.12590    5.99380    5.91940 3499.89670  184.90796  249.40916  288.39730
 1722.35000    7.90660   37.66170    5.96060    5.93500 3501.08840  194.45450  260.71162  280.16353
 1722.40000    8.06310   37.19760    5.92740    5.96830 3504.95500  201.91380  273.58129  308.00332
 1722.45000    8.47300   36.97400    5.89950    5.93290 3508.82160  189.86530  288.68990  302.50642
 1722.50000    8.85020   36.81340    5.87360    5.94610 3505.82470  176.42080  301.35222  319.58000
 1722.55000    9.11900   36.65270    5.84770    5.97830 3492.86630  168.94844  315.29392  337.61163
 1722.60000    9.38780   36.47590    5.82290    5.92400 3479.90800  160.73024  323.50485  342.37922
 1722.65000    9.39570   36.21800    5.81710    5.95730 3466.94970  151.26763  328.15392  347.21397
 1722.70000    9.37070   35.96010    5.81130    5.95540 3457.80380  140.84408  331.53898  352.11700
 1722.75000    9.34580   35.65970    5.80550    5.91840 3452.72370  135.00666  334.95896  323.56534
 1722.80000    9.33250   35.22280    5.79970    5.91630 3447.64360  131.46253  338.29969  318.59826
 1722.85000    9.49020   34.78590    5.80420    5.95750 3442.56350  129.02296  321.03516  341.78059
 1722.90000    9.64790   34.33910    5.80970    5.99290 3443.11560  127.38298  307.52951  327.16331
 1722.95000    9.80560   33.85900    5.81520    5.98320 3454.59680  125.76390  294.12720  309.33980
 1723.00000    9.37050   33.37890    5.81630    5.92190 3466.07790  125.17154  282.61942  284.84408
 1723.05000    9.28550   32.70970    5.81010    5.95500 3478.41740  124.75943  273.59780  273.90729
 1723.10000    9.20050   31.06870    5.80400    5.98800 3505.24140  124.34863  265.54088  262.09528
 1723.15000    8.37770   30.80900    5.80220    5.93060 3532.06530  123.93917  256.91011  247.55369
 1723.20000    8.02870   30.66810    5.80240    5.97390 3544.98970  127.18058  245.25236  248.51694
 1723.25000    7.67960   30.52730    5.80230    5.94490 3551.28360  128.89605  238.25839  254.26700
 1723.30000    7.32350   30.08020    5.79910    5.93320 3556.99240  130.71553  243.03655  248.03125
 1723.35000    6.96430   29.22330    5.79590    5.95640 3552.04330  132.93459  244.01482  241.09455
 1723.40000    6.60520   28.71830    5.79460    5.96440 3547.09420  135.19132  239.27008  245.00740
 1723.45000    6.66880   28.21340    5.79480    5.91940 3539.91130  132.22141  243.42142  248.98375
 1723.50000    6.76090   27.67610    5.79500    5.91940 3529.39830  130.10386  247.64490  267.16047
 1723.55000    6.85300   27.05240    5.79220    5.91940 3518.88520  132.88630  255.01105  278.84573
 1723.60000    6.95830   26.42880    5.78910    5.91940 3514.37490  135.69498  264.57036  287.01738
 1723.65000    7.23290   25.80280    5.78630    5.91940 3511.93300  137.10554  275.26779  309.64209
 1723.70000    7.50750   25.17550    5.78410    5.94780 3509.49100  137.22315  281.54122  310.49427
 1723.75000    7.96810   24.55350    5.78190    5.96370 3504.40200  126.69865  300.08162  334.36129
 1723.80000    8.60790   24.05600    5.77980    5.92000 3493.50060  117.84338  312.92121  363.52744
 1723.85000    9.07510   23.55840    5.77830    5.88900 3482.59920  110.96280  331.80979  357.06756
 1723.90000    9.53180   23.06090    5.77710    5.99490 3471.69780  108.39189  353.33674  403.82853
 1723.95000    9.85160   22.56330    5.77600    5.98630 3461.54500  106.55843  374.22362  421.12905
 1724.00000   10.10850   22.06580    5.77850    5.96630 3458.65330  104.68445  388.93264  457.82172
 1724.05000   10.80240   21.48400    5.78400    5.93360 3455.76160  102.18689  406.82646  471.78877
 1724.10000   11.12180   20.81570    5.78960    5.96350 3452.86990   92.62559  424.93548  508.07496
 1724.15000   11.10230   20.32950    5.79250    5.93530 3449.97820   89.19699  447.25581  560.16374
 1724.20000   11.08280   20.05150    5.78630    5.93800 3446.55400   96.39919  502.41939  585.16615
 1724.25000   11.17770   19.76570    5.78010    5.96050 3443.07140  103.87260  523.53967  620.14264
 1724.30000   11.30110   19.32930    5.77430    5.98300 3439.58880  108.25152  546.56699  613.12270
 1724.35000   11.59620   18.89280    5.76880    5.96270 3437.38120  110.74155  575.82935  648.88479
 1724.40000   12.41560   18.45650    5.76720    6.00430 3438.02630  116.93750  612.29230  731.73528
 1724.45000   13.77960   18.04060    5.76550    6.00220 3438.67150  130.07780  642.19777  733.22117
 1724.50000   15.50160   17.62470    5.76390    6.00020 3439.31670  161.77179  674.09793  755.10891
 1724.55000   17.06510   17.31410    5.76210    5.99810 3439.96180  178.69977  706.87561  803.06518
 1724.60000   18.75340   17.12700    5.75900    5.99600 3440.60700  189.68002  735.52899  859.40009
 1724.65000   19.62030   16.94000    5.75580    5.91980 3432.82200  199.31702  764.35163  867.95217
 1724.70000   20.02400   16.64320    5.75260    5.92020 3427.86550  208.70747  802.18622  917.68069
 1724.75000   20.42850   15.69900    5.75720    5.92060 3431.40480  219.39827  841.87070  953.85683
 1724.80000   20.83510   14.77560    5.77110    5.91940 3434.94410  231.97917  881.12677  991.45908
 1724.85000   21.00880   14.33800    5.77100    5.91810 3434.82090  238.75034  911.30677  981.45004
 1724.90000   21.03100   13.90040    5.76670    5.99550 3427.81800  240.94826  935.54912  997.51032
 1724.95000   21.05320   13.46280    5.76250    5.99420 3420.81500  226.79924  957.38363 1014.70873
 1725.00000   21.07530   12.90430    5.76080    5.99300 3416.53600  215.45362  976.49269 1032.20319
 1725.05000   21.12180   12.28370    5.76010    5.94250 3418.58890  192.73483  994.42079 1049.99975
 1725.10000   21.17190   11.66820    5.75940    5.91560 3420.64190  183.70145 1012.67758  964.80245
 1725.15000   20.83390   11.09090    5.75870    5.90300 3422.69480  179.75170  980.89472  962.37071
 1725.20000   20.28890   10.51370    5.73480    5.99610 3433.10660  192.53718  956.64057  823.75980
 1725.25000   19.71650   10.03790    5.71820    5.99610 3445.74210  185.94658  924.82805  870.79073
 1725.30000   19.02060    9.61120    5.72390    5.98030 3458.37760  195.86967  869.11210  700.90506
 1725.35000   18.06730    9.18450    5.72960    5.94570 3471.01320  211.93193  814.98684  608.05686
 1725.40000   16.56080    8.75780    5.77750    5.94450 3482.25430  234.10064  715.45710  524.45327
 1725.45000   15.46110    8.26970    5.76930    5.97190 3493.49200  250.25813  618.53631  558.20612
 1725.50000   14.59250    7.65240    5.75900    5.94600 3504.72960  215.91837  553.49384  485.72113
 1725.55000   14.03270    7.02720    5.74000    5.92000 3512.17650  190.04997  473.94964  393.45711
 1725.60000   13.61200    6.39030    5.72100    5.95960 3512.82160  155.73829  417.26369  409.41221
 1725.65000   13.44440    5.75340    5.74190    5.92780 3513.46680  134.43681  377.77690  326.91677
 1725.70000   13.68250    5.49140    5.77710    5.94090 3513.77880  119.73320  332.04749  307.85045
 1725.75000   13.92060    5.29060    5.77270    5.97010 3486.32420  107.92280  301.21042  307.13902
 1725.80000   14.75370    5.08990    5.74110    6.00350 3476.72940   98.77763  279.19742  272.58992
 1725.85000   15.74860    4.89040    5.72540    6.01010 3490.92590   94.19412  262.87930  254.91712
 1725.90000   16.79750    4.69440    5.73850    6.00600 3505.12240   91.46240  247.52621  237.22781
 1725.95000   17.99760    4.49850    5.75170    6.00180 3497.21430   89.41364  233.34419  228.73593
