~Version ---------------------------------------------------
VERS.   2.0 : CWLS log ASCII Standard -VERSION 2.0
WRAP.    NO : One line per depth step
DLM . SPACE : Column Data Section Delimiter
~Well ------------------------------------------------------
STRT.m 1682.00000 : START DEPTH
STOP.m 1742.00000 : STOP DEPTH
STEP.m    0.05000 : STEP
NULL.    -9999.25 : NULL VALUE
COMP.     Unknown : COMPANY
WELL.     Unknown : WELL
FLD .     Unknown : FIELD
LOC .             : LOCATION
PROV.             : PROVINCE
CNTY.             : COUNTY
STAT.             : STATE
CTRY.     Unknown : COUNTRY
SRVC.             : SERVICE COMPANY
DATE.     Unknown : DATE
UWI .     Unknown : UNIQUE WELL ID
API .             : API NUMBER
~Curve Information -----------------------------------------
DEPT            .m            : depths
Bit Size        .inches       : digitalized and interpolated data
Caliper         .inches       : digitalized and interpolated data
GammaKUT        .api          : digitalized and interpolated data
GammaKT         .api          : digitalized and interpolated data
Density         .gram per cc  : digitalized and interpolated data
Neutron Porosity.pu           : digitalized and interpolated data
Pe              .unknown      : digitalized and interpolated data
DensityCorr     .gm per cc    : digitalized and interpolated data
Tension         .pounds       : digitalized and interpolated data
~Params ----------------------------------------------------
~Other -----------------------------------------------------
~ASCII -----------------------------------------------------
# ...
 1736.75000    6.00000    6.42960   25.31730    6.07460    2.73430    1.37730    4.42270    0.08050 2728.04880
 1736.80000    6.00000    6.43040   25.29420    5.81200    2.73340    1.35980    4.43430    0.07780 2728.75280
 1736.85000    6.00000    6.43040   25.27110    6.44240    2.73030    1.34420    4.45870    0.07500 2729.45680
 1736.90000    6.00000    6.43040   25.24810    7.12150    2.72700    1.33970    4.48310    0.07230 2730.16080
 1736.95000    6.00000    6.43040   25.34990    7.80050    2.72360    1.33510    4.50760    0.06880 2735.24100
 1737.00000    6.00000    6.43040   25.59680    8.06480    2.72170    1.33060    4.53200    0.06150 2744.38950
 1737.05000    6.00000    6.43040   25.84370    8.25820    2.72040    1.32600    4.55650    0.05630 2753.53810
 1737.10000    6.00000    6.42760   26.09060    8.45150    2.71900    1.32150    4.58090    0.05160 2762.68660
 1737.15000    6.00000    6.42470   26.33750    8.64480    2.71760    1.31690    4.58580    0.04650 2771.83520
 1737.20000    6.00000    6.42180   26.58440    8.83820    2.71630    1.31240    4.58600    0.04110 2780.98370
 1737.25000    6.00000    6.41890   26.82900    9.03150    2.71490    1.29900    4.58620    0.03730 2787.95790
 1737.30000    6.00000    6.41600   27.04700    9.22480    2.71360    1.27490    4.58640    0.03500 2787.95790
 1737.35000    6.00000    6.41310   27.26500    9.20750    2.71400    1.25070    4.58660    0.03270 2787.95790
 1737.40000    6.00000    6.41300   27.48300    9.05420    2.71470    1.22660    4.58820    0.03040 2787.95790
 1737.45000    6.00000    6.41300   27.70100    8.90090    2.71530    1.20240    4.59090    0.02810 2787.95790
 1737.50000    6.00000    6.41300   27.91890    8.74770    2.71600    1.17830    4.59350    0.02580 2787.95790
 1737.55000    6.00000    6.41300   28.10250    8.59440    2.71670    1.15420    4.59610    0.02350 2787.95790
 1737.60000    6.00000    6.41300   28.24490    8.44110    2.71740    1.12370    4.59880    0.02310 2787.95790
 1737.65000    6.00000    6.41510   28.38740    8.28780    2.71800    1.06770    4.60140    0.02420 2787.95790
 1737.70000    6.00000    6.41940   28.52980    8.13460    2.71870    1.01170    4.60410    0.02530 2787.95790
 1737.75000    6.00000    6.42360   28.67230    8.00260    2.71940    0.95570    4.61530    0.02650 2787.95790
 1737.80000    6.00000    6.42790   28.81470    7.94190    2.72270    0.89970    4.64810    0.02760 2787.95790
 1737.85000    6.00000    6.43220   28.57610    7.88130    2.72600    0.87530    4.68080    0.02870 2787.95790
 1737.90000    6.00000    6.43640   28.18940    7.82060    2.72930    0.88160    4.71360    0.03050 2787.95790
 1737.95000    6.00000    6.44070   27.80280    7.76000    2.73330    0.88790    4.74630    0.03420 2787.95790
 1738.00000    6.00000    6.44490   27.42070    7.69930    2.73760    0.89410    4.76930    0.03780 2787.95790
 1738.05000    6.00000    6.44770   27.05270    7.63860    2.74100    0.90040    4.77410    0.03830 2787.95790
 1738.10000    6.00000    6.44770   26.68470    7.57800    2.74250    0.90670    4.77900    0.03830 2787.95790
 1738.15000    6.00000    6.44770   26.31660    7.39670    2.74400    0.91290    4.78380    0.03830 2787.95790
 1738.20000    6.00000    6.44770   25.94860    7.10870    2.74550    0.91920    4.78870    0.03840 2787.95790
 1738.25000    6.00000    6.44770   25.58060    6.82080    2.74460    0.92670    4.79350    0.03840 2787.95790
 1738.30000    6.00000    6.44770   26.04860    6.53280    2.74210    0.94200    4.79840    0.03840 2787.95790
 1738.35000    6.00000    6.44770   26.63230    6.20580    2.73970    0.95740    4.80320    0.03840 2787.95790
 1738.40000    6.00000    6.44770   27.21600    5.77510    2.73720    0.97270    4.80810    0.03840 2787.95790
 1738.45000    6.00000    6.44770   27.94070    5.34430    2.73120    0.98810    4.81290    0.03850 2787.95790
 1738.50000    6.00000    6.44770   28.81070    4.91360    2.72560    1.00340    4.81780    0.03790 2787.95790
 1738.55000    6.00000    6.44770   29.63030    4.48290    2.72180    1.01880    4.82260    0.03720 2787.95790
 1738.60000    6.00000    6.44770   29.84920    4.05220    2.71800    1.03410    4.79000    0.03650 2787.95790
 1738.65000    6.00000    6.44650   30.06810    3.62150    2.71650    1.04950    4.75060    0.03580 2787.95790
 1738.70000    6.00000    6.44280   30.28690    3.26640    2.71710    1.06480    4.71390    0.03510 2787.95790
 1738.75000    6.00000    6.43920   30.44550    3.47330    2.71770    1.07490    4.69330    0.03440 2787.95790
 1738.80000    6.00000    6.43550   29.88120    3.68010    2.71830    1.08500    4.67280    0.03370 2787.95790
 1738.85000    6.00000    6.43190   29.31680    3.88700    2.71890    1.09510    4.65220    0.03300 2787.95790
 1738.90000    6.00000    6.43040   28.83610    4.09390    2.71960    1.10520    4.63160    0.03230 2787.95790
 1738.95000    6.00000    6.43040   28.56570    4.24930    2.72020    1.11530    4.61110    0.03170 2787.95790
 1739.00000    6.00000    6.43040   28.29530    4.32030    2.72060    1.12530    4.59050    0.03120 2787.95790
 1739.05000    6.00000    6.43040   28.02490    4.39130    2.72080    1.13550    4.57000    0.03070 2787.95790
 1739.10000    6.00000    6.43040   27.75450    4.46230    2.72100    1.14730    4.58130    0.03030 2787.95790
 1739.15000    6.00000    6.43000   27.48410    4.53320    2.72120    1.15910    4.60230    0.02980 2787.95790
 1739.20000    6.00000    6.42910   27.21370    4.60420    2.72140    1.17090    4.62330    0.02930 2787.95790
 1739.25000    6.00000    6.42830   27.45490    4.67520    2.71860    1.18280    4.64430    0.02890 2787.95790
 1739.30000    6.00000    6.42740   27.81740    4.74620    2.71520    1.19460    4.66520    0.02840 2787.95790
 1739.35000    6.00000    6.42650   28.17990    4.81710    2.71260    1.20640    4.68620    0.02790 2787.95790
 1739.40000    6.00000    6.42570   28.54240    4.88810    2.71020    1.21820    4.70790    0.02750 2787.95790
 1739.45000    6.00000    6.42480   27.41030    4.95910    2.70780    1.23000    4.73150    0.02700 2787.95790
 1739.50000    6.00000    6.42390   26.28610    5.11190    2.70550    1.24340    4.75510    0.02660 2787.95790
 1739.55000    6.00000    6.42310   25.25500    6.00220    2.70310    1.26540    4.77870    0.02630 2787.95790
 1739.60000    6.00000    6.42220   24.57120    6.89670    2.70230    1.28740    4.80220    0.02610 2787.95790
 1739.65000    6.00000    6.42140   24.27640    7.80450    2.70150    1.30940    4.80920    0.02580 2787.95790
 1739.70000    6.00000    6.42050   23.98150    8.71240    2.70080    1.33140    4.80850    0.02560 2787.95790
 1739.75000    6.00000    6.41950   23.68670    9.48320    2.70010    1.35340    4.80780    0.02530 2787.95790
 1739.80000    6.00000    6.41840   23.39180   10.00200    2.69930    1.37540    4.80720    0.02510 2787.95790
 1739.85000    6.00000    6.41740   23.09700   10.52080    2.69860    1.39740    4.80650    0.02480 2787.95790
 1739.90000    6.00000    6.41630   23.53600   11.03950    2.69780    1.45170    4.80580    0.02460 2787.95790
 1739.95000    6.00000    6.41530   24.12560   11.32320    2.69710    1.50610    4.80520    0.02450 2787.95790
 1740.00000    6.00000    6.41430   24.71520   11.06180    2.69640    1.56060    4.80910    0.02430 2787.95790
 1740.05000    6.00000    6.41320   25.88450   10.80040    2.69560    1.61500    4.81440    0.02410 2790.93250
 1740.10000    6.00000    6.41200   27.63600   10.53900    2.69630    1.66940    4.81960    0.02390 2794.56910
 1740.15000    6.00000    6.41080   28.96170   10.27760    2.69700    1.67850    4.82490    0.02470 2798.20570
 1740.20000    6.00000    6.40950   29.82920   10.01620    2.69770    1.66710    4.82970    0.02580 2801.84230
 1740.25000    6.00000    6.40830   30.56190    9.52410    2.69840    1.65570    4.82990    0.02690 2805.47890
 1740.30000    6.00000    6.40710   31.29450    9.01790    2.69910    1.64430    4.83010    0.02800 2809.11550
 1740.35000    6.00000    6.40580   31.88910    8.51170    2.69980    1.63290    4.83030    0.02910 2812.50000
