~Version ---------------------------------------------------
VERS.   2.0 : CWLS log ASCII Standard -VERSION 2.0
WRAP.    NO : One line per depth step
DLM . SPACE : Column Data Section Delimiter
~Well ------------------------------------------------------
STRT.m            1285.0 : START DEPTH
STOP.m            1340.0 : STOP DEPTH
STEP.m           0.05000 : STEP
NULL.           -9999.25 : NULL VALUE
COMP.               TPAO : COMPANY
WELL.     BATIRAMAN #241 : WELL
FLD .          BATIRAMAN : FIELD
LOC .                    : LOCATION
PROV.                    : PROVINCE
CNTY.                    : COUNTY
STAT.                    : STATE
CTRY.             TURKEY : COUNTRY
SRVC.                    : SERVICE COMPANY
DATE. 02-Aug-09 16:36:59 : DATE
UWI .                241 : UNIQUE WELL ID
API .                    : API NUMBER
~Curve Information -----------------------------------------
DEPT   .m          : depths
Caliper.inches     : Caliper, digitalized and interpolated data
GR     .api        : Gamma-Ray, digitalized and interpolated data
GRS    .api        : Gamma-Ray Spectral, digitalized and interpolated data
DT     .mu-sec/ft  : Sonic log, digitalized and interpolated data
Pe     .           : PhotoElectric Effect, digitalized and interpolated data
NEU    .decp       : Neutron log, digitalized and interpolated data
RHOB   .gram/cc    : Density log, digitalized and interpolated data
DenCorr.gram/cc    : Density correction log, digitalized and interpolated data
~Params ----------------------------------------------------
~Other -----------------------------------------------------
~ASCII -----------------------------------------------------
# ...
 1313.00000    8.51750   57.33330   11.75410   63.21190    4.78870    0.08330    2.51780    0.01550
 1313.05000    8.51750   55.18890   11.66360   62.81930    4.78870    0.08170    2.51910    0.01550
 1313.10000    8.51750   54.60000   11.57310   62.61410    4.78870    0.08010    2.52150    0.01570
 1313.15000    8.51750   54.01110   11.48260   62.51600    4.78870    0.07930    2.52390    0.01650
 1313.20000    8.51750   53.42220   11.39210   62.41780    4.79030    0.07890    2.52630    0.01740
 1313.25000    8.51750   54.00000   11.31750   62.31970    4.80460    0.07850    2.52870    0.01830
 1313.30000    8.51750   54.78520   11.31600   62.13830    4.81890    0.07820    2.53110    0.01920
 1313.35000    8.51750   57.42960   11.31460   61.94200    4.83320    0.07780    2.53610    0.02010
 1313.40000    8.51750   57.80740   11.31320   61.65200    4.84750    0.07750    2.54350    0.02100
 1313.45000    8.51750   58.20000   11.31180   61.35760    4.86180    0.07660    2.55430    0.02190
 1313.50000    8.51610   58.51850   11.31040   61.06320    4.87610    0.07560    2.56740    0.02280
 1313.55000    8.50730   58.51850   11.30900   60.65430    4.89040    0.07490    2.56800    0.02370
 1313.60000    8.49850   58.51850   11.30760   59.67290    4.90470    0.07430    2.57920    0.02460
 1313.65000    8.48970   58.51850   11.30620   59.59550    4.91900    0.07380    2.58580    0.02550
 1313.70000    8.48080   58.68150   11.30480   59.20300    4.92960    0.07330    2.59120    0.02650
 1313.75000    8.47200   59.07410   11.30340   58.81040    4.92960    0.07230    2.59510    0.02770
 1313.80000    8.46320   59.46670   11.30200   58.41780    4.92960    0.07120    2.59870    0.02890
 1313.85000    8.45440   59.85930   11.30060   58.40590    4.92960    0.07190    2.59660    0.03010
 1313.90000    8.44560   60.50370   11.29910   58.79850    4.92960    0.07300    2.59390    0.03130
 1313.95000    8.43680   61.28890   11.29770   59.07510    4.92960    0.07580    2.59130    0.03250
 1314.00000    8.42800   61.18520   11.29630   59.27140    4.92720    0.07890    2.58870    0.03270
 1314.05000    8.41920   60.79260   11.29490   63.45870    4.92010    0.08370    2.56990    0.03180
 1314.10000    8.41030   58.17780   11.29350   64.04760    4.91300    0.08880    2.56470    0.03090
 1314.15000    8.40150   57.78520   11.29210   64.79410    4.90590    0.09400    2.54510    0.03000
 1314.20000    8.39270   57.39260   11.29070   65.57920    4.89880    0.09910    2.53490    0.02870
 1314.25000    8.38390   57.00000   11.28930   65.79930    4.89170    0.10570    2.50560    0.02700
 1314.30000    8.38430   56.60740   11.28790   66.76580    4.88450    0.11280    2.49700    0.02520
 1314.35000    8.40780   56.29630   11.28650   66.76580    4.87740    0.11860    2.48950    0.02350
 1314.40000    8.43130   56.29630   11.28510   67.20890    4.87030    0.12380    2.48260    0.02080
 1314.45000    8.45480   56.29630   11.28370   67.79780    4.86320    0.12710    2.46640    0.01730
 1314.50000    8.47830   56.29630   11.28220   68.66910    4.85150    0.12920    2.46120    0.01520
 1314.55000    8.50180   57.06300   11.28080   68.86540    4.83370    0.13040    2.46160    0.01430
 1314.60000    8.51750   58.82960   11.27940   69.49890    4.81600    0.13110    2.46700    0.01350
 1314.65000    8.51750   60.59630   11.27800   69.89140    4.79820    0.13180    2.47140    0.01260
 1314.70000    8.51750   62.36300   11.27660   70.15460    4.78050    0.13250    2.47500    0.01360
 1314.75000    8.51750   61.85190   11.33860   70.25280    4.76270    0.13330    2.47980    0.01590
 1314.80000    8.51750   65.77780   11.45600   70.35090    4.74490    0.13400    2.48530    0.01830
 1314.85000    8.51750   67.27410   11.57330   70.44910    4.72720    0.13400    2.48190    0.02070
 1314.90000    8.51750   68.05930   11.69070   70.22750    4.71480    0.13360    2.47500    0.02310
 1314.95000    8.51750   73.33330   11.80810   69.83490    4.70760    0.13330    2.44330    0.02550
 1315.00000    8.51750   73.33330   11.92540   68.69890    4.70050    0.13290    2.43470    0.02750
 1315.05000    8.51750   73.33330   11.97100   68.30630    4.69340    0.13260    2.42700    0.02930
 1315.10000    8.50290   73.33330   11.96960   67.99850    4.68630    0.13220    2.42010    0.03100
 1315.15000    8.46770   73.33330   11.96820   67.70410    4.67920    0.12970    2.41940    0.03280
 1315.20000    8.44250   73.33330   11.96680   67.40970    4.67210    0.12640    2.42490    0.03600
 1315.25000    8.43080   73.33330   11.96530   67.47960    4.66490    0.12410    2.43210    0.03960
 1315.30000    8.41900   73.06670   11.96390   67.08700    4.65780    0.12190    2.44720    0.04030
 1315.35000    8.40730   72.28150   11.90230   66.69440    4.65070    0.12070    2.45500    0.04030
 1315.40000    8.39550   70.19260   11.81180   66.30190    4.66230    0.11960    2.47620    0.03880
 1315.45000    8.38380   69.80000   11.72130   65.96580    4.68620    0.11850    2.47900    0.03700
 1315.50000    8.38320   69.74070   11.63080   65.76950    4.71000    0.11740    2.49610    0.03530
 1315.55000    8.39500   69.93700   11.54030   65.57320    4.73390    0.11640    2.50250    0.03350
 1315.60000    8.40670   70.13330   11.44990   65.37700    4.75780    0.11530    2.50790    0.03180
 1315.65000    8.41850   70.32960   11.35940   65.31150    4.78160    0.11420    2.51340    0.03000
 1315.70000    8.43020   74.26670   11.26890   65.37700    4.78870    0.11320    2.51840    0.02980
 1315.75000    8.44200   75.44440   11.06390   65.44240    4.78870    0.11210    2.51610    0.02980
 1315.80000    8.44760   75.55560   10.82500   65.50780    4.78870    0.11110    2.51370    0.02980
 1315.85000    8.44760   75.55560   10.58600   65.57320    4.78870    0.11270    2.51140    0.02990
 1315.90000    8.44760   75.55560   10.34700   65.63870    4.78870    0.11430    2.50910    0.02990
 1315.95000    8.44760   75.50370   10.10810   66.13230    4.78870    0.11590    2.50670    0.02990
 1316.00000    8.44760   75.11110    9.86910   66.72120    4.78870    0.11740    2.50430    0.02990
 1316.05000    8.44760   74.52590    9.83010   68.05350    4.78870    0.11770    2.50080    0.02990
 1316.10000    8.44760   73.34810    9.82870   68.62160    4.78870    0.11810    2.49730    0.02990
 1316.15000    8.44760   72.17040    9.82730   68.52340    4.78870    0.11840    2.49380    0.02990
 1316.20000    8.44760   70.99260    9.82590   68.42530    4.78870    0.11880    2.49030    0.03440
 1316.25000    8.44760   68.70370    9.82450   68.32710    4.78870    0.11920    2.48680    0.03890
 1316.30000    8.44760   65.17040    9.82310   68.15760    4.80890    0.11950    2.48330    0.04340
 1316.35000    8.44760   66.31110    9.71320   67.76510    4.83280    0.11990    2.47980    0.04770
 1316.40000    8.44030   63.17040    9.59300   67.47510    4.85660    0.12020    2.47640    0.05040
 1316.45000    8.42850   58.24440    9.47290   67.37700    4.88050    0.12060    2.47470    0.05310
 1316.50000    8.41680   57.85190    9.35270   67.27880    4.90440    0.12090    2.47290    0.05580
 1316.55000    8.40500   57.45930    9.23250   67.18070    4.92830    0.12130    2.47120    0.05860
 1316.60000    8.39330   57.06670    9.11230   66.80740    4.91620    0.12170    2.46950    0.06220
 1316.65000    8.38150   54.45190    9.02130   66.21860    4.90190    0.12220    2.46910    0.06540
 1316.70000    8.37760   54.05930    8.93080   66.15320    4.88770    0.12270    2.46860    0.06720
 1316.75000    8.37760   53.66670    8.84030   66.34940    4.87350    0.12330    2.46820    0.06790
 1316.80000    8.37760   53.48150    8.74990   66.54570    4.85930    0.12370    2.46780    0.06620
 1316.85000    8.37760   54.46300    8.65940   66.74200    4.84510    0.12370    2.46730    0.06440
 1316.90000    8.37760   55.44440    8.56890   68.02680    4.83090    0.12370    2.46690    0.06270
 1316.95000    8.37760   56.42590    8.47840   68.61560    4.81670    0.12370    2.46650    0.06090
