~Version ---------------------------------------------------
VERS.   2.0 : CWLS log ASCII Standard -VERSION 2.0
WRAP.    NO : One line per depth step
DLM . SPACE : Column Data Section Delimiter
~Well ------------------------------------------------------
STRT.m 1682.00000 : START DEPTH
STOP.m 1742.00000 : STOP DEPTH
STEP.m    0.05000 : STEP
NULL.    -9999.25 : NULL VALUE
COMP.     Unknown : COMPANY
WELL.     Unknown : WELL
FLD .     Unknown : FIELD
LOC .             : LOCATION
PROV.             : PROVINCE
CNTY.             : COUNTY
STAT.             : STATE
CTRY.     Unknown : COUNTRY
SRVC.             : SERVICE COMPANY
DATE.     Unknown : DATE
UWI .     Unknown : UNIQUE WELL ID
API .             : API NUMBER
~Curve Information -----------------------------------------
DEPT    .m           : depths
Gamma   .api         : digitalized and interpolated data
SP      .millivolts  : digitalized and interpolated data
Caliper .inches      : digitalized and interpolated data
Bit Size.inches      : digitalized and interpolated data
Tens    .pounds      : digitalized and interpolated data
MSFL    .Ohm-m       : digitalized and interpolated data
LLD     .Ohm-m       : digitalized and interpolated data
LLS     .Ohm-m       : digitalized and interpolated data
~Params ----------------------------------------------------
~Other -----------------------------------------------------
~ASCII -----------------------------------------------------
# ...
 1698.00000   44.16310   24.11360    5.82020    5.90240 3172.54990  100.01041  325.45833  378.39779
 1698.05000   51.48910   23.93960    5.81070    5.90240 3192.18780   88.32125  316.10211  315.10769
 1698.10000   60.01270   23.76570    5.80120    5.90240 3231.64130   67.35785  305.48395  256.23922
 1698.15000   68.95470   23.38570    5.79470    5.90240 3271.09470   49.14883  293.31400  242.24699
 1698.20000   75.30600   22.94200    5.79490    5.90240 3303.45540   44.10707  274.94422  241.24849
 1698.25000   79.54990   22.53890    5.79510    5.90240 3327.46570   44.73790  252.69136  227.18769
 1698.30000   79.65490   22.26710    5.79390    5.90240 3351.47600   47.54626  224.53177  220.97350
 1698.35000   76.84520   21.99530    5.79060    5.90240 3374.97380   51.67294  216.14620  235.70359
 1698.40000   70.26280   21.74090    5.78720    5.90240 3362.99970   58.16514  209.60768  228.26199
 1698.45000   62.79590   21.54300    5.79290    5.90240 3351.02570   69.75424  209.10143  246.49879
 1698.50000   55.18130   21.34510    5.79880    5.90240 3336.42710   89.61729  193.67484  257.28093
 1698.55000   45.35990   21.12930    5.80470    5.90240 3308.11350  127.61837  199.27141  296.27076
 1698.60000   39.57720   20.87850    5.81100    5.90240 3281.13960  174.51959  204.68141  271.19532
 1698.65000   31.83810   20.62760    5.81770    5.90240 3259.06000  180.83571  221.75999  312.20280
 1698.70000   27.00940   20.37680    5.82170    5.90240 3236.98050  183.20056  229.06777  405.53580
 1698.75000   22.72110   20.16590    5.82020    5.95490 3220.08260  185.40199  248.88642  367.74654
 1698.80000   21.54160   20.01760    5.82110    5.91950 3208.92560  186.52893  258.98785  461.04126
 1698.85000   20.54220   19.86930    5.83390    5.94380 3197.76870  187.66263  287.90924  482.90577
 1698.90000   19.22600   19.72100    5.84670    5.94360 3184.00750  188.80661  328.15588  614.58392
 1698.95000   18.68200   19.57260    5.85950    5.90320 3165.04090  190.53414  368.51400  524.15701
 1699.00000   18.32390   19.34440    5.83590    5.90240 3146.07420  206.42372  426.18994  581.59598
 1699.05000   17.95830   19.03090    5.79860    5.90240 3133.91310  213.76785  451.11119  664.51103
 1699.10000   17.57090   18.71730    5.79470    5.97050 3124.84930  220.61467  499.36189  633.29724
 1699.15000   17.18350   18.48460    5.79080    5.97050 3115.78560  232.35713  537.35735  644.67554
 1699.20000   16.83470   18.36480    5.76640    5.97050 3108.12410  243.10595  561.78481  650.39979
 1699.25000   16.50310   18.24490    5.73610    5.91640 3110.39970  248.97136  576.12271  633.60529
 1699.30000   16.17140   18.12510    5.70740    5.94070 3112.67540  244.07607  605.72402  613.84991
 1699.35000   15.95210   17.84360    5.68340    5.92750 3115.31340  235.24565  600.60175  585.43677
 1699.40000   15.75370   17.53870    5.65930    5.92460 3121.51280  224.63623  595.52280  554.93306
 1699.45000   15.55530   17.23380    5.64440    5.94880 3127.71230  213.01314  587.56646  525.37112
 1699.50000   15.40360   16.88940    5.68420    5.90890 3131.12840  201.34989  567.67713  511.58217
 1699.55000   15.55980   16.51450    5.66770    5.93290 3130.74350  191.86466  532.70797  492.87614
 1699.60000   15.71590   16.13960    5.65130    5.95700 3130.35860  183.36642  512.16960  460.09911
 1699.65000   15.87200   15.78790    5.58030    5.90320 3129.97370  172.67505  488.25826  430.41817
 1699.70000   16.03370   15.50030    5.56260    5.90430 3119.50610  165.03034  470.16143  410.55070
 1699.75000   16.20060   15.21270    5.54490    5.93140 3086.57940  159.45664  442.82996  383.16497
 1699.80000   16.36750   15.21020    5.54730    5.97050 3053.65270  151.48227  417.79304  357.15423
 1699.85000   16.53440   15.45180    5.60730    5.97050 3028.85040  142.89900  391.07621  332.44392
 1699.90000   16.46110   15.68550    5.56530    5.97050 3037.14770  134.06370  370.99785  314.91445
 1699.95000   16.02340   15.89020    5.51930    5.96710 3045.44500  125.41030  349.62252  293.96078
 1700.00000   15.60960   16.09490    5.50800    5.96290 3053.74230  118.50018  329.95658  284.80552
 1700.05000   15.24060   16.29970    5.61840    5.91600 3062.03960  108.57829  309.23440  288.84044
 1700.10000   14.77000   16.35310    5.62490    5.94060 3081.32120   99.13737  292.98784  286.24071
 1700.15000   14.11450   16.33330    5.63130    5.92410 3105.87520   94.71396  282.85313  266.86154
 1700.20000   13.76950   16.31340    5.57020    5.92480 3130.42920   92.36818  270.03546  262.16445
 1700.25000   13.51100   16.67230    5.59540    5.94910 3154.98330   92.63169  261.41241  258.22721
 1700.30000   13.25250   17.30990    5.62070    5.90920 3181.38600   94.43744  254.45289  264.19646
 1700.35000   13.04730   16.76820    5.57180    5.93330 3207.87680   98.83487  248.91083  264.52578
 1700.40000   13.21430   16.74160    5.57930    5.95730 3234.36750  106.44616  244.43511  264.85550
 1700.45000   13.38120   16.71490    5.58690    5.91690 3251.83230  114.07083  243.93392  256.83357
 1700.50000   13.54810   16.67130    5.59440    5.94110 3260.70540  119.01366  243.43387  259.20668
 1700.55000   13.71870   16.60140    5.60190    5.92250 3269.57850  121.49947  242.93472  261.60184
 1700.60000   13.89380   16.53150    5.67720    5.92500 3281.78900  122.65600  242.43661  264.01901
 1700.65000   14.06890   16.46160    5.69020    5.94920 3303.09220  123.82348  242.60603  266.45863
 1700.70000   14.11430   16.39170    5.70310    5.90240 3324.39550  122.92126  243.01271  253.97981
 1700.75000   14.01730   16.29020    5.67850    5.90240 3293.84730  120.31694  243.41997  249.63633
 1700.80000   13.92020   16.11640    5.67620    5.90240 3261.78380  115.78524  243.58929  251.71911
 1700.85000   13.96860   15.94270    5.70430    5.96170 3250.07980  112.61794  242.82209  240.07315
 1700.90000   14.09760   15.76900    5.68060    5.93730 3246.89720  110.09845  240.13728  236.17036
 1700.95000   14.40100   15.59730    5.64990    5.91300 3243.71450  109.90554  235.54365  217.04461
 1701.00000   14.94270   15.43770    5.68000    5.96210 3240.53180  110.56997  230.93938  230.32602
 1701.05000   15.55390   15.27800    5.69350    5.93120 3240.53100  111.23842  225.46597  212.01930
 1701.10000   16.22200   15.11840    5.67850    5.92330 3241.17620  111.91090  219.71970  189.66736
 1701.15000   17.15060   14.77790    5.66350    5.97610 3241.82130  110.60766  212.19835  194.21340
 1701.20000   18.00250   14.40450    5.67020    5.97240 3242.46650  108.62785  196.31460  184.37031
 1701.25000   18.91950   14.03110    5.69020    5.90640 3243.11170  106.18662  191.64831  177.65597
 1701.30000   20.63690   13.74880    5.71020    5.93060 3246.22090  103.26178  180.76735  166.78270
 1701.35000   21.85800   13.48130    5.65340    5.95490 3252.02520  100.38240  173.32795  158.25644
 1701.40000   23.04600   13.21370    5.65350    5.90140 3257.82950   97.65404  164.48481  149.72634
 1701.45000   23.91480   12.94610    5.65370    5.89920 3264.23850   96.02816  153.92700  144.28029
 1701.50000   24.46380   12.67850    5.69920    5.89700 3271.04470   94.42931  146.10988  139.51278
 1701.55000   24.50520   12.37980    5.68890    5.90670 3277.85090   93.50073  141.12072  139.93817
 1701.60000   24.40250   12.00200    5.66070    5.92190 3285.31870   92.86340  136.40484  132.13808
 1701.65000   23.59000   11.76670    5.65300    5.91950 3294.95110   92.23042  131.14188  129.42793
 1701.70000   22.70970   11.67500    5.66150    5.91340 3304.58350   91.60176  127.40862  128.54500
 1701.75000   21.74910   11.58340    5.67000    5.90720 3314.21590   89.84618  124.29183  127.66804
 1701.80000   20.61830   11.43870    5.68180    5.97310 3308.45580   87.77568  123.11438  126.80880
 1701.85000   19.77410   11.22600    5.70690    5.97230 3298.08140   84.08509  122.13040  128.16003
 1701.90000   18.88390   11.01330    5.73200    5.97150 3285.07770   82.85120  121.15435  129.52565
 1701.95000   17.91820   10.80060    5.63830    5.97070 3271.20190   82.26949  121.07961  130.90589
