~Version ---------------------------------------------------
VERS.   2.0 : CWLS log ASCII Standard -VERSION 2.0
WRAP.    NO : One line per depth step
DLM . SPACE : Column Data Section Delimiter
~Well ------------------------------------------------------
STRT.m 1682.00000 : START DEPTH
STOP.m 1742.00000 : STOP DEPTH
STEP.m    0.05000 : STEP
NULL.    -9999.25 : NULL VALUE
COMP.     Unknown : COMPANY
WELL.     Unknown : WELL
FLD .     Unknown : FIELD
LOC .             : LOCATION
PROV.             : PROVINCE
CNTY.             : COUNTY
STAT.             : STATE
CTRY.     Unknown : COUNTRY
SRVC.             : SERVICE COMPANY
DATE.     Unknown : DATE
UWI .     Unknown : UNIQUE WELL ID
API .             : API NUMBER
~Curve Information -----------------------------------------
DEPT    .m           : depths
Gamma   .api         : digitalized and interpolated data
SP      .millivolts  : digitalized and interpolated data
Caliper .inches      : digitalized and interpolated data
Bit Size.inches      : digitalized and interpolated data
Tens    .pounds      : digitalized and interpolated data
MSFL    .Ohm-m       : digitalized and interpolated data
LLD     .Ohm-m       : digitalized and interpolated data
LLS     .Ohm-m       : digitalized and interpolated data
~Params ----------------------------------------------------
~Other -----------------------------------------------------
~ASCII -----------------------------------------------------
# ...
 1714.00000   10.85610   14.14110    5.71930    5.97210 3363.14420  110.72431  196.43849  201.27971
 1714.05000    9.95680   13.72470    5.72280    5.97310 3363.78940  110.87315  196.02903  199.03690
 1714.10000    9.32140   13.26900    5.71490    5.90660 3364.43450  102.45312  195.05999  196.76869
 1714.15000    8.81220   12.81250    5.66080    5.93060 3365.07970  100.99554  190.63928  194.52257
 1714.20000    8.55050   12.32640    5.65090    5.95460 3365.72490   99.80920  189.47503  194.46292
 1714.25000    8.36910   11.84030    5.67420    5.90470 3366.37000   98.63676  192.91953  197.74622
 1714.30000    8.18780   11.35410    5.69760    5.93300 3367.01520   96.66508  193.36541  201.08506
 1714.35000    8.37250   11.04950    5.63940    5.96120 3367.66030   94.07460  192.86739  194.12506
 1714.40000    8.70000   10.77940    5.67680    5.92210 3368.30550   95.17077  187.93280  193.28635
 1714.45000    9.14730   10.50930    5.70680    5.94640 3369.23930   96.88488  188.12798  192.45119
 1714.50000    9.72100   10.23920    5.67160    5.96910 3379.04120  101.47162  192.74841  194.00628
 1714.55000   10.29750    9.96910    5.65660    5.91870 3388.84310  101.65684  190.60522  199.68204
 1714.60000   10.87450    9.65880    5.70560    5.95000 3398.64500   99.80125  188.48578  196.65627
 1714.65000   11.14710    9.32750    5.67880    5.89990 3404.66930   98.04941  187.64102  192.92468
 1714.70000   11.41770    9.09770    5.67730    5.93540 3409.70660   92.55063  187.76334  196.42601
 1714.75000   11.63000    9.03960    5.69200    5.96910 3414.74390   88.23949  187.88582  199.99088
 1714.80000   11.78370    8.98160    5.66090    5.88310 3423.52800   86.65372  187.62253  194.18273
 1714.85000   11.90950    8.91780    5.67220    5.88170 3437.55400   85.09644  187.20377  194.18273
 1714.90000   11.90950    8.82250    5.70880    5.88030 3451.58000   84.47562  187.05831  195.07517
 1714.95000   11.90950    8.72720    5.63330    5.87890 3464.72110   84.35414  186.91287  198.43368
 1715.00000   11.66770    8.48070    5.65290    5.87750 3469.17170   84.23279  186.35686  194.61755
 1715.05000   11.19280    7.97730    5.67260    5.88110 3473.62230   84.74342  185.48637  191.28988
 1715.10000   11.01120    7.47380    5.68160    5.88810 3478.07290   87.33469  184.62002  196.63924
 1715.15000   10.82960    7.05230    5.67000    5.89520 3481.77790   89.80609  190.85124  195.45834
 1715.20000   10.64800    6.68270    5.65850    5.90220 3482.42310   92.18252  189.28273  193.08654
 1715.25000   10.63970    6.31300    5.66960    5.89050 3483.06830   95.11833  187.72711  190.74361
 1715.30000   10.75100    5.94340    5.69720    5.87820 3483.71340   98.29843  186.18436  195.03960
 1715.35000   10.86230    5.57370    5.70950    5.88680 3484.35860  101.73987  185.45374  196.99164
 1715.40000   11.81840    5.34190    5.68240    5.91300 3485.00370  106.23808  185.85575  193.49573
 1715.45000   12.83560    5.34560    5.65530    5.93910 3491.14620  111.29027  186.25863  196.28296
 1715.50000   13.93740    5.33630    5.66360    5.96530 3498.04210  118.76897  186.66229  199.11033
 1715.55000   14.70140    5.30400    5.70890    5.91130 3501.76710  131.35112  189.24578  207.56417
 1715.60000   15.35520    5.27160    5.71600    5.94300 3502.41230  137.38490  193.82580  214.65460
 1715.65000   15.86170    5.25080    5.72190    5.96170 3503.05740  139.11258  197.75415  214.15045
 1715.70000   15.86170    5.27280    5.64360    5.90390 3503.70260  133.25183  201.27619  214.06782
 1715.75000   15.65420    5.29480    5.68550    5.95080 3504.34770  125.61624  204.85916  217.16498
 1715.80000   14.96640    5.31680    5.71520    5.91800 3504.99290  119.82273  206.98925  220.30685
 1715.85000   14.57340    5.19680    5.67890    5.87340 3505.63810  115.46746  209.14159  229.92458
 1715.90000   14.18040    5.00590    5.70770    5.88470 3506.28320  111.53542  214.56812  230.39964
 1715.95000   13.76630    4.76810    5.67330    5.89590 3506.92840  109.09368  222.12805  230.87568
 1716.00000   13.34440    4.49690    5.65180    5.95770 3507.57350  106.39299  217.14108  229.88403
 1716.05000   13.22420    5.87390    5.70250    5.94820 3508.21870  103.65169  216.91720  223.62564
 1716.10000   13.35840    5.57440    5.68910    5.91950 3510.69970  110.37924  216.69356  218.54748
 1716.15000   13.49260    5.27490    5.65160    5.94130 3513.63950  109.37418  211.16911  211.34530
 1716.20000   13.62680    4.97550    5.67540    5.95140 3511.60010  108.46629  205.18216  204.20379
 1716.25000   13.84500    4.98610    5.71610    5.92400 3506.83320   99.46686  201.27433  195.50164
 1716.30000   14.07260    5.39350    5.69460    5.96950 3502.06630   96.04925  193.66752  185.41779
 1716.35000   14.25210    5.80100    5.66560    5.93860 3497.29940   93.14329  185.61104  186.23693
 1716.40000   14.24360    6.23010    5.69320    5.90770 3494.14180   90.25353  178.66332  182.06388
 1716.45000   14.23510    6.67140    5.71090    5.97050 3490.99560   85.89063  172.69493  167.30803
 1716.50000   14.15360    7.11280    5.71290    5.97050 3487.84930   82.44475  167.45087  170.53738
 1716.55000   13.91500    7.60810    5.70540    5.97050 3484.54090   78.72314  162.69117  161.39222
 1716.60000   13.67630    8.14230    5.63750    5.92820 3479.42200   76.73537  158.08840  155.82366
 1716.65000   13.37270    8.67640    5.66710    5.92790 3474.30320   74.59505  153.36703  150.74183
 1716.70000   13.03810    9.31070    5.69670    5.96580 3474.63800   72.16752  149.55970  147.39094
 1716.75000   12.68260    9.95530    5.69030    5.90390 3480.21880   68.21056  146.25334  147.54897
 1716.80000   12.27950   10.25340    5.65340    5.94790 3485.79960   65.73127  143.02692  139.60809
 1716.85000   11.87630   10.52260    5.71570    5.97050 3488.88560   64.24678  139.88141  140.15577
 1716.90000   11.55550   10.79180    5.65970    5.97050 3489.53070   62.87682  137.04588  133.22735
 1716.95000   11.27780   11.06100    5.66580    5.97050 3490.17590   61.48687  134.50654  135.00635
 1717.00000   10.99830   11.33030    5.69950    5.97050 3501.49610   60.09755  132.00652  136.80917
 1717.05000   10.69760   11.67520    5.67810    5.90830 3515.02340   58.42434  129.23025  129.89780
 1717.10000   10.39690   12.02120    5.65670    5.93140 3528.55070   57.17171  126.51237  130.42000
 1717.15000   10.09620   12.36690    5.69180    5.95940 3537.31410   58.29262  122.56334  120.94942
 1717.20000    9.94920   12.60570    5.67450    5.90510 3545.14280   58.54575  118.96735  116.61666
 1717.25000    9.82590   12.84440    5.65710    5.94850 3552.97150   58.08693  115.91526  112.43916
 1717.30000    9.70260   13.08320    5.63980    5.95150 3554.00350   57.63170  112.84180  111.50008
 1717.35000    9.59720   13.40890    5.69800    5.91280 3554.64860   56.78157  109.80254  103.59242
 1717.40000    9.50330   13.78370    5.69730    5.95650 3554.69760   55.34556  106.71518  111.29944
 1717.45000    9.40950   14.15860    5.69670    5.94570 3553.12940   53.27428  103.80852   99.24088
 1717.50000    9.31560   14.64360    5.69020    5.91570 3551.54350   50.08100  101.15566  104.94723
 1717.55000    9.22180   15.24160    5.63570    5.96530 3549.48590   48.45585   98.56751  102.37818
 1717.60000    8.90550   15.95510    5.67310    5.93340 3547.42840   47.00889   96.04328   95.12757
 1717.65000    8.55040   16.96080    5.68890    5.90650 3545.37080   45.71728   93.87082   94.50422
 1717.70000    8.15620   17.25760    5.67160    5.95150 3542.23910   46.78368   91.79973   96.59984
 1717.75000    7.66970   17.52540    5.65420    5.91320 3537.34540   48.13159   92.74997   98.74193
 1717.80000    7.27030   17.80160    5.65750    5.96390 3532.45160   50.85963   94.63980   95.10786
 1717.85000    7.06990   18.21000    5.67550    5.92520 3527.55790   53.52856   93.11212   93.28186
 1717.90000    6.86950   18.61840    5.69320    5.87730 3522.90630   57.72737   91.34744   99.78324
 1717.95000    6.66910   19.04010    5.66190    5.87930 3518.31160   59.53616   94.83494   97.35691
