~Version ---------------------------------------------------
VERS.   2.0 : CWLS log ASCII Standard -VERSION 2.0
WRAP.    NO : One line per depth step
DLM . SPACE : Column Data Section Delimiter
~Well ------------------------------------------------------
STRT.m 1682.00000 : START DEPTH
STOP.m 1742.00000 : STOP DEPTH
STEP.m    0.05000 : STEP
NULL.    -9999.25 : NULL VALUE
COMP.     Unknown : COMPANY
WELL.     Unknown : WELL
FLD .     Unknown : FIELD
LOC .             : LOCATION
PROV.             : PROVINCE
CNTY.             : COUNTY
STAT.             : STATE
CTRY.     Unknown : COUNTRY
SRVC.             : SERVICE COMPANY
DATE.     Unknown : DATE
UWI .     Unknown : UNIQUE WELL ID
API .             : API NUMBER
~Curve Information -----------------------------------------
DEPT    .m           : depths
Gamma   .api         : digitalized and interpolated data
SP      .millivolts  : digitalized and interpolated data
Caliper .inches      : digitalized and interpolated data
Bit Size.inches      : digitalized and interpolated data
Tens    .pounds      : digitalized and interpolated data
MSFL    .Ohm-m       : digitalized and interpolated data
LLD     .Ohm-m       : digitalized and interpolated data
LLS     .Ohm-m       : digitalized and interpolated data
~Params ----------------------------------------------------
~Other -----------------------------------------------------
~ASCII -----------------------------------------------------
# ...
 1686.00000   15.38290   13.47420    6.22390    5.90240 2865.99170   76.95393  129.37072  129.61641
 1686.05000   15.59200   13.25180    6.20900    5.90240 2860.04750   56.77263  128.91427  132.62689
 1686.10000   15.90190   13.02950    6.19400    5.90240 2854.10330   36.82644  130.69061  135.70723
 1686.15000   16.21180   12.80710    6.17910    5.93640 2848.15910   31.08587  133.42358  139.74999
 1686.20000   16.56660   12.58470    6.16760    5.94560 2849.39100   29.13390  135.71123  144.41210
 1686.25000   16.97290   12.26930    6.16780    5.90240 2850.69120   28.37654  138.03811  149.49828
 1686.30000   17.02950   11.95030    6.16790    5.90240 2851.99150   27.87560  140.59407  153.62426
 1686.35000   17.08110   11.59860    6.16310    5.90240 2857.10330   27.46008  144.28394  157.86403
 1686.40000   16.63230   10.80570    6.15180    5.89650 2875.87200   26.49720  147.94544  157.89806
 1686.45000   16.14530   10.01280    6.13900    5.88880 2894.64070   28.90298  151.46322  157.02977
 1686.50000   15.18460    9.26990    6.11570    5.89470 2911.42880   35.23389  154.73266  156.16625
 1686.55000   14.28530    8.54120    6.09240    5.90050 2926.16390   41.38502  157.48855  155.30742
 1686.60000   13.43260    7.81250    6.06900    5.90630 2930.59580   48.74540  160.06353  153.01528
 1686.65000   12.96660    7.51370    6.05230    5.92460 2918.65690   52.53411  160.30925  149.30316
 1686.70000   12.73190    7.21930    6.04090    5.94490 2906.52300   57.14839  159.91117  145.68109
 1686.75000   12.49710    6.92490    6.02950    5.94330 2888.01050   62.96262  158.10310  143.33168
 1686.80000   12.34700    6.74520    5.98580    5.90240 2869.49800   76.82921  156.31548  141.27594
 1686.85000   12.37120    6.70590    5.93990    5.90240 2850.98550   71.67851  154.54814  139.24961
 1686.90000   12.39540    6.66670    5.91450    5.90240 2846.74820   55.80714  152.80072  141.92666
 1686.95000   12.41950    6.62740    5.88920    5.90240 2843.52470   37.29983  151.90539  145.66922
 1687.00000   12.31980    6.58820    5.86390    5.90240 2840.30120   35.28501  151.09274  147.36556
 1687.05000   12.15110    6.35250    5.84170    5.90170 2837.46800   34.51232  150.28436  153.13469
 1687.10000   11.76420    6.10790    5.82020    5.89950 2838.11310   33.74553  149.48031  163.04046
 1687.15000   11.37720    5.86340    5.79870    5.89730 2838.75830   32.94828  148.68063  162.41682
 1687.20000   11.14540    5.63450    5.77720    5.89840 2836.21110   33.49150  149.74716  168.23967
 1687.25000   10.94720    5.61140    5.76420    5.90230 2828.91030   35.80910  152.50820  175.94454
 1687.30000   10.74910    5.58820    5.76830    5.90340 2821.60950   46.76479  156.68254  188.43944
 1687.35000   10.55090    5.56500    5.77240    5.90440 2814.30880   64.03603  163.08409  200.70990
 1687.40000   10.70950    5.54180    5.77650    5.90540 2803.07520   73.09977  169.98883  222.05001
 1687.45000   10.89970    5.58470    5.78070    5.90520 2789.90080   79.40196  177.32248  221.26555
 1687.50000   11.08990    5.63930    5.78830    5.90420 2776.72650   86.36572  184.84172  245.94432
 1687.55000   11.52090    5.67510    5.79590    5.90330 2773.46320   93.86930  194.11120  239.28341
 1687.60000   11.96790    5.69930    5.80350    5.90240 2782.28010  107.76164  205.98234  269.74574
 1687.65000   12.34190    5.72350    5.80950    5.90240 2789.82170  122.49084  215.80087  290.26816
 1687.70000   12.69100    5.74780    5.80840    5.90240 2793.97130  138.30268  225.95606  302.54278
 1687.75000   13.02080    5.77200    5.80730    5.93190 2798.12100  157.65211  241.03150  335.14442
 1687.80000   13.30220    5.84670    5.81190    5.94310 2802.27060  178.81856  255.84256  348.69779
 1687.85000   13.33750    6.43450    5.81660    5.90580 2819.19100  197.56791  270.81705  351.13086
 1687.90000   13.07590    7.02230    5.81950    5.89990 2837.71590  226.27543  283.54474  353.58074
 1687.95000   12.82010    7.62470    5.82020    5.90470 2856.24090  251.05484  297.49015  367.43422
 1688.00000   12.57050    8.23320    5.82100    5.90950 2873.70310  275.25030  324.05057  366.74820
 1688.05000   12.32080    8.84160    5.82180    5.91290 2890.36740  286.95725  339.48532  365.37009
 1688.10000   12.12560    9.24520    5.82250    5.91570 2907.03170  297.88470  348.00894  354.69119
 1688.15000   11.93630    9.49140    5.82360    5.91840 2923.69600  286.05056  359.75629  356.02443
 1688.20000   11.74700    9.73760    5.82490    5.91740 2928.39460  270.34516  371.09200  334.71548
 1688.25000   11.57250   10.06120    5.82620    5.91410 2921.04830  242.15486  364.01862  312.84268
 1688.30000   11.72950   10.45530    5.82740    5.91090 2913.70200  204.93701  366.19145  291.50808
 1688.35000   11.88640   10.72640    5.82860    5.91090 2905.03980  175.54319  348.23354  277.42475
 1688.40000   12.04340   10.98750    5.82790    5.91090 2896.23240  157.06543  329.16102  269.44256
 1688.45000   12.47980   11.24860    5.82710    5.91210 2887.42510  143.43198  309.93027  252.69858
 1688.50000   13.00540   11.50970    5.82630    5.91540 2878.61780  133.97458  293.09202  244.19974
 1688.55000   13.46460   11.71390    5.82550    5.91860 2882.50850  126.74499  276.40328  238.66976
 1688.60000   13.90680   11.78160    5.82410    5.93250 2889.14610  123.80888  260.78403  238.73528
 1688.65000   14.19040   11.84940    5.82220    5.94980 2895.78370  121.34950  250.95497  238.80092
 1688.70000   14.29160   11.87640    5.82040    5.95180 2902.42130  119.13270  247.28490  238.86647
 1688.75000   14.39280   11.88010    5.82840    5.91770 2920.04260  117.21511  243.66862  239.48008
 1688.80000   14.21020   11.88380    5.84780    5.93830 2939.40670  115.32833  241.50548  241.50804
 1688.85000   13.82050   12.29080    5.86710    5.95460 2958.77080  109.79632  239.55332  243.55318
 1688.90000   13.50070   12.95510    5.81590    5.94280 2983.84230  104.61564  237.61705  245.61563
 1688.95000   13.24910   13.51840    5.81730    5.93100 3011.42400  102.69654  236.45255  248.78317
 1689.00000   12.99750   14.02770    5.81870    5.92240 3039.00570  100.81264  236.29710  253.75008
 1689.05000   12.74590   14.49820    5.82010    5.91650 3056.03660  101.54052  236.14176  252.51803
 1689.10000   12.88730   14.76540    5.82920    5.91130 3056.68180  104.05808  235.98652  251.29196
 1689.15000   13.16050   15.03260    5.84270    5.91800 3057.32690  109.71616  236.21333  248.78832
 1689.20000   13.43360   15.30950    5.85630    5.92480 3042.07380  117.50707  237.69245  245.96131
 1689.25000   14.03710   15.59360    5.86980    5.92060 3017.89810  126.01812  237.99081  243.16642
 1689.30000   14.77490   15.87780    5.81120    5.90680 2993.93310  134.60345  235.33580  235.96674
 1689.35000   15.73840   16.11760    5.79660    5.94400 2970.59700  140.31387  232.71051  227.19543
 1689.40000   16.60230   16.07430    5.78190    5.96200 2947.26080  143.18786  230.04288  219.06298
 1689.45000   17.37610   16.03110    5.75640    5.96200 2927.88050  129.64071  225.07175  212.60398
 1689.50000   18.61050   16.02160    5.71280    5.96200 2918.51980  123.77154  218.13351  207.25509
 1689.55000   18.59220   16.02530    5.69320    5.90080 2909.15920  118.48555  210.59943  202.10581
 1689.60000   18.57400   16.02250    5.67350    5.89870 2899.79850  112.91546  202.88559  194.25169
 1689.65000   18.32170   15.86560    5.66030    5.89650 2901.45460  110.59518  196.53043  190.03141
 1689.70000   17.47660   15.70860    5.65820    5.95760 2931.17880  108.32258  190.00017  186.78388
 1689.75000   16.83900   15.58940    5.65620    5.94340 2960.90300  104.51090  184.36879  184.19761
 1689.80000   16.10740   15.50830    5.65410    5.92920 2973.62310  111.78013  180.07200  184.11043
 1689.85000   15.30210   15.42730    5.65700    5.91510 2967.72390  119.28532  175.87536  184.02321
 1689.90000   14.47240   15.31710    5.66110    5.90340 2961.82470  124.60607  171.77652  183.93602
 1689.95000   13.75810   15.13340    5.65770    5.91290 2955.92560  128.32663  170.81578  188.03115
