~Version ---------------------------------------------------
VERS.   2.0 : CWLS log ASCII Standard -VERSION 2.0
WRAP.    NO : One line per depth step
DLM . SPACE : Column Data Section Delimiter
~Well ------------------------------------------------------
STRT.m            1285.0 : START DEPTH
STOP.m            1340.0 : STOP DEPTH
STEP.m           0.05000 : STEP
NULL.           -9999.25 : NULL VALUE
COMP.               TPAO : COMPANY
WELL.     BATIRAMAN #241 : WELL
FLD .          BATIRAMAN : FIELD
LOC .                    : LOCATION
PROV.                    : PROVINCE
CNTY.                    : COUNTY
STAT.                    : STATE
CTRY.             TURKEY : COUNTRY
SRVC.                    : SERVICE COMPANY
DATE. 02-Aug-09 16:36:59 : DATE
UWI .                241 : UNIQUE WELL ID
API .                    : API NUMBER
~Curve Information -----------------------------------------
DEPT   .m          : depths
Caliper.inches     : Caliper, digitalized and interpolated data
GR     .api        : Gamma-Ray, digitalized and interpolated data
GRS    .api        : Gamma-Ray Spectral, digitalized and interpolated data
DT     .mu-sec/ft  : Sonic log, digitalized and interpolated data
Pe     .           : PhotoElectric Effect, digitalized and interpolated data
NEU    .decp       : Neutron log, digitalized and interpolated data
RHOB   .gram/cc    : Density log, digitalized and interpolated data
DenCorr.gram/cc    : Density correction log, digitalized and interpolated data
~Params ----------------------------------------------------
~Other -----------------------------------------------------
~ASCII -----------------------------------------------------
# ...
 1305.00000    8.51750   58.51850   13.85030   56.72860    4.96170    0.02270    2.66940    0.01160
 1305.05000    8.51750   58.12590   13.62380   56.72860    4.94390    0.02370    2.66680    0.01200
 1305.10000    8.51750   57.68890   13.44420   56.72860    4.92500    0.02480    2.66410    0.01240
 1305.15000    8.51750   56.90370   13.26460   56.94280    4.90140    0.02640    2.66060    0.01270
 1305.20000    8.51750   56.11850   13.08510   57.23720    4.87770    0.02800    2.65680    0.01310
 1305.25000    8.51750   55.33330   12.95130   57.53160    4.85410    0.02960    2.64990    0.01340
 1305.30000    8.51750   54.61480   12.94990   57.82600    4.83040    0.03120    2.64330    0.01380
 1305.35000    8.51750   54.02590   12.94840   58.02830    4.80680    0.03430    2.64150    0.01420
 1305.40000    8.51750   53.43700   12.94700   58.25130    4.79160    0.03750    2.62930    0.01490
 1305.45000    8.51750   52.84810   12.94560   59.03640    4.80350    0.04060    2.62400    0.01620
 1305.50000    8.51750   51.92590   12.94420   59.82160    4.81540    0.04590    2.61880    0.01750
 1305.55000    8.51750   50.74810   12.98180   60.60670    4.82730    0.05100    2.61360    0.01890
 1305.60000    8.51120   50.10370   13.09910   61.29070    4.83920    0.05410    2.60840    0.02020
 1305.65000    8.50420   49.71110   13.21650   61.68330    4.85110    0.06530    2.56260    0.02160
 1305.70000    8.49710   49.31850   13.33390   62.07580    4.85060    0.07040    2.55400    0.02290
 1305.75000    8.49010   48.92590   13.45130   62.46840    4.82400    0.08330    2.52970    0.02420
 1305.80000    8.48300   49.60000   13.56860   63.04540    4.79740    0.09040    2.52280    0.02470
 1305.85000    8.47600   53.34810   13.63860   63.83050    4.77080    0.09450    2.51590    0.02430
 1305.90000    8.46890   54.13330   13.63720   64.61560    4.74430    0.09760    2.50900    0.02390
 1305.95000    8.46190   54.91850   13.63580   65.40070    4.71770    0.10080    2.49100    0.02340
 1306.00000    8.45480   55.70370   13.63440   65.91820    4.69110    0.10390    2.48840    0.02300
 1306.05000    8.44780   56.39260   13.63300   66.31080    4.66450    0.10780    2.48580    0.02260
 1306.10000    8.44760   56.78520   13.63150   66.54870    4.65120    0.11190    2.48310    0.02210
 1306.15000    8.44760   57.17780   13.63010   66.74500    4.66020    0.12020    2.48000    0.02170
 1306.20000    8.44760   57.57040   13.62870   66.94130    4.66910    0.12120    2.47650    0.02200
 1306.25000    8.44760   57.77780   13.62730   67.13750    4.67800    0.12190    2.47510    0.02290
 1306.30000    8.44760   57.77780   13.62590   67.53010    4.68690    0.12250    2.47510    0.02380
 1306.35000    8.44760   57.77780   13.62450   67.88100    4.69590    0.12300    2.47510    0.02470
 1306.40000    8.44760   57.77780   13.62310   67.88100    4.70480    0.12350    2.47510    0.02560
 1306.45000    8.44760   57.77780   13.62170   67.88100    4.71370    0.12290    2.47750    0.02650
 1306.50000    8.44760   57.77780   13.62030   67.88100    4.72180    0.12190    2.48110    0.02740
 1306.55000    8.44760   57.99010   13.56850   67.07510    4.72890    0.12080    2.48400    0.02830
 1306.60000    8.44760   58.25190   13.47800   66.87880    4.73600    0.11970    2.48670    0.02700
 1306.65000    8.44800   58.51360   13.38750   66.68250    4.74320    0.11740    2.48940    0.02460
 1306.70000    8.45500   58.77530   13.29700   66.48620    4.75030    0.11470    2.49210    0.02230
 1306.75000    8.46210   59.03700   13.20650   66.29000    4.75740    0.11190    2.49480    0.02000
 1306.80000    8.46910   59.28890   13.11600   66.09370    4.76460    0.10920    2.49750    0.01760
 1306.85000    8.47620   59.48520   13.02560   65.64760    4.77170    0.11130    2.50020    0.01530
 1306.90000    8.48320   59.68150   12.93510   65.05870    4.77890    0.10910    2.50290    0.01340
 1306.95000    8.49030   59.87780   12.84460   64.90710    4.78600    0.10700    2.50560    0.01160
 1307.00000    8.49730   60.04940   12.75410   64.90710    4.79420    0.10480    2.50830    0.00990
 1307.05000    8.50440   60.18020   12.66360   64.90710    4.80320    0.10680    2.51100    0.00810
 1307.10000    8.51140   60.31110   12.57310   64.90710    4.81210    0.10890    2.51370    0.00640
 1307.15000    8.51750   60.44200   12.48260   65.09440    4.82100    0.11000    2.50880    0.00460
 1307.20000    8.51750   60.57280   12.39210   65.29670    4.82990    0.11100    2.50360    0.00520
 1307.25000    8.51750   60.70370   12.30160   65.59110    4.83890    0.11170    2.50160    0.00660
 1307.30000    8.51750   60.88150   12.21110   65.88550    4.84780    0.11240    2.49990    0.00810
 1307.35000    8.51750   61.07780   12.25510   66.17990    4.85670    0.11320    2.48610    0.00950
 1307.40000    8.51750   61.27410   12.34280   66.44760    4.85920    0.11390    2.48260    0.01090
 1307.45000    8.51750   61.47040   12.43050   66.64390    4.85920    0.11460    2.47530    0.01240
 1307.50000    8.51750   62.22220   12.51820   66.74100    4.85920    0.11530    2.47530    0.01380
 1307.55000    8.51750   62.94070   12.60580   66.67560    4.85920    0.11530    2.47530    0.01520
 1307.60000    8.51750   62.54810   12.69350   66.61020    4.85920    0.11530    2.47530    0.01660
 1307.65000    8.51750   62.02220   12.78120   66.54470    4.85920    0.11530    2.47870    0.01810
 1307.70000    8.51750   60.84440   12.86890   66.47930    4.85920    0.11530    2.48230    0.01820
 1307.75000    8.51750   59.66670   12.98180   66.41390    4.85920    0.11530    2.49140    0.01820
 1307.80000    8.51750   58.48890   13.09910   65.98360    4.85920    0.11490    2.48970    0.01820
 1307.85000    8.51750   57.46670   13.21650   65.39480    4.85920    0.11050    2.49890    0.01820
 1307.90000    8.51750   56.68150   13.33390   65.04240    4.85920    0.11030    2.50810    0.01910
 1307.95000    8.51750   56.09630   13.45130   64.74800    4.85920    0.10480    2.51730    0.02000
 1308.00000    8.51750   55.70370   13.56860   64.45350    4.85920    0.09920    2.51630    0.02090
 1308.05000    8.51750   55.80000   13.57660   64.15170    4.85920    0.09370    2.52940    0.02180
 1308.10000    8.51750   56.19260   13.57520   63.36650    4.85920    0.09440    2.54130    0.02360
 1308.15000    8.51750   56.58520   13.57380   61.49000    4.85920    0.08770    2.55050    0.02530
 1308.20000    8.51750   56.97780   13.57240   60.90110    4.85920    0.08150    2.55970    0.02620
 1308.25000    8.51750   61.40740   13.57100   60.35690    4.85920    0.07600    2.56890    0.02710
 1308.30000    8.51750   62.19260   13.56960   59.96430    4.87590    0.06990    2.58500    0.02800
 1308.35000    8.51750   64.45930   13.92170   58.15020    4.89380    0.06330    2.60830    0.02870
 1308.40000    8.51750   65.21480   14.27660   57.95390    4.91170    0.05300    2.61500    0.02750
 1308.45000    8.51750   65.60740   14.63150   57.75760    4.92960    0.04030    2.64260    0.02630
 1308.50000    8.51750   66.00000   14.98650   57.56130    4.94750    0.03940    2.63600    0.02520
 1308.55000    8.51750   66.39260   15.34140   57.15090    4.96530    0.03030    2.64910    0.02400
 1308.60000    8.51750   68.50370   15.69630   56.56210    4.98320    0.02520    2.65560    0.02280
 1308.65000    8.51750   69.68150   16.05130   55.48550    5.00000    0.02090    2.66100    0.02160
 1308.70000    8.51750   70.85930   16.39070   55.28920    5.00000    0.01950    2.66390    0.01980
 1308.75000    8.51750   72.03700   16.56750   55.09290    5.00000    0.01850    2.66660    0.01820
 1308.80000    8.51750   73.21480   16.74420   54.89670    5.00000    0.01740    2.66930    0.01730
 1308.85000    8.51750   74.39260   16.92100   54.78510    4.99810    0.01630    2.67200    0.01650
 1308.90000    8.51750   74.43700   17.04990   54.68700    4.98030    0.01580    2.67240    0.01560
 1308.95000    8.51750   73.84810   16.87030   54.58880    4.96260    0.01520    2.67290    0.01510
