~Version ---------------------------------------------------
VERS.   2.0 : CWLS log ASCII Standard -VERSION 2.0
WRAP.    NO : One line per depth step
DLM . SPACE : Column Data Section Delimiter
~Well ------------------------------------------------------
STRT.m 1682.00000 : START DEPTH
STOP.m 1742.00000 : STOP DEPTH
STEP.m    0.05000 : STEP
NULL.    -9999.25 : NULL VALUE
COMP.     Unknown : COMPANY
WELL.     Unknown : WELL
FLD .     Unknown : FIELD
LOC .             : LOCATION
PROV.             : PROVINCE
CNTY.             : COUNTY
STAT.             : STATE
CTRY.     Unknown : COUNTRY
SRVC.             : SERVICE COMPANY
DATE.     Unknown : DATE
UWI .     Unknown : UNIQUE WELL ID
API .             : API NUMBER
~Curve Information -----------------------------------------
DEPT            .m            : depths
Bit Size        .inches       : digitalized and interpolated data
Caliper         .inches       : digitalized and interpolated data
GammaKUT        .api          : digitalized and interpolated data
GammaKT         .api          : digitalized and interpolated data
Density         .gram per cc  : digitalized and interpolated data
Neutron Porosity.pu           : digitalized and interpolated data
Pe              .unknown      : digitalized and interpolated data
DensityCorr     .gm per cc    : digitalized and interpolated data
Tension         .pounds       : digitalized and interpolated data
~Params ----------------------------------------------------
~Other -----------------------------------------------------
~ASCII -----------------------------------------------------
# ...
 1722.15000    6.00000    6.15750    9.43020    6.41700    2.64150    9.23110    3.40650    0.03080 2671.47800
 1722.20000    6.00000    6.14710    9.52840    6.71960    2.64900    8.98410    3.52100    0.03080 2669.95060
 1722.25000    6.00000    6.13670    9.60440    7.02220    2.65640    8.56160    3.59820    0.03080 2668.42330
 1722.30000    6.00000    6.12630    9.68050    6.71000    2.66530    8.07840    3.65300    0.03080 2666.89600
 1722.35000    6.00000    6.11760    9.75660    6.39360    2.67380    7.81460    3.70780    0.03070 2665.36860
 1722.40000    6.00000    6.11520    9.83260    6.07730    2.68060    7.60890    3.74770    0.03070 2663.84130
 1722.45000    6.00000    6.11290    9.90870    5.76090    2.68380    7.50150    3.76060    0.03070 2662.31400
 1722.50000    6.00000    6.11050    9.98470    5.44400    2.68670    7.39410    3.77360    0.03020 2660.78660
 1722.55000    6.00000    6.10810    9.94890    5.08500    2.68960    7.28670    3.78660    0.02960 2659.25930
 1722.60000    6.00000    6.10570    9.88240    4.72590    2.68770    7.31890    3.79950    0.02910 2657.73200
 1722.65000    6.00000    6.10330    9.81590    4.36690    2.68410    7.51530    3.81250    0.02850 2656.33780
 1722.70000    6.00000    6.10090    9.74940    4.00790    2.67990    7.71170    3.79690    0.02800 2659.29330
 1722.75000    6.00000    6.09860    9.68290    3.64880    2.67340    7.85080    3.77250    0.02750 2662.24880
 1722.80000    6.00000    6.09620    9.61650    3.28980    2.66910    7.93650    3.74810    0.02790 2665.20420
 1722.85000    6.00000    6.10560    9.55000    3.02080    2.66650    8.02220    3.72370    0.02860 2668.15970
 1722.90000    6.00000    6.12590    9.53650    2.79580    2.66380    8.10790    3.69930    0.02920 2671.11520
 1722.95000    6.00000    6.14620    9.55320    2.57090    2.66120    8.19360    3.67490    0.02990 2674.07070
 1723.00000    6.00000    6.16660    9.57000    2.34600    2.65950    8.27930    3.63690    0.03060 2677.02620
 1723.05000    6.00000    6.17740    9.58680    2.12100    2.66010    8.30700    3.59840    0.03130 2679.98160
 1723.10000    6.00000    6.18620    9.60360    1.97080    2.66070    8.24280    3.55980    0.03190 2682.93710
 1723.15000    6.00000    6.19500    9.62030    2.08270    2.66130    8.17870    3.52130    0.03260 2685.89260
 1723.20000    6.00000    6.20380    9.63710    2.19450    2.66190    8.11450    3.48280    0.03330 2688.84810
 1723.25000    6.00000    6.21260    9.70280    2.30630    2.66250    8.05040    3.46070    0.03400 2691.80360
 1723.30000    6.00000    6.22150    9.99130    2.41810    2.66300    7.98620    3.48220    0.03490 2694.75910
 1723.35000    6.00000    6.23030   10.27970    2.52990    2.66360    7.92200    3.50380    0.03610 2697.71450
 1723.40000    6.00000    6.23910   10.56820    2.64170    2.66700    7.69220    3.52540    0.03730 2700.67000
 1723.45000    6.00000    6.24920   10.85660    2.75350    2.67170    7.46240    3.54690    0.03860 2703.26300
 1723.50000    6.00000    6.25930   10.76770    2.86540    2.67590    7.21830    3.56850    0.03980 2705.64080
 1723.55000    6.00000    6.26950   10.65060    2.97720    2.67950    6.92100    3.59000    0.04080 2708.01860
 1723.60000    6.00000    6.27970   10.53350    3.08900    2.68310    6.62370    3.60480    0.04160 2710.39640
 1723.65000    6.00000    6.28980   10.41640    3.26200    2.68620    6.37810    3.60430    0.04250 2712.77420
 1723.70000    6.00000    6.30000   10.29930    3.60960    2.68880    6.21550    3.60390    0.04340 2715.15200
 1723.75000    6.00000    6.31020   10.18220    3.95730    2.69130    6.05280    3.60350    0.04430 2717.52980
 1723.80000    6.00000    6.32030   10.16720    4.30490    2.69390    5.89010    3.60300    0.04520 2719.90760
 1723.85000    6.00000    6.33050   10.24600    4.65260    2.69730    5.66540    3.60260    0.04610 2722.28540
 1723.90000    6.00000    6.34070   10.32470    4.97580    2.70240    5.38080    3.60210    0.04690 2724.66320
 1723.95000    6.00000    6.35000   10.40340    5.28980    2.70910    5.04590    3.60170    0.04780 2727.04100
 1724.00000    6.00000    6.35910   10.48220    5.60380    2.72110    4.59060    3.60130    0.04870 2729.41880
 1724.05000    6.00000    6.36810   10.56090    5.91780    2.73180    4.08070    3.60080    0.04940 2729.30500
 1724.10000    6.00000    6.37720   10.63960    6.23170    2.74160    3.75180    3.63280    0.04860 2727.11390
 1724.15000    6.00000    6.38620   10.71840    5.87650    2.75180    3.50020    3.66820    0.04770 2724.92280
 1724.20000    6.00000    6.39530   10.79710    5.24380    2.76200    3.26350    3.70350    0.04680 2722.73170
 1724.25000    6.00000    6.40430   10.87580    4.76520    2.77040    3.10570    3.73890    0.04590 2720.54060
 1724.30000    6.00000    6.41340   11.15970    4.84590    2.77390    2.94790    3.77430    0.04510 2718.34940
 1724.35000    6.00000    6.42240   11.44570    4.92660    2.77730    2.79010    3.80150    0.04420 2716.15830
 1724.40000    6.00000    6.43040   11.73180    5.00730    2.77960    2.69900    3.82450    0.04330 2713.96720
 1724.45000    6.00000    6.43040   12.01780    5.08800    2.78030    2.67540    3.84760    0.04240 2711.77610
 1724.50000    6.00000    6.43040   12.30380    5.16870    2.78100    2.65170    3.87060    0.04320 2709.58500
 1724.55000    6.00000    6.43040   12.74940    5.24940    2.78170    2.62810    3.89360    0.04530 2707.39390
 1724.60000    6.00000    6.43040   13.36810    5.33010    2.78240    2.60450    3.87830    0.04730 2705.20270
 1724.65000    6.00000    6.41800   13.98680    5.41080    2.78310    2.58180    3.86180    0.04930 2703.01160
 1724.70000    6.00000    6.39000   14.65470    5.21130    2.78380    2.55910    3.84530    0.05130 2705.84910
 1724.75000    6.00000    6.36190   15.86510    4.76940    2.78450    2.53640    3.82880    0.05330 2715.25070
 1724.80000    6.00000    6.33390   17.01330    4.32750    2.78810    2.51380    3.81230    0.05480 2724.65230
 1724.85000    6.00000    6.30740   18.04440    4.01020    2.79200    2.49110    3.79550    0.05610 2734.05390
 1724.90000    6.00000    6.28150   19.02570    3.90860    2.79590    2.46840    3.77840    0.05740 2743.45550
 1724.95000    6.00000    6.25560   19.89570    3.80700    2.79980    2.45810    3.76140    0.05860 2752.85700
 1725.00000    6.00000    6.22970   20.76570    3.70540    2.79190    2.55390    3.74430    0.05990 2762.25860
 1725.05000    6.00000    6.20380   21.04880    3.60380    2.78400    2.64960    3.72730    0.06110 2771.66020
 1725.10000    6.00000    6.17790   21.26240    3.50230    2.77750    2.74530    3.71030    0.06150 2781.06180
 1725.15000    6.00000    6.16330   21.47590    3.40070    2.77160    2.84100    3.69320    0.06110 2787.12430
 1725.20000    6.00000    6.15600   21.68950    3.29910    2.75570    2.93670    3.68350    0.06070 2783.99620
 1725.25000    6.00000    6.14880   21.46920    3.58750    2.73770    3.20580    3.68620    0.06030 2780.86820
 1725.30000    6.00000    6.14150   21.13640    4.01880    2.72590    3.58270    3.68900    0.05990 2777.74020
 1725.35000    6.00000    6.13430   20.80360    4.45010    2.71560    4.03800    3.69170    0.05940 2774.61220
 1725.40000    6.00000    6.12700   20.47080    4.88140    2.70530    4.54650    3.69440    0.05890 2771.48420
 1725.45000    6.00000    6.11980   20.13800    5.31260    2.69960    5.10930    3.69710    0.05670 2768.35620
 1725.50000    6.00000    6.11590   19.80500    5.83120    2.69390    5.80760    3.69980    0.05460 2765.22820
 1725.55000    6.00000    6.11300   19.45690    6.38970    2.68820    6.48400    3.69170    0.05250 2762.10020
 1725.60000    6.00000    6.11010   19.10880    6.94820    2.68130    7.18280    3.65770    0.05010 2758.97220
 1725.65000    6.00000    6.10710   18.76070    7.50670    2.67270    8.28350    3.62380    0.04730 2755.84410
 1725.70000    6.00000    6.10420   18.41260    8.21100    2.66050    9.48320    3.58980    0.04450 2752.71610
 1725.75000    6.00000    6.10130   18.06440    9.00850    2.64940   10.14880    3.55750    0.04160 2749.58810
