~Version ---------------------------------------------------
VERS.   2.0 : CWLS log ASCII Standard -VERSION 2.0
WRAP.    NO : One line per depth step
DLM . SPACE : Column Data Section Delimiter
~Well ------------------------------------------------------
STRT.m 1682.00000 : START DEPTH
STOP.m 1742.00000 : STOP DEPTH
STEP.m    0.05000 : STEP
NULL.    -9999.25 : NULL VALUE
COMP.     Unknown : COMPANY
WELL.     Unknown : WELL
FLD .     Unknown : FIELD
LOC .             : LOCATION
PROV.             : PROVINCE
CNTY.             : COUNTY
STAT.             : STATE
CTRY.     Unknown : COUNTRY
SRVC.             : SERVICE COMPANY
DATE.     Unknown : DATE
UWI .     Unknown : UNIQUE WELL ID
API .             : API NUMBER
~Curve Information -----------------------------------------
DEPT            .m            : depths
Bit Size        .inches       : digitalized and interpolated data
Caliper         .inches       : digitalized and interpolated data
GammaKUT        .api          : digitalized and interpolated data
GammaKT         .api          : digitalized and interpolated data
Density         .gram per cc  : digitalized and interpolated data
Neutron Porosity.pu           : digitalized and interpolated data
Pe              .unknown      : digitalized and interpolated data
DensityCorr     .gm per cc    : digitalized and interpolated data
Tension         .pounds       : digitalized and interpolated data
~Params ----------------------------------------------------
~Other -----------------------------------------------------
~ASCII -----------------------------------------------------
# ...
 1700.25000    6.00000    6.06450   15.88590    6.73390    2.55110    6.28310    4.85980    0.05000 2787.95790
 1700.30000    6.00000    6.05740   15.81530    6.60280    2.54940    6.42780    4.85930    0.05010 2785.02080
 1700.35000    6.00000    6.05030   15.74470    6.47180    2.54760    6.45060    4.85880    0.05030 2778.86230
 1700.40000    6.00000    6.04320   15.67410    6.34070    2.54590    6.43390    4.85820    0.05040 2772.70370
 1700.45000    6.00000    6.03600   15.60350    6.20960    2.54750    6.41720    4.85770    0.05060 2766.54520
 1700.50000    6.00000    6.02890   15.53300    6.17130    2.54940    6.40060    4.85720    0.05080 2760.38670
 1700.55000    6.00000    6.02180   15.46240    6.30960    2.55130    6.38390    4.85670    0.05090 2754.22810
 1700.60000    6.00000    6.01470   15.39180    6.44800    2.55320    6.36720    4.85610    0.05110 2748.06960
 1700.65000    6.00000    6.00760   15.32120    6.58630    2.55510    6.35060    4.85560    0.05260 2741.91110
 1700.70000    6.00000    6.00910   15.44520    6.72460    2.55830    6.32680    4.85510    0.05420 2735.75250
 1700.75000    6.00000    6.01450   15.59560    6.43080    2.56210    6.23970    4.87020    0.05580 2730.49990
 1700.80000    6.00000    6.01990   15.74590    5.74150    2.56550    6.15250    4.89230    0.05660 2730.49990
 1700.85000    6.00000    6.02530   15.89630    5.05230    2.56700    6.06530    4.91450    0.05630 2730.49990
 1700.90000    6.00000    6.03070   16.04670    4.38520    2.56840    5.97810    4.93660    0.05590 2730.49990
 1700.95000    6.00000    6.03610   16.23600    4.13840    2.56980    5.89090    4.95880    0.05560 2730.49990
 1701.00000    6.00000    6.04150   16.47350    3.89160    2.57130    5.80370    4.95110    0.05530 2730.49990
 1701.05000    6.00000    6.04690   16.71100    3.64480    2.57230    5.85080    4.93650    0.05490 2730.49990
 1701.10000    6.00000    6.04290   16.94860    3.39790    2.57130    6.04810    4.92190    0.05350 2730.49990
 1701.15000    6.00000    6.03390   17.18610    3.15110    2.57020    6.24140    4.90730    0.05220 2730.49990
 1701.20000    6.00000    6.02490   17.42370    3.20800    2.56920    6.38540    4.89270    0.05080 2730.49990
 1701.25000    6.00000    6.01580   17.67890    3.37770    2.56820    6.52940    4.87810    0.04940 2730.49990
 1701.30000    6.00000    6.02130   18.05530    3.54750    2.56260    6.67350    4.86350    0.04800 2730.49990
 1701.35000    6.00000    6.03030   18.43170    3.71730    2.55600    6.81750    4.87940    0.04740 2730.49990
 1701.40000    6.00000    6.03930   18.80800    3.87920    2.54750    7.00310    4.89800    0.04680 2730.49990
 1701.45000    6.00000    6.04840   19.18440    3.95920    2.53940    7.27190    4.91650    0.04630 2730.49990
 1701.50000    6.00000    6.05740   19.53450    4.03920    2.53310    7.56930    4.93510    0.04570 2731.11250
 1701.55000    6.00000    6.06640   19.81570    4.11920    2.52790    7.99420    4.95370    0.04520 2732.35630
 1701.60000    6.00000    6.07540   20.09690    4.19920    2.52340    8.36490    4.94560    0.04460 2733.60020
 1701.65000    6.00000    6.08210   20.37810    4.27920    2.51950    8.71250    4.89190    0.04410 2734.84400
 1701.70000    6.00000    6.06930   20.65940    4.35920    2.51560    9.07070    4.83950    0.04360 2736.08790
 1701.75000    6.00000    6.05660   20.84610    4.41670    2.51010    9.45540    4.81190    0.04430 2737.33170
 1701.80000    6.00000    6.04980   20.80610    4.45360    2.50480    9.82280    4.78420    0.04540 2738.57560
 1701.85000    6.00000    6.05240   20.76610    4.49040    2.50350   10.14800    4.75650    0.04660 2739.81940
 1701.90000    6.00000    6.05500   20.72610    4.52720    2.50230   10.30080    4.72880    0.04770 2741.06320
 1701.95000    6.00000    6.05760   20.68610    4.56400    2.50110   10.45370    4.70110    0.04880 2742.30710
 1702.00000    6.00000    6.06030   20.31520    4.38770    2.49980   10.60660    4.67340    0.05000 2743.55090
 1702.05000    6.00000    6.06290   19.91400    4.14610    2.49860   10.75950    4.67230    0.05110 2744.79480
 1702.10000    6.00000    6.06550   19.50640    3.90440    2.49830   10.91230    4.68590    0.05220 2746.03860
 1702.15000    6.00000    6.06430   18.97250    3.66370    2.49920   10.99020    4.69940    0.05340 2747.28240
 1702.20000    6.00000    6.06210   18.43850    3.42880    2.50020   10.88070    4.71290    0.05510 2748.52630
 1702.25000    6.00000    6.05980   17.90450    3.19380    2.50110   10.77110    4.72640    0.05730 2750.42740
 1702.30000    6.00000    6.05750   17.37050    2.95890    2.50210   10.66160    4.73990    0.05950 2758.62540
 1702.35000    6.00000    6.05520   16.95770    2.72400    2.50300   10.55210    4.75350    0.06170 2766.82350
 1702.40000    6.00000    6.05290   16.54830    2.48900    2.50400   10.40600    4.77290    0.06390 2775.02150
 1702.45000    6.00000    6.05060   16.13880    2.25410    2.50500   10.25460    4.79260    0.06610 2783.21960
 1702.50000    6.00000    6.04700   15.72940    2.01910    2.50770   10.10330    4.81230    0.06830 2791.41760
 1702.55000    6.00000    6.03820   15.32000    1.78420    2.51040    9.95190    4.83200    0.07040 2799.61570
 1702.60000    6.00000    6.02930   15.25440    1.62070    2.51320    9.79810    4.84270    0.07260 2807.81370
 1702.65000    6.00000    6.02050   15.25440    1.74610    2.51620    9.64000    4.83830    0.07470 2816.01180
 1702.70000    6.00000    6.01330   15.25440    1.87150    2.52060    9.48180    4.83390    0.07690 2813.58360
 1702.75000    6.00000    6.01060   15.25440    1.99690    2.52500    9.32370    4.82950    0.07910 2810.20190
 1702.80000    6.00000    6.00790   15.25440    2.12140    2.52910    9.16560    4.82520    0.08140 2806.82020
 1702.85000    6.00000    6.00510   15.25440    2.14590    2.53320    8.99610    4.82080    0.08370 2803.43850
 1702.90000    6.00000    6.00240   15.25440    2.17050    2.53730    8.80770    4.81640    0.08400 2800.05680
 1702.95000    6.00000    5.99960   15.25440    2.19500    2.54280    8.61940    4.81200    0.08360 2796.67520
 1703.00000    6.00000    5.99690   15.63390    2.21960    2.54840    8.42910    4.82390    0.08310 2793.29350
 1703.05000    6.00000    5.98870   16.13110    2.24410    2.55480    8.17860    4.84820    0.08260 2789.91180
 1703.10000    6.00000    5.98010   16.62820    2.26870    2.56110    7.92810    4.87240    0.08210 2780.76310
 1703.15000    6.00000    5.97150   17.12540    2.29320    2.56730    7.72060    4.89670    0.08160 2763.72270
 1703.20000    6.00000    5.96290   17.71140    2.31780    2.57280    7.55380    4.92090    0.07880 2746.68230
 1703.25000    6.00000    5.95430   18.37430    2.68980    2.57830    7.51340    4.94510    0.07610 2729.64190
 1703.30000    6.00000    5.94570   19.03720    3.11960    2.58140    7.75390    4.96940    0.07340 2712.60140
 1703.35000    6.00000    5.94270   19.60100    3.54940    2.58420    7.99430    4.96110    0.07070 2695.56100
 1703.40000    6.00000    5.94050   19.99360    3.97920    2.58700    8.45870    4.94860    0.06820 2678.52060
 1703.45000    6.00000    5.93820   20.38620    4.40590    2.58650    9.14170    4.92810    0.06660 2661.48020
 1703.50000    6.00000    5.93600   20.77880    4.71870    2.58300    9.99520    4.76210    0.06500 2661.92380
 1703.55000    6.00000    5.93380   21.17140    5.03160    2.57840   11.03840    4.56890    0.06340 2670.11030
 1703.60000    6.00000    5.93150   21.25200    5.34440    2.57280   11.72740    4.39590    0.06180 2678.29680
 1703.65000    6.00000    5.92930   20.96710    5.65720    2.56750   13.18920    4.14960    0.06020 2686.48340
 1703.70000    6.00000    5.92770   20.68220    5.97000    2.56240   14.81810    3.88870    0.05860 2694.66990
 1703.75000    6.00000    5.93080   20.39730    6.28280    2.55840   15.80910    3.68330    0.05770 2702.85640
 1703.80000    6.00000    5.93380   20.06760    6.41260    2.55550   17.10350    3.52390    0.05740 2711.04290
 1703.85000    6.00000    5.93690   19.49940    6.13360    2.55270   17.52810    3.43660    0.05700 2719.22940
