~Version ---------------------------------------------------
VERS.   2.0 : CWLS log ASCII Standard -VERSION 2.0
WRAP.    NO : One line per depth step
DLM . SPACE : Column Data Section Delimiter
~Well ------------------------------------------------------
STRT.m            1285.0 : START DEPTH
STOP.m            1340.0 : STOP DEPTH
STEP.m           0.05000 : STEP
NULL.           -9999.25 : NULL VALUE
COMP.               TPAO : COMPANY
WELL.     BATIRAMAN #241 : WELL
FLD .          BATIRAMAN : FIELD
LOC .                    : LOCATION
PROV.                    : PROVINCE
CNTY.                    : COUNTY
STAT.                    : STATE
CTRY.             TURKEY : COUNTRY
SRVC.                    : SERVICE COMPANY
DATE. 02-Aug-09 16:36:59 : DATE
UWI .                241 : UNIQUE WELL ID
API .                    : API NUMBER
~Curve Information -----------------------------------------
DEPT   .m          : depths
Caliper.inches     : Caliper, digitalized and interpolated data
GR     .api        : Gamma-Ray, digitalized and interpolated data
GRS    .api        : Gamma-Ray Spectral, digitalized and interpolated data
DT     .mu-sec/ft  : Sonic log, digitalized and interpolated data
Pe     .           : PhotoElectric Effect, digitalized and interpolated data
NEU    .decp       : Neutron log, digitalized and interpolated data
RHOB   .gram/cc    : Density log, digitalized and interpolated data
DenCorr.gram/cc    : Density correction log, digitalized and interpolated data
~Params ----------------------------------------------------
~Other -----------------------------------------------------
~ASCII -----------------------------------------------------
# ...
 1333.00000    8.29510   34.96300   11.01460   65.84390    4.77070    0.11070    2.44700    0.01210
 1333.05000    8.30270   33.82960   10.77570   65.64760    4.79940    0.11210    2.44810    0.01300
 1333.10000    8.28500   33.43700   10.53670   65.45130    4.82800    0.11410    2.44900    0.01390
 1333.15000    8.26740   33.04440   10.29770   65.30260    4.85670    0.11920    2.44990    0.01480
 1333.20000    8.24980   32.65190   10.05880   65.49890    4.85920    0.12410    2.45080    0.01480
 1333.25000    8.23780   32.42590   10.04990   65.73980    4.85920    0.12720    2.45350    0.01470
 1333.30000    8.23780   32.22960   10.04840   66.13230    4.84800    0.13030    2.45620    0.01300
 1333.35000    8.23780   32.03330   10.04700   66.52490    4.83620    0.13350    2.45890    0.01130
 1333.40000    8.23780   31.82220   10.04560   66.91750    4.82430    0.13620    2.45100    0.01130
 1333.45000    8.23780   31.42960   10.04420   67.48250    4.81250    0.13470    2.45550    0.01130
 1333.50000    8.23780   31.03700   10.04840   68.26770    4.80060    0.13330    2.46000    0.01130
 1333.55000    8.23780   30.64440   10.18960   68.35690    4.78880    0.13190    2.46450    0.01130
 1333.60000    8.23780   30.42960   10.33070   67.86620    4.77690    0.13040    2.46840    0.01140
 1333.65000    8.23780   30.62590   10.47180   67.37550    4.76510    0.12900    2.46840    0.01140
 1333.70000    8.23780   30.82220   10.61300   66.88480    4.75320    0.12630    2.46840    0.01140
 1333.75000    8.24710   31.01850   10.75410   66.31970    4.74140    0.11910    2.46840    0.01140
 1333.80000    8.27060   31.52590   10.89520   65.73090    4.72950    0.11180    2.46840    0.01140
 1333.85000    8.29410   32.31110   11.03630   65.14200    4.71850    0.10450    2.46840    0.01110
 1333.90000    8.31760   32.46670   11.17750   64.55320    4.72250    0.11360    2.46940    0.00940
 1333.95000    8.34110   32.27040   11.31860   64.44010    4.72640    0.10880    2.47360    0.00730
 1334.00000    8.36460   32.07410   11.46530   64.34200    4.73040    0.10410    2.47780    0.00380
 1334.05000    8.37240   31.87780   11.64210   64.24390    4.73440    0.09930    2.48200    0.00090
 1334.10000    8.36070   29.45930   11.81890   64.18140    4.73830    0.09460    2.48620    0.00090
 1334.15000    8.34890   29.26300   11.99560   64.27960    4.74230    0.08980    2.49050    0.00090
 1334.20000    8.33720   29.06670   12.17240   64.37770    4.74630    0.08690    2.48980    0.00090
 1334.25000    8.32540   28.90740   12.34910   64.47580    4.75020    0.08530    2.51090    0.00130
 1334.30000    8.31370   29.10370   12.52590   64.41930    4.75420    0.08370    2.51410    0.00310
 1334.35000    8.31640   29.30000   12.70270   64.12490    4.75810    0.08210    2.53730    0.00490
 1334.40000    8.33400   29.49630   12.85690   63.83050    4.76210    0.07930    2.54160    0.00670
 1334.45000    8.35160   29.75560   12.94460   63.53610    4.76610    0.07610    2.55870    0.00900
 1334.50000    8.36920   30.14810   13.03220   61.94800    4.77000    0.07680    2.55690    0.01260
 1334.55000    8.37760   30.54070   13.11990   61.35910    4.77400    0.07900    2.55780    0.01560
 1334.60000    8.37760   30.93330   13.20760   60.77030    4.77800    0.08110    2.55870    0.01740
 1334.65000    8.37760   31.11110   13.29530   60.18140    4.78190    0.08320    2.55960    0.01920
 1334.70000    8.37760   31.11110   13.38300   60.15460    4.78590    0.08750    2.53630    0.02100
 1334.75000    8.37760   31.11110   13.47060   60.25280    4.78470    0.09270    2.53290    0.02500
 1334.80000    8.37760   31.11110   13.40340   60.35090    4.77050    0.09710    2.52700    0.03230
 1334.85000    8.36760   31.21230   13.04560   60.46390    4.75630    0.10130    2.52010    0.02970
 1334.90000    8.34990   31.34320   12.68790   61.05280    4.74210    0.12330    2.41900    0.03890
 1334.95000    8.33230   31.47410   12.33010   64.64240    4.72790    0.12640    2.41730    0.04350
 1335.00000    8.31470   31.60490   11.97240   65.42750    4.71370    0.13780    2.40300    0.04440
 1335.05000    8.29710   31.73580   11.61460   67.09000    4.69950    0.14090    2.40780    0.04530
 1335.10000    8.27940   31.82960   11.33150   66.89370    4.68530    0.14360    2.41260    0.04620
 1335.15000    8.26180   31.63330   11.15200   66.69740    4.67100    0.14570    2.41750    0.04870
 1335.20000    8.24420   31.43700   10.97240   66.50110    4.65680    0.14780    2.42230    0.05230
 1335.25000    8.23220   31.24070   10.79280   66.21560    4.66460    0.14990    2.42710    0.05470
 1335.30000    8.22340   31.02220   10.61320   65.82300    4.70950    0.15010    2.42220    0.05650
 1335.35000    8.21450   30.76050   10.43370   65.43050    4.75440    0.14790    2.45200    0.05830
 1335.40000    8.20570   30.49880   10.25410   65.03790    4.79940    0.14580    2.45140    0.06010
 1335.45000    8.19690   30.23700   10.07450   64.71080    4.84430    0.14360    2.48340    0.06120
 1335.50000    8.18810   29.97530    9.98650   64.41640    4.88930    0.14020    2.49790    0.06210
 1335.55000    8.17930   29.71360    9.98510   64.12190    4.93420    0.13580    2.52110    0.06300
 1335.60000    8.17050   29.09630    9.98370   63.82750    4.97910    0.13290    2.50230    0.06390
 1335.65000    8.16290   28.31110    9.98220   63.87810    4.98860    0.13070    2.50500    0.06340
 1335.70000    8.15590   27.83700    9.98080   63.97620    4.96730    0.13050    2.50770    0.06250
 1335.75000    8.14880   27.44440    9.97940   64.07430    4.94600    0.13120    2.51040    0.06160
 1335.80000    8.14180   27.05190    9.97800   64.16360    4.92470    0.13190    2.47680    0.06080
 1335.85000    8.13470   26.66670    9.97660   64.16360    4.90340    0.13260    2.47330    0.06210
 1335.90000    8.12770   26.66670    9.97520   64.16360    4.88210    0.13330    2.47160    0.06390
 1335.95000    8.12060   26.66670    9.97380   64.16360    4.86090    0.13400    2.47070    0.06410
 1336.00000    8.11360   26.66670    9.89730   64.22300    4.83960    0.13570    2.46990    0.06410
 1336.05000    8.10650   26.66670    9.77710   64.41930    4.81830    0.13780    2.46900    0.06260
 1336.10000    8.09950   26.66670    9.65690   64.61560    4.79700    0.13780    2.47140    0.06080
 1336.15000    8.12530   26.66670    9.53670   64.81190    4.77790    0.13700    2.47500    0.05910
 1336.20000    8.16060   26.66670    9.41650   65.05870    4.76010    0.13620    2.47860    0.05730
 1336.25000    8.19580   26.66670    9.29630   65.35320    4.74240    0.13540    2.48220    0.05660
 1336.30000    8.23100   26.66670    9.38510   65.64760    4.72460    0.13460    2.48130    0.05610
 1336.35000    8.26630   26.78150    9.56180   65.94200    4.70680    0.13380    2.47960    0.05550
 1336.40000    8.30150   26.97780    9.73860   65.59410    4.68910    0.13300    2.47780    0.05490
 1336.45000    8.32220   27.17410    9.91530   65.00520    4.67130    0.13220    2.47610    0.05430
 1336.50000    8.33990   27.37040   10.09210   64.25280    4.65360    0.12930    2.47130    0.05370
 1336.55000    8.35750   29.52590   10.26890   63.46770    4.63580    0.12600    2.46610    0.04340
 1336.60000    8.37510   30.31110   10.44560   64.15760    4.61810    0.12630    2.45270    0.04000
 1336.65000    8.39270   31.45930   10.62240   64.92940    4.60030    0.12680    2.44580    0.03810
 1336.70000    8.41030   34.10370   11.08370   65.42010    4.58260    0.12730    2.44710    0.03640
 1336.75000    8.42800   34.88890   11.61680   65.91080    4.59020    0.12790    2.45070    0.03460
 1336.80000    8.44560   35.67410   12.14990   66.40150    4.60810    0.12840    2.45430    0.03290
 1336.85000    8.44760   36.45930   12.68300   67.01860    4.62600    0.12890    2.45790    0.02940
 1336.90000    8.44760   37.14070   12.96490   68.00000    4.64390    0.12950    2.45130    0.02600
 1336.95000    8.44760   37.53330   13.20100   68.98140    4.66170    0.13000    2.45130    0.02500
