~Version ---------------------------------------------------
VERS.   2.0 : CWLS log ASCII Standard -VERSION 2.0
WRAP.    NO : One line per depth step
DLM . SPACE : Column Data Section Delimiter
~Well ------------------------------------------------------
STRT.m 1682.00000 : START DEPTH
STOP.m 1742.00000 : STOP DEPTH
STEP.m    0.05000 : STEP
NULL.    -9999.25 : NULL VALUE
COMP.     Unknown : COMPANY
WELL.     Unknown : WELL
FLD .     Unknown : FIELD
LOC .             : LOCATION
PROV.             : PROVINCE
CNTY.             : COUNTY
STAT.             : STATE
CTRY.     Unknown : COUNTRY
SRVC.             : SERVICE COMPANY
DATE.     Unknown : DATE
UWI .     Unknown : UNIQUE WELL ID
API .             : API NUMBER
~Curve Information -----------------------------------------
DEPT            .m            : depths
Bit Size        .inches       : digitalized and interpolated data
Caliper         .inches       : digitalized and interpolated data
GammaKUT        .api          : digitalized and interpolated data
GammaKT         .api          : digitalized and interpolated data
Density         .gram per cc  : digitalized and interpolated data
Neutron Porosity.pu           : digitalized and interpolated data
Pe              .unknown      : digitalized and interpolated data
DensityCorr     .gm per cc    : digitalized and interpolated data
Tension         .pounds       : digitalized and interpolated data
~Params ----------------------------------------------------
~Other -----------------------------------------------------
~ASCII -----------------------------------------------------
# ...
 1718.50000    6.00000    5.91670    9.49630    8.21360    2.54180   15.21420    3.11560    0.04200 2597.13340
 1718.55000    6.00000    5.91370    9.47740    8.35920    2.54440   15.05380    3.11420    0.04340 2595.02480
 1718.60000    6.00000    5.91070    9.45850    8.21130    2.54710   14.98020    3.11280    0.04480 2591.76250
 1718.65000    6.00000    5.90760    9.43960    8.06330    2.55640   14.90670    3.11140    0.04620 2588.50020
 1718.70000    6.00000    5.90460    9.42070    7.91540    2.56930   14.83310    3.10990    0.04760 2585.23790
 1718.75000    6.00000    5.90160    9.40180    7.76740    2.58280   14.75950    3.12910    0.04820 2581.97570
 1718.80000    6.00000    5.89850    9.41450    7.61940    2.59480   14.69290    3.14870    0.04880 2578.71340
 1718.85000    6.00000    5.89550    9.50770    7.46820    2.60190   14.83290    3.16830    0.04940 2575.45110
 1718.90000    6.00000    5.89250    9.60090    7.31410    2.60510   14.97290    3.18790    0.05000 2572.18880
 1718.95000    6.00000    5.89030    9.69400    7.16000    2.60830   15.06470    3.20760    0.05060 2568.92660
 1719.00000    6.00000    5.89060    9.78720    7.00600    2.61150   15.09990    3.22720    0.05030 2565.66430
 1719.05000    6.00000    5.89100    9.88040    6.85190    2.61120   15.13510    3.24680    0.04990 2562.40200
 1719.10000    6.00000    5.89140    9.89150    6.69780    2.61030   15.17020    3.26610    0.04950 2559.13980
 1719.15000    6.00000    5.89170    9.85740    6.54370    2.60940   15.20540    3.26360    0.04910 2558.12610
 1719.20000    6.00000    5.89210    9.82330    6.38960    2.60230   15.24060    3.26100    0.04880 2558.12610
 1719.25000    6.00000    5.89250    9.78910    6.23550    2.60040   15.27580    3.25850    0.04840 2558.12610
 1719.30000    6.00000    5.89420    9.75500    6.08140    2.59850   15.31100    3.25590    0.04800 2558.12610
 1719.35000    6.00000    5.89710    9.72090    6.02420    2.59660   15.34610    3.25330    0.04760 2558.12610
 1719.40000    6.00000    5.90000    9.66710    6.19300    2.59480   15.34310    3.25080    0.04720 2558.12610
 1719.45000    6.00000    5.90290    9.60310    6.36170    2.59400   15.24470    3.23890    0.04760 2558.12610
 1719.50000    6.00000    5.90570    9.53920    6.53040    2.59530   15.14640    3.21880    0.04870 2558.12610
 1719.55000    6.00000    5.90860    9.47520    6.69910    2.59660   15.04810    3.19880    0.04980 2558.12610
 1719.60000    6.00000    5.90820    9.41130    6.86790    2.59780   14.94980    3.17870    0.05080 2558.12610
 1719.65000    6.00000    5.90480    9.34730    7.02660    2.59910   14.85140    3.15860    0.05190 2558.12610
 1719.70000    6.00000    5.90140    9.28330    7.05880    2.60040   14.86580    3.14310    0.05290 2558.12610
 1719.75000    6.00000    5.89800    9.21940    7.09100    2.60160   14.88690    3.14130    0.05400 2559.73040
 1719.80000    6.00000    5.89450    9.19670    7.12320    2.60320   14.90800    3.13950    0.05500 2567.59420
 1719.85000    6.00000    5.89150    9.19860    7.15550    2.60530   14.92920    3.13780    0.05600 2575.45810
 1719.90000    6.00000    5.88900    9.20050    7.18770    2.60730   14.95030    3.13600    0.05700 2583.32190
 1719.95000    6.00000    5.88660    9.20230    6.50180    2.60940   15.05930    3.13420    0.05790 2591.18570
 1720.00000    6.00000    5.88410    9.20420    5.54450    2.61150   15.17130    3.13250    0.05890 2599.04950
 1720.05000    6.00000    5.88160    9.20600    4.83060    2.61320   15.28340    3.13070    0.05980 2606.91330
 1720.10000    6.00000    5.87910    9.20790    4.11680    2.61470   15.39550    3.12890    0.06080 2614.77710
 1720.15000    6.00000    5.87660    9.20970    3.67530    2.61620   15.45690    3.12890    0.06170 2622.64100
 1720.20000    6.00000    5.87430    9.21160    3.62220    2.61770   15.42230    3.13920    0.06290 2630.50480
 1720.25000    6.00000    5.87200    9.21550    3.56920    2.61610   15.38780    3.14940    0.06420 2638.36860
 1720.30000    6.00000    5.86980    9.22860    3.51610    2.61240   15.35320    3.15960    0.06540 2646.23240
 1720.35000    6.00000    5.86760    9.24170    3.46310    2.60870   15.31870    3.16990    0.06660 2654.09620
 1720.40000    6.00000    5.86540    9.25480    3.41000    2.60670   15.28420    3.18010    0.06780 2661.96000
 1720.45000    6.00000    5.86310    9.26800    3.35700    2.60460   15.24960    3.19040    0.06900 2661.73790
 1720.50000    6.00000    5.85930    9.28110    3.30390    2.60260   15.21510    3.20010    0.06980 2659.60090
 1720.55000    6.00000    5.84970    9.29420    3.25090    2.60050   15.18060    3.19660    0.07060 2657.46400
 1720.60000    6.00000    5.84010    9.30060    3.19780    2.59880   15.14600    3.19310    0.07140 2655.32710
 1720.65000    6.00000    5.83050    9.30060    3.39290    2.60170   15.11150    3.18970    0.07220 2653.19010
 1720.70000    6.00000    5.82100    9.30060    3.82690    2.60460   15.05040    3.18620    0.07300 2651.05320
 1720.75000    6.00000    5.81140    9.30060    4.26090    2.60750   14.98690    3.18270    0.07380 2648.91630
 1720.80000    6.00000    5.80180    9.30060    4.69490    2.61030   14.92340    3.17930    0.07460 2646.77930
 1720.85000    6.00000    5.79220    9.27300    5.08300    2.61300   14.85990    3.17580    0.07250 2644.64240
 1720.90000    6.00000    5.79740    9.18020    4.87210    2.61560   14.79640    3.17230    0.06930 2642.50550
 1720.95000    6.00000    5.81160    9.08740    4.66120    2.61830   14.72950    3.19660    0.06600 2640.36850
 1721.00000    6.00000    5.82580    8.99460    4.45030    2.62220   14.63910    3.22350    0.06240 2638.23160
 1721.05000    6.00000    5.84010    8.90180    4.23940    2.62300   14.54880    3.25030    0.05830 2636.09470
 1721.10000    6.00000    5.85430    8.80900    4.00800    2.62030   14.45850    3.27710    0.05420 2633.95770
 1721.15000    6.00000    5.86850    8.71360    3.56930    2.61760   14.36820    3.30400    0.04980 2631.82080
 1721.20000    6.00000    5.88270    8.61660    3.13060    2.61500   14.27780    3.33080    0.04530 2629.68390
 1721.25000    6.00000    5.89700    8.51960    2.69190    2.61230   14.16970    3.34360    0.04070 2627.54690
 1721.30000    6.00000    5.92790    8.42270    2.51490    2.61170   13.98770    3.33850    0.03750 2625.41000
 1721.35000    6.00000    5.96620    8.32570    2.43690    2.61140   13.80580    3.33330    0.03440 2623.27310
 1721.40000    6.00000    6.00450    8.22870    2.35900    2.61110   13.57690    3.32820    0.03120 2621.13610
 1721.45000    6.00000    6.04280    8.13180    2.28100    2.61090   13.26660    3.32310    0.02920 2618.99920
 1721.50000    6.00000    6.08110    8.10270    2.20310    2.61060   12.95630    3.31790    0.02940 2616.86230
 1721.55000    6.00000    6.09800    8.17010    2.12510    2.61030   12.68500    3.31280    0.02960 2617.61330
 1721.60000    6.00000    6.11350    8.23750    2.04720    2.61000   12.41380    3.29320    0.02970 2622.66330
 1721.65000    6.00000    6.12900    8.30490    1.96920    2.60970   12.14570    3.26850    0.02990 2627.71330
 1721.70000    6.00000    6.14450    8.37220    1.89130    2.60950   11.88100    3.24370    0.03010 2632.76330
 1721.75000    6.00000    6.16000    8.43960    2.19950    2.61100   11.63340    3.21890    0.03020 2637.81330
 1721.80000    6.00000    6.17550    8.50700    2.78830    2.61300   11.40360    3.19410    0.03040 2642.86330
 1721.85000    6.00000    6.19090    8.57440    3.37710    2.61510   11.17380    3.16930    0.03060 2647.91330
 1721.90000    6.00000    6.20640    8.69130    3.96600    2.61710   10.92800    3.16440    0.03080 2652.96330
 1721.95000    6.00000    6.19920    8.83910    4.77440    2.62150   10.44650    3.20550    0.03080 2658.01330
 1722.00000    6.00000    6.18880    8.98690    5.50910    2.62700   10.03750    3.24660    0.03080 2663.06330
 1722.05000    6.00000    6.17840    9.13460    5.81170    2.63160    9.72510    3.28770    0.03080 2668.11330
 1722.10000    6.00000    6.16800    9.28240    6.11430    2.63600    9.47810    3.32880    0.03080 2673.00530
