~Version ---------------------------------------------------
VERS.   2.0 : CWLS log ASCII Standard -VERSION 2.0
WRAP.    NO : One line per depth step
DLM . SPACE : Column Data Section Delimiter
~Well ------------------------------------------------------
STRT.m 1786.00000 : START DEPTH
STOP.m 1840.00000 : STOP DEPTH
STEP.m    0.05000 : STEP
NULL.    -9999.25 : NULL VALUE
COMP.     Unknown : COMPANY
WELL.     Unknown : WELL
FLD .     Unknown : FIELD
LOC .             : LOCATION
PROV.             : PROVINCE
CNTY.             : COUNTY
STAT.             : STATE
CTRY.     Unknown : COUNTRY
SRVC.             : SERVICE COMPANY
DATE.     Unknown : DATE
UWI .     Unknown : UNIQUE WELL ID
API .             : API NUMBER
~Curve Information -----------------------------------------
DEPT      .m              : depths
GammaKT   .api            : digitalized and interpolated data
GammaTotal.api            : digitalized and interpolated data
Thorium   .parts-per-mil  : digitalized and interpolated data
Uranium   .parts-per-mil  : digitalized and interpolated data
Potassium .percent        : digitalized and interpolated data
~Params ----------------------------------------------------
~Other -----------------------------------------------------
~ASCII -----------------------------------------------------
# ...
 1798.00000   16.02360   87.67300   10.99380    9.95630    0.59390
 1798.05000   16.55360   89.66390   11.02390   10.14870    0.62040
 1798.10000   17.02990   91.99430   11.05400   10.33850    0.58250
 1798.15000   17.50690   93.84740   11.08230   10.56380    0.59940
 1798.20000   17.99160   96.73040   11.10840   10.78530    0.61640
 1798.25000   18.48920   98.71890   11.14000   11.02870    0.63330
 1798.30000   19.05140  101.90020   11.17410   11.24840    0.69060
 1798.35000   19.48550  104.79490   11.20600   11.52170    0.70430
 1798.40000   19.88540  107.05570   11.23760   11.83460    0.71800
 1798.45000   20.28520  109.60580   11.26310   12.07460    0.73180
 1798.50000   20.68510  112.29810   11.27610   12.38030    0.75730
 1798.55000   21.24820  115.51660   11.28910   12.75160    0.78740
 1798.60000   21.78320  118.96740   11.31570   13.08020    0.81760
 1798.65000   22.22760  123.22900   11.34410   13.38570    0.85430
 1798.70000   22.62530  125.01430   11.37200   13.70280    0.89600
 1798.75000   22.93850  127.90160   11.38240   13.97940    0.90220
 1798.80000   23.69650  131.10430   11.39280   14.27840    0.90510
 1798.85000   23.78810  134.23560   11.40310   14.52300    0.91280
 1798.90000   23.76420  136.05580   11.41350   14.64860    0.92790
 1798.95000   23.57880  137.98980   11.42390   14.73670    0.92100
 1799.00000   23.12990  138.89680   11.43420   14.68410    0.91110
 1799.05000   22.68100  139.45410   11.42910   14.53450    0.87890
 1799.10000   22.36590  139.45350   11.40930   14.28380    0.82760
 1799.15000   22.08250  136.03150   11.38960   14.03460    0.79190
 1799.20000   22.11930  130.30760   11.36540   13.49540    0.75620
 1799.25000   21.03130  127.88870   11.32890   13.14890    0.72220
 1799.30000   19.92650  125.90740   11.29230   12.72270    0.69480
 1799.35000   18.72340  120.99280   11.25500   12.30700    0.66750
 1799.40000   18.05500  114.70510   11.21550   11.84080    0.64010
 1799.45000   17.57620  109.68650   11.17600   11.46520    0.61630
 1799.50000   17.09740  104.58750   11.13760   11.14320    0.59590
 1799.55000   16.61850  100.76740   11.10020   10.75440    0.57540
 1799.60000   16.31650   97.85730   11.09000   10.50970    0.55500
 1799.65000   16.02430   95.29560   11.08000   10.24580    0.53900
 1799.70000   15.79350   93.11320   11.06990   10.01350    0.52480
 1799.75000   15.58290   91.36720   11.05980    9.83830    0.51070
 1799.80000   15.35610   89.71320   11.05010    9.56480    0.49660
 1799.85000   15.10080   88.12470   11.06240    9.41120    0.47720
 1799.90000   14.84560   86.47470   11.07460    9.28870    0.45670
 1799.95000   14.54130   85.18310   11.08140    9.17460    0.43540
 1800.00000   14.11390   84.50980   11.08010    9.08580    0.41400
 1800.05000   13.73170   83.11810   11.07890    8.99900    0.39510
 1800.10000   13.45750   81.61200   11.06970    8.86030    0.38030
 1800.15000   13.18340   80.17460   11.05610    8.72490    0.36550
 1800.20000   12.90930   78.76850   11.04240    8.59260    0.35070
 1800.25000   12.63510   76.82170   11.01670    8.44100    0.33590
 1800.30000   12.31750   75.12980   10.98860    8.30510    0.32110
 1800.35000   11.95380   73.95950   10.96060    8.17170    0.30630
 1800.40000   11.59420   72.87810   10.94530    8.03990    0.29150
 1800.45000   11.26760   71.51040   10.93780    7.93030    0.28410
 1800.50000   10.94100   70.15190   10.93030    7.82430    0.27810
 1800.55000   10.75930   69.18690   10.92280    7.72460    0.26580
 1800.60000   10.59520   68.29200   10.91530    7.63790    0.24870
 1800.65000   10.43110   67.81500   10.90780    7.55810    0.23160
 1800.70000   10.32360   67.51040   10.90030    7.54470    0.23210
 1800.75000   10.30850   67.20580   10.89620    7.53800    0.23320
 1800.80000   10.29330   67.22410   10.89220    7.60420    0.22840
 1800.85000   10.27820   67.38080   10.88810    7.69180    0.22090
 1800.90000   10.21850   67.53750   10.88830    7.77010    0.21330
 1800.95000   10.13920   67.94580   10.89370    7.85320    0.21140
 1801.00000   10.06000   68.62790   10.89920    7.95580    0.21020
 1801.05000    9.98070   69.33420   10.90470    8.11670    0.20910
 1801.10000    9.95840   70.39800   10.91060    8.34510    0.20830
 1801.15000   10.11010   71.94360   10.91650    8.61870    0.21100
 1801.20000   10.26180   74.06270   10.92240    8.84800    0.21370
 1801.25000   10.41350   76.84990   10.93430    9.16020    0.21660
 1801.30000   10.59390   79.52810   10.95550    9.44190    0.22840
 1801.35000   10.77460   82.05320   10.97670    9.75990    0.24030
 1801.40000   10.95520   85.02430   10.99790   10.04510    0.24420
 1801.45000   11.11410   87.73120   11.01910   10.23590    0.24310
 1801.50000   11.23540   89.31990   11.03670   10.37320    0.24200
 1801.55000   11.35660   90.46230   11.05040   10.45970    0.24010
 1801.60000   11.46150   91.23790   11.06100   10.49990    0.23630
 1801.65000   11.55890   91.61430   11.05380   10.54010    0.23500
 1801.70000   11.65630   91.62540   11.04670   10.57490    0.24370
 1801.75000   11.75370   91.53780   11.04410   10.58640    0.25230
 1801.80000   11.85050   91.42920   11.06270   10.59780    0.25770
 1801.85000   11.93510   91.32060   11.08040   10.60930    0.26080
 1801.90000   12.01980   91.32850   11.09000   10.67130    0.26550
 1801.95000   12.23440   91.86330   11.09960   10.76820    0.27580
 1802.00000   12.64470   92.84380   11.10930   10.95580    0.28620
 1802.05000   13.14630   94.94640   11.12140   11.10910    0.29820
 1802.10000   13.65480   96.61250   11.13430   11.33080    0.31780
 1802.15000   14.00560   99.05650   11.14730   11.48870    0.33730
 1802.20000   14.35650  101.39150   11.16020   11.54530    0.35630
 1802.25000   14.73520  102.46890   11.17320   11.60180    0.37070
 1802.30000   15.07680  103.12380   11.18610   11.62030    0.38510
 1802.35000   15.01500  103.31340   11.19910   11.57880    0.39150
 1802.40000   14.95310  103.15190   11.20140   11.53730    0.39780
 1802.45000   14.89130  102.33740   11.20220   11.41690    0.40410
 1802.50000   14.81200  100.63020   11.20290   11.28180    0.39530
 1802.55000   14.59450   98.80050   11.19930   11.19250    0.38610
 1802.60000   14.37690   97.15140   11.18850   10.97810    0.37690
 1802.65000   14.20390   95.32660   11.17760   10.79240    0.36770
 1802.70000   14.06490   94.03330   11.16450   10.70160    0.35870
 1802.75000   13.92920   93.20660   11.15150   10.58980    0.35750
 1802.80000   13.80260   92.48020   11.13060   10.46270    0.35630
 1802.85000   13.67600   91.79930   11.10670   10.46310    0.35520
 1802.90000   13.56350   91.43410   11.08660   10.46340    0.35400
 1802.95000   13.46580   91.10330   11.08800   10.37580    0.35310
 1803.00000   13.36810   91.24840   11.08930   10.43120    0.35270
 1803.05000   13.26610   91.14560   11.09060   10.43540    0.35230
 1803.10000   13.16020   90.92320   11.06950   10.39340    0.35190
 1803.15000   13.05420   90.54620   11.04790   10.36000    0.34850
 1803.20000   12.94830   89.42750   11.01880   10.28330    0.34260
 1803.25000   12.84230   88.17900   10.97940   10.15150    0.33670
 1803.30000   12.73640   87.09850   10.94300    9.99760    0.33640
 1803.35000   12.61800   85.73900   10.94640    9.80090    0.33710
 1803.40000   12.41990   84.22790   10.94920    9.62340    0.33780
 1803.45000   12.22180   82.73140   10.94040    9.50490    0.33160
 1803.50000   12.04360   81.19820   10.93170    9.39630    0.32350
 1803.55000   11.88560   79.66160   10.92280    9.16150    0.31540
 1803.60000   11.72760   78.44660   10.91310    9.01320    0.30910
 1803.65000   11.61830   77.40960   10.90350    8.90570    0.30790
 1803.70000   11.66090   76.89320   10.89380    8.80670    0.30670
 1803.75000   11.70350   76.52220   10.88350    8.77640    0.30550
 1803.80000   11.74620   76.27440   10.87260    8.82110    0.30430
 1803.85000   11.83470   76.53190   10.86180    8.89620    0.30310
 1803.90000   12.35410   77.64100   10.89800    9.02480    0.31300
 1803.95000   12.56140   79.68200   10.94780    9.15890    0.32460
