~Version ---------------------------------------------------
VERS.   2.0 : CWLS log ASCII Standard -VERSION 2.0
WRAP.    NO : One line per depth step
DLM . SPACE : Column Data Section Delimiter
~Well ------------------------------------------------------
STRT.m 1786.00000 : START DEPTH
STOP.m 1840.00000 : STOP DEPTH
STEP.m    0.05000 : STEP
NULL.    -9999.25 : NULL VALUE
COMP.     Unknown : COMPANY
WELL.     Unknown : WELL
FLD .     Unknown : FIELD
LOC .             : LOCATION
PROV.             : PROVINCE
CNTY.             : COUNTY
STAT.             : STATE
CTRY.     Unknown : COUNTRY
SRVC.             : SERVICE COMPANY
DATE.     Unknown : DATE
UWI .     Unknown : UNIQUE WELL ID
API .             : API NUMBER
~Curve Information -----------------------------------------
DEPT      .m              : depths
GammaKT   .api            : digitalized and interpolated data
GammaTotal.api            : digitalized and interpolated data
Thorium   .parts-per-mil  : digitalized and interpolated data
Uranium   .parts-per-mil  : digitalized and interpolated data
Potassium .percent        : digitalized and interpolated data
~Params ----------------------------------------------------
~Other -----------------------------------------------------
~ASCII -----------------------------------------------------
 1786.00000   10.32030   57.62800   10.85420    6.56610    0.26130
 1786.05000   10.32030   57.62800   10.85420    6.56610    0.26130
 1786.10000   10.32030   57.62800   10.85420    6.56610    0.26130
 1786.15000   10.32030   57.62800   10.85420    6.56610    0.26130
 1786.20000   10.44770   57.66460   10.85420    6.56610    0.26130
 1786.25000   10.61180   57.81720   10.85420    6.56610    0.26130
 1786.30000   10.75020   57.96990   10.85420    6.56610    0.26130
 1786.35000   10.84260   58.13090   10.85420    6.56610    0.26130
 1786.40000   10.93500   58.32160   10.85420    6.57010    0.26000
 1786.45000   10.97270   58.51240   10.85420    6.58230    0.25620
 1786.50000   11.00550   58.70360   10.87780    6.59450    0.25250
 1786.55000   11.03830   58.89820   10.90150    6.61070    0.24870
 1786.60000   11.03610   59.09280   10.92510    6.63580    0.24490
 1786.65000   11.01840   59.29870   10.94280    6.66080    0.24080
 1786.70000   11.00070   59.54700   10.95580    6.68590    0.23680
 1786.75000   10.93240   59.79530   10.96880    6.69590    0.23270
 1786.80000   10.86280   59.78420   10.98230    6.67870    0.22740
 1786.85000   10.80530   59.66870   10.99700    6.66160    0.20940
 1786.90000   10.75540   59.53790   11.01170    6.64170    0.20550
 1786.95000   10.70540   59.24450   11.02460    6.60930    0.20530
 1787.00000   10.63450   58.95110   11.01990    6.57680    0.20520
 1787.05000   10.50980   58.74410   11.01520    6.53870    0.19910
 1787.10000   10.38520   58.55090   11.01040    6.49920    0.19200
 1787.15000   10.30450   58.07870   11.00570    6.45650    0.18500
 1787.20000   10.24640   57.58900   11.00100    6.37070    0.17800
 1787.25000   10.21840   56.85130   10.99620    6.28490    0.17100
 1787.30000   10.19030   56.19120   10.99630    6.20570    0.16510
 1787.35000   10.16230   55.55690   10.99660    6.12720    0.16290
 1787.40000   10.13420   54.93240   10.99530    6.04810    0.16080
 1787.45000   10.10610   54.45220   10.98930    5.96850    0.15870
 1787.50000   10.09810   54.01270   10.98320    5.88610    0.15670
 1787.55000   10.11420   53.43870   10.98240    5.79150    0.15520
 1787.60000   10.13020   52.81950   10.98280    5.70200    0.15370
 1787.65000   10.14630   52.37640   10.98610    5.63060    0.15220
 1787.70000   10.21790   51.93340   10.99280    5.55920    0.15180
 1787.75000   10.35770   51.21380   10.99930    5.51060    0.15550
 1787.80000   10.48540   50.90830   10.99130    5.47660    0.15920
 1787.85000   10.58090   50.76570   10.98330    5.44250    0.16290
 1787.90000   10.67640   50.62320   10.99530    5.42230    0.16660
 1787.95000   10.78840   50.54050   11.01330    5.40380    0.17050
 1788.00000   10.92690   50.70710   11.03130    5.41520    0.17730
 1788.05000   11.06550   50.87380   11.04930    5.46770    0.18420
 1788.10000   11.21880   51.18800   11.06640    5.51460    0.19100
 1788.15000   11.37080   52.00730   11.08300    5.55830    0.19700
 1788.20000   11.44990   52.75690   11.09960    5.60190    0.19890
 1788.25000   11.52900   53.40760   11.11050    5.64330    0.20070
 1788.30000   11.60810   53.83600   11.10610    5.61810    0.20270
 1788.35000   11.64860   54.03890   11.10170    5.59290    0.20480
 1788.40000   11.56790   53.55780   11.09730    5.56770    0.20680
 1788.45000   11.48720   53.05310   11.07240    5.53070    0.20730
 1788.50000   11.40520   52.54300   11.04710    5.47340    0.20520
 1788.55000   11.24730   52.00250   11.03170    5.41610    0.20310
 1788.60000   11.08930   51.46730   11.02430    5.36480    0.20110
 1788.65000   10.93530   50.97140   11.01690    5.31960    0.19860
 1788.70000   10.79780   50.63060   11.00240    5.31870    0.19510
 1788.75000   10.66030   50.38630   10.98680    5.31790    0.19160
 1788.80000   10.57380   50.14190   10.97120    5.32350    0.18810
 1788.85000   10.50380   49.90850   10.95560    5.33680    0.18460
 1788.90000   10.43380   50.02340   10.94000    5.35020    0.18990
 1788.95000   10.40440   50.13830   10.92710    5.36350    0.19530
 1789.00000   10.38310   50.16060   10.91970    5.36050    0.20070
 1789.05000   10.36180   50.02840   10.91240    5.34740    0.20610
 1789.10000   10.34050   49.89630   10.90280    5.33440    0.21150
 1789.15000   10.31910   49.78370   10.89110    5.31990    0.21550
 1789.20000   10.29780   49.67240   10.87940    5.29700    0.21940
 1789.25000   10.28990   49.52460   10.87050    5.27410    0.22330
 1789.30000   10.31090   49.25360   10.86180    5.26550    0.22700
 1789.35000   10.33190   48.98260   10.85320    5.27380    0.22880
 1789.40000   10.35290   48.98650   10.84720    5.28210    0.23070
 1789.45000   10.38640   49.17340   10.84450    5.35000    0.23250
 1789.50000   10.46720   49.62190   10.84180    5.42780    0.23430
 1789.55000   10.54800   50.48640   10.83800    5.50200    0.23990
 1789.60000   10.62880   50.98530   10.83260    5.57580    0.24980
 1789.65000   10.70710   51.70140   10.82720    5.63570    0.25970
 1789.70000   10.78160   52.22390   10.82180    5.69210    0.26950
 1789.75000   10.85610   52.57370   10.81640    5.74720    0.27940
 1789.80000   10.92200   53.18150   10.81100    5.79940    0.30210
 1789.85000   10.98580   53.71940   10.81110    5.85150    0.36260
 1789.90000   11.04960   54.22500   10.81140    5.87110    0.32320
 1789.95000   11.11350   54.40040   10.80870    5.88650    0.38370
 1790.00000   11.18240   54.57120   10.80310    5.90180    0.34520
 1790.05000   11.27700   54.80230   10.79750    5.92710    0.31270
 1790.10000   11.37160   55.06370   10.79720    5.96320    0.31670
 1790.15000   11.43520   55.34040   10.79750    5.99930    0.32070
 1790.20000   11.49030   55.66690   10.79500    6.04740    0.32470
 1790.25000   11.54540   55.99340   10.78930    6.10510    0.32910
 1790.30000   11.57510   56.42400   10.78360    6.16460    0.33600
 1790.35000   11.58690   56.97750   10.77710    6.23860    0.34360
 1790.40000   11.59860   57.66360   10.77060    6.31260    0.35260
 1790.45000   11.62780   58.33690   10.76770    6.39920    0.36160
 1790.50000   11.67430   58.95140   10.76700    6.48930    0.36040
 1790.55000   11.72070   59.56590   10.76630    6.53760    0.35660
 1790.60000   11.74840   60.10910   10.76560    6.57990    0.35290
 1790.65000   11.74500   60.55530   10.76480    6.62210    0.36290
 1790.70000   11.74160   61.39960   10.76410    6.64330    0.37380
 1790.75000   11.73820   61.12220   10.76600    6.62870    0.37490
 1790.80000   11.73490   60.88260   10.76870    6.61420    0.36990
 1790.85000   11.73150   60.81290   10.77150    6.59970    0.36480
 1790.90000   11.70460   60.71190   10.77720    6.56420    0.35970
 1790.95000   11.61760   60.53250   10.78280    6.52280    0.36140
 1791.00000   11.53050   60.35320   10.78720    6.47200    0.36930
 1791.05000   11.46150   59.69200   10.78400    6.38850    0.36460
 1791.10000   11.45580   59.23380   10.78090    6.31830    0.35990
 1791.15000   11.45010   58.96240   10.77770    6.29690    0.35520
 1791.20000   11.44440   58.69110   10.77450    6.27550    0.34820
 1791.25000   11.44340   58.61860   10.77380    6.28570    0.33950
 1791.30000   11.45070   58.79510   10.77420    6.30270    0.34210
 1791.35000   11.45810   58.97170   10.77450    6.34460    0.34780
 1791.40000   11.49150   59.24520   10.77490    6.40670    0.35220
 1791.45000   11.55630   59.67140   10.77520    6.46880    0.35010
 1791.50000   11.62480   60.09080   10.77740    6.50080    0.34790
 1791.55000   11.71120   60.48200   10.80560    6.52890    0.34570
 1791.60000   11.79760   60.83720   10.83390    6.55700    0.34470
 1791.65000   11.88400   61.05180   10.84040    6.58130    0.34640
 1791.70000   11.97040   61.26640   10.84260    6.59050    0.34810
 1791.75000   12.05680   61.48090   10.84480    6.59960    0.34970
 1791.80000   12.16730   61.76830   10.84700    6.61970    0.35140
 1791.85000   12.34240   62.08380   10.84920    6.64510    0.35310
 1791.90000   12.51750   62.57670   10.85240    6.68000    0.36090
 1791.95000   12.72110   63.25100   10.85560    6.71950    0.37230
