~Version ---------------------------------------------------
VERS.   2.0 : CWLS log ASCII Standard -VERSION 2.0
WRAP.    NO : One line per depth step
DLM . SPACE : Column Data Section Delimiter
~Well ------------------------------------------------------
STRT.m 1682.00000 : START DEPTH
STOP.m 1742.00000 : STOP DEPTH
STEP.m    0.05000 : STEP
NULL.    -9999.25 : NULL VALUE
COMP.     Unknown : COMPANY
WELL.     Unknown : WELL
FLD .     Unknown : FIELD
LOC .             : LOCATION
PROV.             : PROVINCE
CNTY.             : COUNTY
STAT.             : STATE
CTRY.     Unknown : COUNTRY
SRVC.             : SERVICE COMPANY
DATE.     Unknown : DATE
UWI .     Unknown : UNIQUE WELL ID
API .             : API NUMBER
~Curve Information -----------------------------------------
DEPT    .m           : depths
Gamma   .api         : digitalized and interpolated data
SP      .millivolts  : digitalized and interpolated data
Caliper .inches      : digitalized and interpolated data
Bit Size.inches      : digitalized and interpolated data
Tens    .pounds      : digitalized and interpolated data
MSFL    .Ohm-m       : digitalized and interpolated data
LLD     .Ohm-m       : digitalized and interpolated data
LLS     .Ohm-m       : digitalized and interpolated data
~Params ----------------------------------------------------
~Other -----------------------------------------------------
~ASCII -----------------------------------------------------
 1682.00000   12.13510   14.23620    6.60810    5.92800 2885.80560  100.96410  188.63983  160.78673
 1682.05000   11.83760   14.30620    6.55190    5.92480 2873.92050  104.77204  189.77500  159.86721
 1682.10000   11.68730   14.27060    6.53640    5.92160 2862.03550  106.29357  189.31795  158.95295
 1682.15000   12.06570   14.23500    6.52100    5.92460 2846.00860  110.26549  188.75045  158.04385
 1682.20000   12.44410   14.19940    6.50550    5.94050 2828.98160  105.54809  188.18352  158.41022
 1682.25000   13.21740   14.16340    6.47900    5.95640 2811.95460   96.85584  187.25645  159.18128
 1682.30000   14.43710   14.11260    6.45120    5.90030 2794.92760   64.27715  186.33395  159.95610
 1682.35000   16.27450   14.06180    6.42340    5.90980 2791.65070   47.10383  185.41591  160.73468
 1682.40000   18.30810   14.01100    6.39570    5.91940 2792.29580   39.48604  185.49089  162.91347
 1682.45000   20.06080   13.99090    6.38310    5.91940 2792.94100   37.00800  186.26738  166.41206
 1682.50000   22.46380   14.18150    6.37300    5.91940 2791.62230   35.71088  187.04711  169.98578
 1682.55000   24.27190   14.37210    6.36280    5.91730 2787.29410   34.58948  187.83002  171.71348
 1682.60000   25.51020   14.30800    6.35500    5.91090 2782.96590   34.52944  188.61629  172.15229
 1682.65000   26.21680   13.85260    6.36950    5.90450 2782.99010   38.00331  190.72376  172.59221
 1682.70000   26.62930   13.53020    6.38400    5.95170 2789.18960   47.74345  194.47734  172.96546
 1682.75000   26.17110   13.24390    6.36580    5.93590 2795.38900   57.27813  197.56117  173.28333
 1682.80000   24.95680   12.95750    6.33580    5.92000 2792.76270   59.62360  199.80070  168.40415
 1682.85000   23.55780   12.68290    6.34570    5.93110 2787.09650   62.75342  201.95053  166.96960
 1682.90000   22.17690   12.40910    6.35550    5.94310 2781.43040   64.12990  200.89004  165.54726
 1682.95000   20.92430   12.13540    6.36530    5.95520 2789.37150   73.15995  199.83511  162.76402
 1683.00000   19.68760   11.86860    6.37570    5.90570 2805.96590   80.37115  198.78573  159.13423
 1683.05000   18.44950   11.60880    6.39750    5.90510 2822.56030   84.11553  196.07147  155.58538
 1683.10000   17.58420   11.34900    6.41940    5.90440 2849.21670   88.58251  192.69853  149.28439
 1683.15000   16.74000   11.08930    6.44120    5.90380 2885.45160   95.92535  188.36109  146.11197
 1683.20000   16.05690   11.26720    6.46290    5.90340 2897.49600  102.76263  182.25338  143.17724
 1683.25000   15.56710   11.46810    6.46840    5.90290 2877.36160  120.56010  177.85947  141.09272
 1683.30000   15.30020   11.70650    6.47400    5.90250 2861.98590  107.76373  173.62745  139.03854
 1683.35000   15.03320   12.23840    6.47950    5.90240 2858.35140   96.18758  168.22231  137.01427
 1683.40000   14.76630   12.77030    6.48500    5.90240 2854.71690   74.71156  163.54075  137.13768
 1683.45000   15.06660   13.30220    6.48630    5.90440 2851.08250   58.51831  159.81877  137.49060
 1683.50000   15.46290   13.83410    6.48720    5.94430 2839.72030   50.94327  156.77471  137.84442
 1683.55000   16.07390   14.13950    6.48810    5.91820 2826.70370   45.51102  154.50808  138.02152
 1683.60000   17.24100   13.85840    6.48900    5.89400 2813.68710   34.23460  152.27422  137.89814
 1683.65000   18.66980   13.57720    6.48990    5.88350 2809.34580   28.20942  151.21957  137.55494
 1683.70000   19.79770   13.71640    6.48600    5.87300 2811.61350   25.35708  150.45236  137.19390
 1683.75000   20.72900   14.00440    6.47990    5.95180 2813.88130   24.39036  149.68904  136.83380
 1683.80000   21.82010   14.13360    6.44570    5.93340 2816.14900   23.91348  148.92959  133.76158
 1683.85000   22.32150   14.15360    6.38580    5.91710 2815.38320   24.48856  148.17400  128.60931
 1683.90000   22.75330   14.17370    6.35920    5.91530 2814.32540   25.28079  147.42230  123.17660
 1683.95000   22.90690   14.19380    6.33270    5.91350 2813.26750   29.04678  146.67436  118.01809
 1684.00000   23.06050   14.18530    6.30610    5.91170 2812.94100   34.65627  144.35100  113.38108
 1684.05000   22.77200   14.16010    6.28580    5.91090 2813.58620   44.06689  140.27291  109.75396
 1684.10000   22.26240   14.13480    6.27800    5.91090 2814.23130   55.46676  134.90616  106.27908
 1684.15000   21.65680   14.10960    6.27010    5.91090 2819.23900   71.68660  130.03360  103.16795
 1684.20000   21.19750   14.12470    6.26230    5.91090 2825.68060   76.68768  124.24880  100.14793
 1684.25000   20.87840   14.19330    6.25440    5.91090 2833.88890   82.75148  119.25950   98.26861
 1684.30000   20.55940   14.26190    6.25280    5.91090 2849.41230   81.48866  114.98347   96.74493
 1684.35000   20.46910   14.26650    6.25420    5.91090 2864.93580   79.50265  111.13632   95.24483
 1684.40000   20.71920   14.25580    6.25560    5.91090 2880.45930   76.85753  108.15370   95.93551
 1684.45000   20.96940   14.24400    6.25700    5.90980 2870.42170   73.60695  104.93119   98.01664
 1684.50000   21.43670   14.22700    6.26460    5.90780 2854.23380   68.16823  102.56307   98.47355
 1684.55000   21.97010   14.21000    6.27810    5.90580 2838.04600   65.09416  101.13577   98.99644
 1684.60000   22.02900   14.19300    6.29160    5.90060 2821.85810   63.49726   99.72834  100.74140
 1684.65000   22.08800   14.24680    6.30510    5.88150 2818.13990   60.31840   99.10793  102.51712
 1684.70000   22.08820   14.36520    6.31860    5.86250 2823.53190   61.63789   99.74520  104.32414
 1684.75000   21.88270   14.49070    6.33480    5.95020 2828.92390   63.36202  100.38661  105.91693
 1684.80000   21.67730   14.75030    6.35120    5.93300 2834.31590   67.99300  101.91971  107.36047
 1684.85000   21.52150   15.01000    6.36860    5.91570 2841.08140   73.40094  103.68860  109.64312
 1684.90000   21.43060   15.25930    6.40510    5.90640 2853.18520   81.62857  105.48818  114.31868
 1684.95000   21.33970   15.45660    6.42500    5.90490 2865.28900   88.72295  107.31899  118.03869
 1685.00000   21.24880   15.65400    6.42730    5.90350 2877.39280   97.04121  109.41352  123.21500
 1685.05000   21.10490   15.75550    6.42950    5.90980 2883.97150  102.66202  111.55740  123.89432
 1685.10000   20.85730   15.36880    6.43180    5.93480 2878.94480  109.68307  113.03434  128.61464
 1685.15000   20.60970   15.33510    6.43400    5.95980 2873.91820  114.94355  114.30552  128.81872
 1685.20000   20.21120   15.31420    6.43630    5.91980 2868.89150  120.07987  118.15720  129.02314
 1685.25000   19.69530   15.29330    6.43870    5.94740 2870.56490  125.49511  120.68058  129.84062
 1685.30000   19.16820   15.27020    6.44110    5.90640 2873.54510  130.59363  124.32154  130.81761
 1685.35000   18.63250   15.06770    6.44340    5.90240 2876.52530  136.04550  130.69440  131.80188
 1685.40000   18.04340   14.86520    6.44460    5.90240 2879.50540  144.51436  136.49257  131.84984
 1685.45000   17.42440   14.66270    6.43810    5.90240 2876.63690  154.03322  145.37656  131.46883
 1685.50000   16.71260   14.52550    6.43160    5.90240 2869.92260  152.61668  154.86190  130.25542
 1685.55000   16.20250   14.50650    6.42510    5.90240 2863.20830  149.12519  152.36338  128.64840
 1685.60000   15.87320   14.48750    6.41850    5.90240 2856.49400  143.02936  150.23814  127.06115
 1685.65000   15.54400   14.46850    6.40880    5.90240 2852.44730  139.17127  144.25464  125.70501
 1685.70000   15.40750   14.44950    6.39890    5.90240 2850.38290  135.00293  140.13738  126.24210
 1685.75000   15.28740   14.38200    6.38900    5.95740 2848.31850  129.99073  136.59475  126.78142
 1685.80000   15.16740   14.22730    6.37910    5.92490 2846.25400  113.02049  133.99167  127.32310
 1685.85000   15.07800   14.07270    6.30720    5.90240 2879.63380  100.58208  131.43820  127.86709
 1685.90000   15.17960   13.91810    6.27670    5.90240 2889.43660   89.52110  130.28853  125.56922
 1685.95000   15.28130   13.69650    6.24610    5.90240 2876.42010   81.55752  129.82885  127.48392
