~Version ---------------------------------------------------
VERS.   2.0 : CWLS log ASCII Standard -VERSION 2.0
WRAP.    NO : One line per depth step
DLM . SPACE : Column Data Section Delimiter
~Well ------------------------------------------------------
STRT.m            1285.0 : START DEPTH
STOP.m            1340.0 : STOP DEPTH
STEP.m           0.05000 : STEP
NULL.           -9999.25 : NULL VALUE
COMP.               TPAO : COMPANY
WELL.     BATIRAMAN #241 : WELL
FLD .          BATIRAMAN : FIELD
LOC .                    : LOCATION
PROV.                    : PROVINCE
CNTY.                    : COUNTY
STAT.                    : STATE
CTRY.             TURKEY : COUNTRY
SRVC.                    : SERVICE COMPANY
DATE. 02-Aug-09 16:36:59 : DATE
UWI .                241 : UNIQUE WELL ID
API .                    : API NUMBER
~Curve Information -----------------------------------------
DEPT   .m          : depths
Caliper.inches     : Caliper, digitalized and interpolated data
GR     .api        : Gamma-Ray, digitalized and interpolated data
GRS    .api        : Gamma-Ray Spectral, digitalized and interpolated data
DT     .mu-sec/ft  : Sonic log, digitalized and interpolated data
Pe     .           : PhotoElectric Effect, digitalized and interpolated data
NEU    .decp       : Neutron log, digitalized and interpolated data
RHOB   .gram/cc    : Density log, digitalized and interpolated data
DenCorr.gram/cc    : Density correction log, digitalized and interpolated data
~Params ----------------------------------------------------
~Other -----------------------------------------------------
~ASCII -----------------------------------------------------
 1285.00000    8.60610   41.48150   32.58270   70.85500    4.64790    0.13630    2.62460    0.00810
 1285.05000    8.61780   41.67780   32.70010   70.83120    4.64790    0.13630    2.62280    0.00810
 1285.10000    8.62960   41.87410   32.81750   70.73310    4.64790    0.13610    2.62100    0.00810
 1285.15000    8.64130   42.07040   32.93480   70.63490    4.64790    0.13550    2.61950    0.00810
 1285.20000    8.65310   42.26670   33.05220   70.53680    4.64790    0.13500    2.61950    0.00810
 1285.25000    8.64620   42.46300   33.16960   70.48330    4.64790    0.13440    2.61980    0.00840
 1285.30000    8.62850   42.65930   33.14840   70.48330    4.64790    0.13420    2.62160    0.00900
 1285.35000    8.61090   42.85560   32.96890   70.48330    4.64790    0.13420    2.62340    0.00960
 1285.40000    8.59330   43.14070   32.78930   70.48330    4.64790    0.13420    2.62520    0.01020
 1285.45000    8.58740   43.53330   32.60970   70.48330    4.64790    0.13420    2.62700    0.01080
 1285.50000    8.58740   43.92590   32.46070   70.48330    4.64790    0.13420    2.62880    0.01140
 1285.55000    8.58740   44.31850   32.34050   70.40740    4.64000    0.13420    2.63050    0.01130
 1285.60000    8.58740   45.24440   32.22030   70.30930    4.62230    0.13400    2.63230    0.01070
 1285.65000    8.58740   46.42220   32.10010   70.21120    4.60450    0.13360    2.63410    0.01010
 1285.70000    8.58740   46.97780   31.97990   70.11300    4.58680    0.13330    2.63590    0.00950
 1285.75000    8.58740   47.37040   31.85970   70.01490    4.58310    0.13290    2.63770    0.00900
 1285.80000    8.58740   47.76300   31.87850   69.91670    4.59500    0.13260    2.63950    0.00840
 1285.85000    8.58740   48.14070   31.99590   69.81860    4.60690    0.13220    2.63870    0.00780
 1285.90000    8.58740   47.74810   32.11320   69.73980    4.61880    0.13130    2.63350    0.00720
 1285.95000    8.58740   47.32960   32.23060   69.73980    4.63080    0.13030    2.62950    0.00660
 1286.00000    8.58740   46.74070   32.34800   69.73980    4.64270    0.12920    2.62780    0.00610
 1286.05000    8.60080   46.15190   32.46530   69.73980    4.64790    0.12810    2.62640    0.00550
 1286.10000    8.61850   45.56300   32.62170   69.77990    4.64790    0.12730    2.62590    0.00490
 1286.15000    8.63610   45.11480   32.79840   69.87810    4.64790    0.12660    2.62530    0.00470
 1286.20000    8.65370   44.91850   32.97520   69.97620    4.64790    0.12590    2.62470    0.00470
 1286.25000    8.65730   44.72220   33.15200   70.07430    4.63710    0.12520    2.62410    0.00470
 1286.30000    8.65730   44.52590   33.20340   69.98960    4.61930    0.12450    2.62350    0.00470
 1286.35000    8.65730   44.67410   33.20200   69.79330    4.60160    0.12380    2.62470    0.00470
 1286.40000    8.65730   45.06670   33.20060   69.59700    4.58380    0.12270    2.62830    0.00480
 1286.45000    8.65730   45.45930   33.19910   69.40070    4.58510    0.12170    2.63190    0.00510
 1286.50000    8.65730   45.85190   33.13080   69.20450    4.59700    0.12060    2.63550    0.00550
 1286.55000    8.65730   45.76670   33.04030   69.00820    4.60890    0.11950    2.64010    0.00600
 1286.60000    8.65730   45.57040   32.94990   68.25580    4.62080    0.11740    2.64550    0.00640
 1286.65000    8.65730   45.37410   32.85940   67.87660    4.63270    0.11520    2.64850    0.00690
 1286.70000    8.65730   45.15560   32.76890   67.77840    4.64460    0.11420    2.64970    0.00730
 1286.75000    8.65730   44.37040   32.67840   67.68030    4.64140    0.11320    2.65090    0.00780
 1286.80000    8.65730   43.64440   32.58790   67.58220    4.63250    0.11430    2.65210    0.00820
 1286.85000    8.65730   43.25190   32.49740   67.61040    4.62360    0.11530    2.65330    0.00910
 1286.90000    8.65730   42.85930   32.63300   68.00300    4.61470    0.11640    2.65450    0.01000
 1286.95000    8.65730   42.46670   32.80970   68.39550    4.60590    0.11750    2.65360    0.01090
 1287.00000    8.65730   42.29630   32.98650   68.78810    4.59700    0.11910    2.65190    0.01180
 1287.05000    8.65730   42.49260   33.16320   69.08850    4.58810    0.12060    2.65010    0.01130
 1287.10000    8.65730   42.68890   33.81750   69.28480    4.57920    0.12220    2.64840    0.01070
 1287.15000    8.65730   42.88520   34.52870   69.59410    4.57750    0.12380    2.64620    0.01010
 1287.20000    8.65730   43.20000   34.69540   69.98660    4.57750    0.12540    2.64390    0.00950
 1287.25000    8.65730   43.59260   34.81280   70.17840    4.57750    0.12700    2.64150    0.00900
 1287.30000    8.65730   43.98520   34.93010   70.27660    4.57750    0.12850    2.63920    0.00840
 1287.35000    8.65730   44.37780   35.04750   70.37470    4.57750    0.13000    2.63680    0.00780
 1287.40000    8.65730   44.60740   35.16490   70.47290    4.57750    0.13040    2.63450    0.00720
 1287.45000    8.65730   44.80370   35.28220   70.65870    4.58530    0.13070    2.62560    0.00660
 1287.50000    8.65730   45.00000   35.28220   70.85500    4.59420    0.13110    2.62390    0.00610
 1287.55000    8.65730   45.18520   35.28080   71.05130    4.60320    0.13140    2.62210    0.00550
 1287.60000    8.65730   45.18520   35.27940   71.24760    4.61210    0.13180    2.62040    0.00490
 1287.65000    8.65730   45.18520   35.28220   71.44390    4.62100    0.13230    2.61920    0.00490
 1287.70000    8.65730   45.18520   35.39960   71.64010    4.62990    0.13330    2.61830    0.00490
 1287.75000    8.65730   45.29630   35.51700   71.83640    4.63890    0.13440    2.61750    0.00490
 1287.80000    8.65730   45.68890   35.63440   72.03270    4.64780    0.13540    2.61660    0.00490
 1287.85000    8.65730   46.08150   35.75170   72.22900    4.63620    0.13650    2.61640    0.00430
 1287.90000    8.65730   46.47410   35.86910   72.34200    4.62430    0.13750    2.61640    0.00370
 1287.95000    8.65730   47.26670   36.01180   72.34200    4.61250    0.13860    2.61640    0.00320
 1288.00000    8.65730   48.44440   36.36680   72.39410    4.60060    0.13970    2.61640    0.00260
 1288.05000    8.65730   49.13330   36.72170   72.49220    4.58880    0.14090    2.61640    0.00200
 1288.10000    8.65730   49.52590   37.07660   72.59030    4.57800    0.14300    2.61640    0.00160
 1288.15000    8.65730   49.91850   37.43150   72.68850    4.58990    0.14500    2.61590    0.00220
 1288.20000    8.65730   50.31110   37.78650   73.00520    4.60180    0.14660    2.61540    0.00280
 1288.25000    8.65730   50.37040   38.09910   73.39780    4.61370    0.14820    2.61480    0.00340
 1288.30000    8.65730   50.37040   38.21650   73.62380    4.62560    0.14980    2.61420    0.00400
 1288.35000    8.65730   50.37040   38.33390   73.82010    4.63750    0.15160    2.61360    0.00460
 1288.40000    8.65730   50.40000   38.45130   74.39110    4.64630    0.15470    2.61300    0.00520
 1288.45000    8.65730   50.79260   38.56860   74.96800    4.63450    0.15770    2.61140    0.00580
 1288.50000    8.65730   51.18520   38.68600   75.36060    4.62260    0.15980    2.60960    0.00640
 1288.55000    8.65730   51.57780   38.72940   75.78590    4.61080    0.16180    2.60950    0.00700
 1288.60000    8.65730   51.97040   38.54990   76.37470    4.59890    0.16340    2.60950    0.00760
 1288.65000    8.65730   52.36300   38.37030   76.85650    4.58710    0.16500    2.60790    0.00820
 1288.70000    8.65730   52.75560   38.19070   77.05280    4.57750    0.16660    2.60610    0.00860
 1288.75000    8.65730   53.14810   38.02870   77.02600    4.57750    0.16750    2.60760    0.00860
 1288.80000    8.65730   53.12590   37.90850   76.63350    4.57750    0.16540    2.60940    0.00860
 1288.85000    8.65730   52.73330   37.78840   76.14570    4.57750    0.16320    2.61120    0.00860
 1288.90000    8.65730   52.34070   37.66820   75.55690    4.57750    0.16110    2.61300    0.00860
 1288.95000    8.65730   51.94810   37.54800   73.59700    4.57750    0.15770    2.61660    0.00860
