~Version ---------------------------------------------------
VERS.   2.0 : CWLS log ASCII Standard -VERSION 2.0
WRAP.    NO : One line per depth step
DLM . SPACE : Column Data Section Delimiter
~Well ------------------------------------------------------
STRT.m            1285.0 : START DEPTH
STOP.m            1340.0 : STOP DEPTH
STEP.m           0.05000 : STEP
NULL.           -9999.25 : NULL VALUE
COMP.               TPAO : COMPANY
WELL.     BATIRAMAN #241 : WELL
FLD .          BATIRAMAN : FIELD
LOC .                    : LOCATION
PROV.                    : PROVINCE
CNTY.                    : COUNTY
STAT.                    : STATE
CTRY.             TURKEY : COUNTRY
SRVC.                    : SERVICE COMPANY
DATE. 02-Aug-09 16:36:59 : DATE
UWI .                241 : UNIQUE WELL ID
API .                    : API NUMBER
~Curve Information -----------------------------------------
DEPT   .m          : depths
Caliper.inches     : Caliper, digitalized and interpolated data
GR     .api        : Gamma-Ray, digitalized and interpolated data
GRS    .api        : Gamma-Ray Spectral, digitalized and interpolated data
DT     .mu-sec/ft  : Sonic log, digitalized and interpolated data
Pe     .           : PhotoElectric Effect, digitalized and interpolated data
NEU    .decp       : Neutron log, digitalized and interpolated data
RHOB   .gram/cc    : Density log, digitalized and interpolated data
DenCorr.gram/cc    : Density correction log, digitalized and interpolated data
~Params ----------------------------------------------------
~Other -----------------------------------------------------
~ASCII -----------------------------------------------------
# ...
 1325.00000    8.35430   56.29630   12.39490   59.70260    5.00000    0.06570    2.56440    0.03710
 1325.05000    8.33080   56.29630   12.21530   59.11380    5.00000    0.06350    2.56980    0.03620
 1325.10000    8.30830   56.29630   12.03580   58.57700    5.00000    0.06140    2.57530    0.03540
 1325.15000    8.34350   56.29630   11.85620   58.47880    5.00000    0.05920    2.58070    0.03440
 1325.20000    8.37820   54.63700   11.67660   58.38070    5.00000    0.05800    2.58670    0.03260
 1325.25000    8.39580   53.85190   11.49700   58.28250    5.00000    0.05730    2.59310    0.03070
 1325.30000    8.41340   53.20000   11.31750   58.19480    5.00000    0.05650    2.59950    0.02810
 1325.35000    8.43100   52.80740   11.13790   58.12940    5.00000    0.05580    2.60590    0.02550
 1325.40000    8.44760   52.94810   10.96680   58.06390    5.00000    0.05510    2.59710    0.02280
 1325.45000    8.44760   53.73330   10.87630   57.99850    5.00000    0.05440    2.59710    0.02070
 1325.50000    8.44760   54.29630   10.78580   57.93310    5.00000    0.05460    2.59710    0.02070
 1325.55000    8.44760   54.68890   10.69530   57.86770    4.99750    0.05510    2.59710    0.02070
 1325.60000    8.44760   52.68150   10.60480   57.88550    4.97620    0.05570    2.59710    0.02070
 1325.65000    8.44760   49.54070   10.51430   57.95090    4.95490    0.05620    2.59710    0.02070
 1325.70000    8.44760   50.96300   10.42380   58.01640    4.93360    0.05710    2.56790    0.02070
 1325.75000    8.44760   47.03700   10.33330   58.08180    4.91240    0.05820    2.56620    0.02070
 1325.80000    8.44760   45.92590   10.25970   58.14720    4.89110    0.05920    2.56440    0.02080
 1325.85000    8.44760   45.93330   10.25830   58.21260    4.86980    0.06030    2.56270    0.02080
 1325.90000    8.44500   46.32590   10.25690   58.87140    4.84850    0.06220    2.55040    0.02080
 1325.95000    8.42740   46.71850   10.25550   59.55840    4.82720    0.06430    2.54870    0.02080
 1326.00000    8.40980   47.11110   10.25410   60.24540    4.80590    0.06390    2.54690    0.02080
 1326.05000    8.39220   48.08150   10.25270   59.39630    4.79290    0.06280    2.54520    0.02140
 1326.10000    8.38070   50.82960   10.25130   59.78880    4.81440    0.06170    2.54860    0.02320
 1326.15000    8.39830   51.49630   10.24990   60.18140    4.83580    0.06070    2.55500    0.02490
 1326.20000    8.41590   54.63700   10.24840   60.57400    4.85730    0.05960    2.56140    0.02670
 1326.25000    8.43360   58.14810   10.24700   60.74350    4.87880    0.05850    2.56780    0.02780
 1326.30000    8.45120   58.93330   10.24560   60.54720    4.90020    0.05750    2.58750    0.02780
 1326.35000    8.46880   61.42960   10.24420   60.35090    4.92170    0.05640    2.61070    0.02780
 1326.40000    8.48640   62.60740   10.24280   60.15460    4.94320    0.04900    2.61100    0.02780
 1326.45000    8.50410   61.86670   10.24140   58.72710    4.96470    0.04780    2.63620    0.02780
 1326.50000    8.51750   60.29630   10.24000   58.33460    4.98610    0.04230    2.63980    0.02780
 1326.55000    8.51750   58.29630   10.23860   57.94200    4.99370    0.03740    2.64340    0.02810
 1326.60000    8.51750   54.37040   10.16960   57.54940    4.97600    0.03740    2.64700    0.02870
 1326.65000    8.51750   51.94070    9.99000   57.31450    4.95820    0.03740    2.65010    0.02930
 1326.70000    8.51750   48.81480    9.81040   57.11820    4.94050    0.03740    2.65100    0.02990
 1326.75000    8.51750   46.85190    9.63080   57.18960    4.92270    0.03750    2.65190    0.03050
 1326.80000    8.51750   45.06670    9.45130   57.28770    4.90490    0.03820    2.65280    0.03110
 1326.85000    8.51750   44.28150    9.27170   57.38590    4.88720    0.03890    2.65300    0.03040
 1326.90000    8.51750   40.42960    9.09210   57.48000    4.86940    0.03960    2.65120    0.02870
 1326.95000    8.51750   39.25190    8.91250   57.54550    4.85170    0.04030    2.64920    0.02690
 1327.00000    8.51750   38.07410    8.76110   57.61090    4.83390    0.04100    2.64660    0.02520
 1327.05000    8.51750   36.89630    8.64090   57.67630    4.81620    0.04220    2.64400    0.02340
 1327.10000    8.51750   35.91110    8.52070   57.74180    4.79840    0.04530    2.64130    0.02170
 1327.15000    8.51750   35.12590    8.40060   57.80720    4.78470    0.04880    2.62080    0.02030
 1327.20000    8.51750   35.28890    8.28040   57.88700    4.77580    0.05400    2.61560    0.01910
 1327.25000    8.51750   36.07410    8.16020   57.98510    4.76690    0.05850    2.58630    0.01790
 1327.30000    8.51750   36.85930    8.10480   58.08330    4.75800    0.05900    2.58110    0.01680
 1327.35000    8.51750   37.64440    8.10340   58.18140    4.74910    0.05960    2.56580    0.01560
 1327.40000    8.51750   38.42960    8.10200   58.21560    4.74020    0.06010    2.56520    0.01440
 1327.45000    8.51750   39.21480    8.10060   58.21560    4.73130    0.06070    2.56460    0.01380
 1327.50000    8.51750   39.62960    8.09910   58.21560    4.72240    0.06180    2.56400    0.01340
 1327.55000    8.51750   40.02220    8.09770   58.21560    4.71830    0.06300    2.56340    0.01310
 1327.60000    8.51750   40.41480    8.09630   58.21560    4.71830    0.06510    2.56280    0.01270
 1327.65000    8.51750   40.74070    8.09490   58.21560    4.71830    0.06720    2.56170    0.01240
 1327.70000    8.51750   40.74070    8.09350   58.21560    4.71830    0.06930    2.55480    0.01200
 1327.75000    8.51750   40.79630    8.09210   58.21560    4.73220    0.07120    2.54810    0.01170
 1327.80000    8.51750   40.99260    8.14990   58.21560    4.75610    0.07230    2.54460    0.01130
 1327.85000    8.51750   41.18890    8.23750   58.28700    4.78000    0.07330    2.54170    0.01100
 1327.90000    8.50940   41.38520    8.32520   58.67960    4.80380    0.07440    2.54900    0.01060
 1327.95000    8.49170   41.38150    8.41290   60.21120    4.82770    0.07590    2.55630    0.01120
 1328.00000    8.47410   41.18520    8.50060   61.97770    4.85160    0.07900    2.56360    0.01210
 1328.05000    8.45650   40.98890    8.58820   61.94800    4.87130    0.08150    2.55590    0.01300
 1328.10000    8.44760   40.79260    8.67590   62.92940    4.88920    0.08100    2.55950    0.01390
 1328.15000    8.44760   40.74070    8.76360   63.51820    4.90710    0.08040    2.55840    0.01410
 1328.20000    8.44760   40.74070    8.96390   63.71450    4.92500    0.07990    2.55570    0.01410
 1328.25000    8.44760   40.90740    9.20010   63.61340    4.91640    0.07930    2.55310    0.01410
 1328.30000    8.45680   41.10370    9.43620   63.31900    4.89860    0.07860    2.55050    0.01410
 1328.35000    8.47440   41.30000    9.67240   63.02450    4.88090    0.07790    2.54730    0.01410
 1328.40000    8.49200   43.76300    9.90850   62.73010    4.86310    0.07720    2.54210    0.01410
 1328.45000    8.50970   44.54810   10.14470   62.35540    4.85920    0.07650    2.51410    0.01310
 1328.50000    8.51360   45.40740   10.18370   61.96280    4.85920    0.07570    2.52330    0.01190
 1328.55000    8.50650   46.58520   10.18220   61.38880    4.85920    0.07420    2.53200    0.01080
 1328.60000    8.49950   52.08890   10.18080   60.80000    4.85920    0.07090    2.53840    0.00960
 1328.65000    8.49240   52.87410   10.17940   60.21120    4.85920    0.06920    2.54480    0.00840
 1328.70000    8.48540   54.07410   10.17800   59.33090    4.85920    0.06990    2.55120    0.00730
 1328.75000    8.47830   54.07410   10.17660   59.33090    4.84410    0.07060    2.54030    0.00830
 1328.80000    8.47130   53.65930   10.06820   59.42600    4.82640    0.07130    2.54950    0.00950
 1328.85000    8.46420   52.87410    9.94800   59.81860    4.80860    0.07210    2.55140    0.01060
 1328.90000    8.45720   52.21480    9.82780   61.32640    4.79080    0.07280    2.54960    0.01180
 1328.95000    8.45010   51.62590    9.70760   61.71900    4.77310    0.07500    2.54850    0.01300
